datetime,Water Temperature_F,Sp Cond_uS/cm,pH,ODOSat_%,ODO_mg/L,BGA-Phycocyanin RFU_rfu,BGA-PC_ug/l,Chlorophyll RFU_rfu,Chlorophyll_ug/l,Rel. Barometric Pressure_inHg,Air Temperature_F,Wind Direction_deg,Wind Speed_mph,PAR_umol/s/m,Heading_deg,Hs Wave Height_m,Tp (DPD) Wave Period_sec,Dominant Wave Direction_deg,Mean Wave Direction (MWD)_deg,Hmax Wave Height_m,H10 Wave Height_m,Rolld_deg,Pitch_deg
7/16/2021 0:00,75.11,393,8.74,101.4,8.53,0.7,0.5,3.6,15,28.5,64.94,,,0,333.5,0.02,1.6,258,226,0.03,0.02,-1.4,1.1
7/16/2021 0:10,75.07,393,8.74,101.4,8.54,1.2,0.8,3,12.5,28.5,64.94,,,,338.3,0.02,1.6,258,226,0.03,0.02,-1.3,0.4
7/16/2021 0:20,75.07,393,8.75,101.4,8.53,0.6,0.4,3.6,15,28.5,64.76,,,1,338.6,0.01,7.7,156,199,0.01,0.01,-1.3,1.5
7/16/2021 0:30,75.07,393,8.74,101.3,8.53,0.7,0.5,3.4,14.1,28.5,64.4,,,,335.7,0.01,7.7,156,199,0.01,0.01,-2.4,1.5
7/16/2021 0:40,75.02,393,8.74,101.3,8.53,0.7,0.4,2.4,10.1,28.5,64.4,,,1,341,0.01,8.5,179,104,0.01,0.01,-2.1,0.7
7/16/2021 0:50,74.96,393,8.75,101.2,8.53,0.8,0.5,3.2,13.2,28.5,64.58,,,,333.7,0.01,8.5,179,104,0.01,0.01,-2.3,1.5
7/16/2021 1:00,74.96,393,8.75,101.2,8.53,0.7,0.4,2.7,11.2,28.5,64.58,,,1,330.9,0.01,7.7,113,276,0.01,0.01,-1.6,1.1
7/16/2021 1:10,74.94,393,8.75,101.2,8.53,0.7,0.5,2.7,11.3,28.5,64.58,,,,334.8,0.01,7.7,113,276,0.01,0.01,-1.8,0.7
7/16/2021 1:20,74.89,393,8.74,101.1,8.53,0.7,0.5,2.7,11.2,28.5,64.94,,,1,335.9,0.01,1.8,110,116,0.02,0.01,-2,1.3
7/16/2021 1:30,74.84,393,8.74,101.1,8.53,0.8,0.5,2.9,12.3,28.5,64.58,,,,333.3,0.01,1.8,110,116,0.02,0.01,-2.3,0.6
7/16/2021 1:40,74.86,393,8.75,101.1,8.53,0.8,0.5,3.4,14.3,28.5,64.04,,,1,335.4,0.01,1.6,125,141,0.02,0.02,-2.5,1
7/16/2021 1:50,74.86,393,8.74,101.1,8.53,0.8,0.5,2.8,11.8,28.5,64.04,,,,333.8,0.01,1.6,125,141,0.02,0.02,-2.5,1.2
7/16/2021 2:00,74.85,393,8.74,101.1,8.53,0.7,0.4,3.4,14.5,28.5,63.86,,,1,342.3,0.01,1.9,114,135,0.02,0.02,-2.4,0.9
7/16/2021 2:10,74.82,393,8.74,101,8.53,0.7,0.4,3.1,13.1,28.5,63.68,,,,341.5,0.01,1.9,114,135,0.02,0.02,-2.1,1.2
7/16/2021 2:20,74.83,393,8.74,101,8.53,1,0.6,3.3,14,28.5,63.68,,,1,333.9,0.01,1.8,134,125,0.02,0.01,-2.3,0.9
7/16/2021 2:30,74.77,393,8.74,100.9,8.53,0.7,0.4,3.3,13.7,28.5,63.32,,,,330,0.01,1.8,134,125,0.02,0.01,-1.6,1.1
7/16/2021 2:40,74.76,394,8.74,100.9,8.53,0.8,0.5,3,12.4,28.5,63.14,,,1,337.9,0.01,1.8,131,122,0.02,0.01,-2.3,1.4
7/16/2021 2:50,74.73,393,8.74,100.9,8.52,0.8,0.5,2.9,12,28.5,62.96,,,,340.4,0.01,1.8,131,122,0.02,0.01,-2,0.6
7/16/2021 3:00,74.73,394,8.74,100.8,8.52,0.8,0.5,5.1,21.5,28.5,63.14,,,1,338.1,0.01,1.7,139,198,0.02,0.01,-2.1,0.8
7/16/2021 3:10,74.71,393,8.73,100.8,8.52,0.7,0.4,2.6,10.9,28.5,63.5,,,,341,0.01,1.7,139,198,0.02,0.01,-2.5,1.2
7/16/2021 3:20,74.69,394,8.73,100.8,8.52,0.9,0.6,3.3,13.7,28.5,63.14,,,1,335.4,0.01,1.7,108,106,0.03,0.02,-1.8,0.9
7/16/2021 3:30,74.69,394,8.73,100.7,8.52,0.9,0.6,3,12.8,28.5,62.78,,,,330.4,0.01,1.7,108,106,0.03,0.02,-2,1.6
7/16/2021 3:40,74.66,394,8.73,100.7,8.52,0.9,0.6,2.8,11.7,28.5,61.88,,,0,332.1,0.01,1.8,75,86,0.02,0.02,-2,1.5
7/16/2021 3:50,74.65,394,8.73,100.6,8.51,0.8,0.5,3.1,13.2,28.5,61.88,,,,334.3,0.01,1.8,75,86,0.02,0.02,-1.9,1.1
7/16/2021 4:00,74.62,394,8.72,100.6,8.51,0.9,0.6,4,17,28.5,61.52,,,1,336.3,0.03,1.4,54,66,0.05,0.03,-1.5,0.9
7/16/2021 4:10,74.6,394,8.72,100.5,8.51,0.7,0.4,3.2,13.6,28.5,61.7,,,,337.9,0.03,1.4,54,66,0.05,0.03,-1.7,0.6
7/16/2021 4:20,74.6,394,8.72,100.5,8.5,0.8,0.5,4,16.6,28.5,61.52,,,1,336.5,0.01,1.7,47,48,0.01,0.01,-2,1.5
7/16/2021 4:30,74.59,394,8.72,100.4,8.5,0.8,0.5,2.8,11.6,28.5,61.16,,,,335.4,0.01,1.7,47,48,0.01,0.01,-2.4,0.7
7/16/2021 4:40,74.57,394,8.71,100.4,8.5,0.7,0.4,3.1,12.8,28.5,60.98,,,2,333.7,0.01,1.3,309,63,0.03,0.02,-2.6,0.9
7/16/2021 4:50,74.53,394,8.71,100.3,8.49,0.7,0.5,3.6,15.2,28.5,60.98,,,,333.1,0.01,1.3,309,63,0.03,0.02,-1.5,1
7/16/2021 5:00,74.53,394,8.71,100.3,8.49,1.2,0.8,3.5,14.9,28.5,60.62,,,1,337.3,0.01,6,48,195,0.01,0.01,-1.8,1.2
7/16/2021 5:10,74.51,394,8.71,100.2,8.49,0.8,0.5,3.3,14,28.5,60.44,,,,339.6,0.01,6,48,195,0.01,0.01,-2.3,1
7/16/2021 5:20,74.48,394,8.71,100.1,8.49,0.6,0.4,2.8,11.7,28.5,60.26,,,1,332.7,0.01,2.3,52,351,0.01,0.01,-2.4,0.9
7/16/2021 5:30,74.45,394,8.71,100.1,8.48,0.8,0.5,2.9,12,28.5,59.9,,,,335.1,0.01,2.3,52,351,0.01,0.01,-2.4,0.9
7/16/2021 5:40,74.39,394,8.71,100,8.48,0.7,0.5,3.5,14.9,28.5,59.9,,,3,336.5,0.01,6.6,351,85,0.01,0.01,-2.2,1.1
7/16/2021 5:50,74.41,394,8.72,100,8.48,0.7,0.5,3,12.7,28.6,60.26,,,,333.8,0.01,6.6,351,85,0.01,0.01,-1.9,0.9
7/16/2021 6:00,74.42,394,8.72,100,8.48,0.8,0.5,3.6,15.1,28.6,60.98,,,15,337.9,0.02,1.3,75,83,0.04,0.03,-2.3,1.3
7/16/2021 6:10,74.4,394,8.71,99.9,8.47,0.7,0.5,2.9,12,28.6,61.52,,,,333.8,0.02,1.3,75,83,0.04,0.03,-2.4,1.1
7/16/2021 6:20,74.4,394,8.71,99.9,8.47,0.9,0.6,4.2,17.6,28.6,61.52,,,50,336.8,0.03,1.5,98,133,0.05,0.04,-1.5,0.4
7/16/2021 6:30,74.37,394,8.7,99.9,8.47,0.7,0.5,3.7,15.6,28.6,61.52,,,,334.6,0.03,1.5,98,133,0.05,0.04,-2.2,1.2
7/16/2021 6:40,74.39,394,8.7,99.8,8.46,0.8,0.5,2.7,11.2,28.6,62.42,,,94,339.4,0.02,1.7,42,58,0.03,0.02,-2.5,1.4
7/16/2021 6:50,74.38,394,8.7,99.8,8.46,0.8,0.5,5.1,21.6,28.6,62.96,,,,331.3,0.02,1.7,42,58,0.03,0.02,-1.4,0.9
7/16/2021 7:00,74.37,394,8.69,99.8,8.46,0.7,0.4,4.6,19.5,28.6,63.5,,,163,336.6,0.02,1.4,53,53,0.04,0.03,-1.2,1
7/16/2021 7:10,74.36,394,8.69,99.7,8.46,0.7,0.5,4.3,18,28.6,64.58,,,,336.6,0.02,1.4,53,53,0.04,0.03,-1.7,0.9
7/16/2021 7:20,74.36,394,8.7,99.7,8.45,0.7,0.5,3.8,15.9,28.6,64.76,,,270,335.1,0.01,1.8,196,210,0.02,0.02,-2.1,0.3
7/16/2021 7:30,74.36,394,8.7,99.7,8.45,0.7,0.5,3.1,13.1,28.6,64.58,,,,336.6,0.01,1.8,196,210,0.02,0.02,-1.2,1.1
7/16/2021 7:40,74.36,394,8.7,99.6,8.45,0.7,0.5,2.9,12.2,28.6,64.22,,,358,336,0.03,2.5,190,164,0.05,0.04,-2.3,0.8
7/16/2021 7:50,74.36,394,8.7,99.6,8.45,0.7,0.4,3.2,13.3,28.6,64.94,,,,335.2,0.03,2.5,190,164,0.05,0.04,-2.2,0.1
7/16/2021 8:00,74.36,394,8.7,99.6,8.45,0.8,0.5,3.7,15.8,28.6,65.66,,,492,337.2,0.02,1.4,327,287,0.03,0.02,-1.8,1.1
7/16/2021 8:10,74.36,394,8.71,99.6,8.45,0.8,0.5,3.5,14.7,28.6,66.2,,,,334.1,0.02,1.4,327,287,0.03,0.02,-1.4,0.8
7/16/2021 8:20,74.38,394,8.71,99.6,8.45,0.8,0.5,4.4,18.8,28.6,66.38,,,623,334.9,0.04,2.4,162,163,0.07,0.05,-1.9,0.1
7/16/2021 8:30,74.39,394,8.71,99.6,8.44,0.7,0.4,2.9,12.1,28.6,66.56,,,,336,0.04,2.4,162,163,0.07,0.05,-2.8,0.9
7/16/2021 8:40,74.4,394,8.72,99.6,8.44,0.8,0.5,2.7,11.2,28.6,67.46,,,776,341.3,0.03,1.9,184,156,0.06,0.04,-2.5,0.4
7/16/2021 8:50,74.42,394,8.73,99.6,8.45,0.7,0.5,2.9,12.1,28.6,67.82,,,,334.4,0.03,1.9,184,156,0.06,0.04,-1.6,1.4
7/16/2021 9:00,74.48,394,8.74,99.7,8.45,0.8,0.5,2.3,9.4,28.6,68.72,,,871,332.5,0.04,1.3,68,92,0.07,0.05,-0.8,0.9
7/16/2021 9:10,74.53,393,8.74,99.8,8.45,0.7,0.5,2.7,11.3,28.6,68.72,,,,334.6,0.04,1.3,68,92,0.07,0.05,-2.9,1.2
7/16/2021 9:20,74.57,393,8.75,99.9,8.45,0.7,0.4,2.7,11.2,28.6,68.9,,,993,338.8,0.05,1.9,153,134,0.09,0.07,-2,0.6
7/16/2021 9:30,74.58,394,8.75,99.9,8.45,0.8,0.5,3.3,14,28.6,69.26,,,,339.9,0.05,1.9,153,134,0.09,0.07,-2.2,0.9
7/16/2021 9:40,74.62,393,8.75,99.9,8.46,0.8,0.5,2.8,11.5,28.6,69.8,,,1107,339.6,0.04,1.4,83,82,0.07,0.05,-1.2,0.5
7/16/2021 9:50,74.66,393,8.75,100,8.46,0.7,0.4,2.7,11.2,28.6,69.62,,,,337.6,0.04,1.4,83,82,0.07,0.05,-1.4,0.8
7/16/2021 10:00,74.68,393,8.76,100,8.46,0.7,0.4,2.8,11.8,28.6,69.8,,,1189,339.4,0.04,1.4,151,132,0.08,0.06,-1.5,1.6
7/16/2021 10:10,74.73,393,8.76,100.1,8.46,0.7,0.5,2.4,10.1,28.6,69.98,,,,336.4,0.04,1.4,151,132,0.08,0.06,-1.2,0.7
7/16/2021 10:20,74.77,393,8.76,100.2,8.46,0.8,0.5,1.9,7.9,28.6,70.34,,,1319,340.4,0.04,1.7,240,176,0.08,0.06,-2.4,1
7/16/2021 10:30,74.79,393,8.77,100.2,8.47,0.7,0.5,3.1,13.1,28.6,70.52,,,,336.7,0.04,1.7,240,176,0.08,0.06,-2.3,1.3
7/16/2021 10:40,74.87,393,8.77,100.3,8.47,0.7,0.4,2.6,11.1,28.6,70.88,,,1424,343.1,0.05,1.7,179,146,0.1,0.07,-2.6,1.2
7/16/2021 10:50,74.91,393,8.77,100.4,8.47,0.7,0.5,2.7,11.4,28.6,70.88,,,,338.2,0.05,1.7,179,146,0.1,0.07,-1.5,0.7
7/16/2021 11:00,74.94,393,8.77,100.5,8.47,0.7,0.5,2.9,12.3,28.6,71.24,,,998,339,0.04,1.3,163,166,0.08,0.05,-1.8,0.4
7/16/2021 11:10,74.98,393,8.77,100.5,8.47,0.7,0.4,2.9,12.3,28.6,71.42,,,,337.7,0.04,1.3,163,166,0.08,0.05,-2.4,0.9
7/16/2021 11:20,75.06,393,8.77,100.6,8.47,0.7,0.4,2.7,11.1,28.6,71.42,,,1495,335.8,0.07,1.4,147,147,0.13,0.09,-2.4,1
7/16/2021 11:30,75.09,393,8.77,100.7,8.47,0.7,0.4,2.8,11.7,28.6,71.6,,,,339.5,0.07,1.4,147,147,0.13,0.09,-2.5,0.6
7/16/2021 11:40,75.07,393,8.77,100.7,8.48,0.7,0.4,3.1,12.8,28.6,71.96,,,878,340.5,0.07,1.6,142,110,0.13,0.09,-1.2,0.8
7/16/2021 11:50,75.18,393,8.77,100.8,8.48,0.6,0.4,2,8.1,28.6,71.78,,,,337.1,0.07,1.6,142,110,0.13,0.09,-1.9,0.5
7/16/2021 12:00,75.3,393,8.77,101,8.48,0.7,0.4,2.3,9.6,28.6,72.32,,,1752,337.3,0.08,2,156,152,0.13,0.1,-2.6,0.7
7/16/2021 12:10,75.35,393,8.78,101,8.48,0.6,0.4,2.1,8.9,28.6,72.14,,,,340.4,0.08,2,156,152,0.13,0.1,-1.7,1
7/16/2021 12:20,75.33,393,8.77,101.1,8.49,0.6,0.4,2.4,10.1,28.6,71.42,,,637,337.3,0.06,1.7,65,88,0.1,0.07,-1.4,1.1
7/16/2021 12:30,75.45,393,8.76,101.2,8.49,0.5,0.3,1.7,7.1,28.6,72.68,,,,340.2,0.06,1.7,65,88,0.1,0.07,-2.3,1
7/16/2021 12:40,75.74,394,8.76,101.5,8.49,0.5,0.3,1.3,5.5,28.6,72.86,,,1847,338.7,0.04,1.3,98,91,0.08,0.06,-1.7,0.6
7/16/2021 12:50,75.76,393,8.77,101.6,8.49,0.5,0.3,1.6,6.5,28.6,72.5,,,,340.1,0.04,1.3,98,91,0.08,0.06,-2.1,1.1
7/16/2021 13:00,75.78,393,8.78,101.7,8.5,0.5,0.3,1.6,6.7,28.6,72.5,,,1314,338.4,0.05,1.3,110,105,0.1,0.07,-2,0.9
7/16/2021 13:10,75.74,393,8.79,101.7,8.51,0.5,0.3,1.6,6.7,28.6,72.14,,,,340.4,0.05,1.3,110,105,0.1,0.07,-1.2,1.1
7/16/2021 13:20,75.74,393,8.79,101.8,8.51,0.6,0.4,1.8,7.6,28.6,72.5,,,762,336.3,0.07,2.4,164,131,0.13,0.09,-2.5,0.9
7/16/2021 13:30,75.81,393,8.8,101.9,8.52,0.6,0.4,1.7,7,28.6,73.4,,,,338.2,0.07,2.4,164,131,0.13,0.09,-2.6,1
7/16/2021 13:40,75.91,393,8.8,102.1,8.52,0.5,0.3,1.7,7.1,28.6,73.22,,,1908,337.1,0.07,1.6,96,96,0.1,0.08,-1.5,0.3
7/16/2021 13:50,76.03,393,8.8,102.3,8.53,0.5,0.3,1.6,6.7,28.6,73.58,,,,341.2,0.07,1.6,96,96,0.1,0.08,-1.5,0.4
7/16/2021 14:00,76.08,393,8.81,102.4,8.53,0.5,0.3,1.9,7.7,28.6,73.04,,,1861,337.9,0.11,2.2,162,140,0.2,0.14,-1.5,0.6
7/16/2021 14:10,76.05,393,8.81,102.5,8.54,0.6,0.4,1.8,7.4,28.6,72.86,,,,339.3,0.11,2.2,162,140,0.2,0.14,-2.1,0.5
7/16/2021 14:20,75.96,392,8.82,102.5,8.55,0.7,0.4,2.8,11.5,28.6,72.86,,,753,339.6,0.08,1.8,137,130,0.15,0.11,-1.6,0.7
7/16/2021 14:30,75.93,392,8.82,102.5,8.56,0.7,0.4,2.8,11.9,28.6,73.04,,,,337.2,0.08,1.8,137,130,0.15,0.11,-2.2,0.3
7/16/2021 14:40,75.95,392,8.82,102.6,8.56,0.7,0.5,2.8,11.9,28.6,73.22,,,948,333.6,0.09,2.2,175,164,0.16,0.12,-3.4,0.8
7/16/2021 14:50,76.08,392,8.82,102.8,8.56,0.6,0.4,2.2,9,28.6,73.76,,,,338.4,0.09,2.2,175,164,0.16,0.12,-2.2,1.2
7/16/2021 15:00,76.16,392,8.83,102.9,8.57,0.7,0.4,2.2,9.2,28.6,73.94,,,1744,336.1,0.11,1.5,93,166,0.2,0.14,-2.1,0.8
7/16/2021 15:10,76.25,392,8.83,103.1,8.57,0.6,0.4,2.2,9.4,28.6,74.3,,,,331.8,0.11,1.5,93,166,0.2,0.14,-0.8,0.7
7/16/2021 15:20,76.37,392,8.84,103.3,8.58,0.6,0.4,2.4,9.9,28.6,74.3,,,1377,337.4,0.1,1.7,127,154,0.14,0.12,-2.5,0.6
7/16/2021 15:30,76.56,392,8.84,103.6,8.59,0.7,0.4,2,8.1,28.5,74.12,,,,339.8,0.1,1.7,127,154,0.14,0.12,-2.1,1
7/16/2021 15:40,76.7,392,8.85,103.8,8.59,0.6,0.4,1.9,7.7,28.6,74.48,,,1519,339.6,0.08,1.5,192,189,0.14,0.1,-2.2,1
7/16/2021 15:50,76.84,392,8.85,104,8.6,0.7,0.4,1.9,7.9,28.5,74.84,,,,333.3,0.08,1.5,192,189,0.14,0.1,-2.8,0.5
7/16/2021 16:00,76.96,392,8.85,104.2,8.61,0.6,0.4,1.8,7.4,28.5,74.84,,,1358,335.1,0.09,1.7,151,146,0.16,0.11,-1.8,1
7/16/2021 16:10,77.05,392,8.86,104.4,8.62,0.6,0.4,1.9,7.8,28.5,75.74,,,,336.7,0.09,1.7,151,146,0.16,0.11,-1.4,-0.2
7/16/2021 16:20,77.1,392,8.86,104.6,8.63,0.7,0.4,2.1,8.6,28.5,74.3,,,574,337.6,0.1,1.6,155,131,0.17,0.12,-1.2,0.8
7/16/2021 16:30,77.07,392,8.87,104.7,8.64,0.7,0.4,2.5,10.4,28.5,74.3,,,,336.6,0.1,1.6,155,131,0.17,0.12,-1.9,0.7
7/16/2021 16:40,77.17,391,8.87,104.9,8.64,0.6,0.4,2.1,8.6,28.5,74.66,,,1149,336.5,0.07,1.7,143,159,0.13,0.09,-2.5,1
7/16/2021 16:50,77.17,391,8.88,105,8.65,0.7,0.5,2,8.5,28.6,74.3,,,,334.1,0.07,1.7,143,159,0.13,0.09,-1.4,1
7/16/2021 17:00,77.19,391,8.88,105.2,8.66,0.7,0.4,2.4,10.2,28.6,74.66,,,1076,338.1,0.07,1.5,142,156,0.13,0.09,-2.4,1
7/16/2021 17:10,77.23,391,8.89,105.3,8.67,0.8,0.5,2.2,9.1,28.5,75.02,,,,334.4,0.07,1.5,142,156,0.13,0.09,-3.2,1.3
7/16/2021 17:20,77.3,391,8.89,105.5,8.68,0.7,0.5,2.1,8.7,28.5,74.48,,,952,336.2,0.11,1.8,131,140,0.19,0.14,-1.5,0.9
7/16/2021 17:30,77.27,391,8.89,105.6,8.69,0.7,0.5,2.6,10.9,28.5,74.48,,,,339.5,0.11,1.8,131,140,0.19,0.14,-2.4,1
7/16/2021 17:40,77.31,391,8.9,105.7,8.7,0.7,0.5,2.4,10.1,28.5,74.66,,,828,338.4,0.08,1.8,70,132,0.15,0.11,-3.3,1.1
7/16/2021 17:50,77.36,391,8.9,105.9,8.71,0.7,0.5,2.4,9.9,28.5,74.66,,,,340.5,0.08,1.8,70,132,0.15,0.11,-3,1.5
7/16/2021 18:00,77.37,391,8.9,106,8.72,0.7,0.5,2.3,9.5,28.5,74.48,,,751,337.6,0.09,1.9,259,124,0.16,0.12,-2.7,0.6
7/16/2021 18:10,77.33,391,8.91,106.1,8.73,0.8,0.5,2.5,10.6,28.5,74.3,,,,340.6,0.09,1.9,259,124,0.16,0.12,-2.2,0.7
7/16/2021 18:20,77.27,391,8.91,106.1,8.74,0.8,0.5,3.1,12.8,28.5,74.3,,,607,337.8,0.09,1.5,125,141,0.16,0.11,-2.2,0.8
7/16/2021 18:30,77.27,391,8.91,106.2,8.75,0.8,0.5,3.2,13.5,28.5,74.3,,,,340.8,0.09,1.5,125,141,0.16,0.11,-1.3,0.3
7/16/2021 18:40,77.28,391,8.91,106.3,8.75,0.8,0.5,2.4,10.1,28.5,74.3,,,532,336.6,0.09,2.2,168,238,0.16,0.11,-2.4,0.9
7/16/2021 18:50,77.26,390,8.91,106.4,8.76,0.7,0.5,2.8,11.6,28.5,74.12,,,,334.4,0.09,2.2,168,238,0.16,0.11,-3.4,0.7
7/16/2021 19:00,77.24,390,8.91,106.5,8.77,0.7,0.4,2.8,11.8,28.5,74.12,,,410,336.4,0.08,1.7,167,185,0.15,0.11,-3.6,0.7
7/16/2021 19:10,77.2,390,8.91,106.6,8.78,0.8,0.5,2.4,10.2,28.5,73.94,,,,338.4,0.08,1.7,167,185,0.15,0.11,-2.9,0.8
7/16/2021 19:20,77.2,390,8.91,106.7,8.79,0.8,0.5,2.6,10.9,28.5,73.76,,,323,338.8,0.08,1.4,195,67,0.14,0.1,-3.3,1.2
7/16/2021 19:30,77.14,390,8.92,106.7,8.79,0.9,0.6,2.7,11.4,28.5,73.58,,,,341.3,0.08,1.4,195,67,0.14,0.1,-1.5,0.4
7/16/2021 19:40,77.07,390,8.91,106.7,8.8,0.8,0.5,2.7,11.4,28.5,73.22,,,221,337.5,0.08,1.8,106,127,0.14,0.1,-2.7,0.7
7/16/2021 19:50,77.01,390,8.91,106.7,8.81,0.9,0.6,3.2,13.4,28.5,72.86,,,,335.3,0.08,1.8,106,127,0.14,0.1,-2.2,1
7/16/2021 20:00,76.97,390,8.92,106.8,8.82,0.9,0.6,2.8,11.6,28.5,72.68,,,138,339,0.07,1.5,223,133,0.12,0.09,-1.7,0.9
7/16/2021 20:10,76.89,390,8.92,106.8,8.82,0.8,0.5,2.2,9.1,28.5,72.5,,,,341.8,0.07,1.5,223,133,0.12,0.09,-1.7,1.1
7/16/2021 20:20,76.85,390,8.92,106.8,8.83,0.8,0.5,2.7,11.4,28.5,72.14,,,71,337.1,0.07,1.6,336,22,0.13,0.09,-1.1,0.5
7/16/2021 20:30,76.8,390,8.92,106.8,8.84,0.8,0.5,2.2,9,28.5,71.6,,,,338.7,0.07,1.6,336,22,0.13,0.09,-1.4,0.5
7/16/2021 20:40,76.71,390,8.92,106.8,8.84,0.8,0.5,2.8,11.5,28.5,71.42,,,28,339.2,0.08,1.6,138,91,0.15,0.1,-1.8,0.4
7/16/2021 20:50,76.71,390,8.92,106.8,8.84,0.9,0.6,2.6,11,28.5,70.88,,,,340.6,0.08,1.6,138,91,0.15,0.1,-1.5,0.2
7/16/2021 21:00,76.65,390,8.91,106.8,8.85,0.8,0.5,2.8,11.5,28.5,70.34,,,6,338.2,0.08,1.6,151,274,0.13,0.1,-1,0.3
7/16/2021 21:10,76.57,390,8.91,106.8,8.86,0.9,0.6,2.9,12.1,28.5,69.98,,,,332,0.08,1.6,151,274,0.13,0.1,-2.2,0.3
7/16/2021 21:20,76.52,390,8.91,106.8,8.86,0.9,0.6,2.9,12,28.5,69.8,,,1,334.1,0.07,1.6,314,312,0.12,0.08,-3.4,0.7
7/16/2021 21:30,76.45,390,8.91,106.8,8.86,0.9,0.6,2.8,11.8,28.5,69.62,,,,335.4,0.07,1.6,314,312,0.12,0.08,-2.8,1.1
7/16/2021 21:40,76.41,391,8.9,106.8,8.87,0.9,0.6,2.9,12.2,28.5,69.26,,,0,337,0.04,1.5,292,337,0.08,0.06,-2.1,1
7/16/2021 21:50,76.36,391,8.9,106.8,8.87,0.9,0.6,3.2,13.4,28.5,69.26,,,,337.9,0.04,1.5,292,337,0.08,0.06,-1.8,0.6
7/16/2021 22:00,76.28,391,8.9,106.7,8.87,1,0.6,3.4,14.2,28.6,69.08,,,0,336.3,0.05,1.4,323,79,0.09,0.06,-1.7,0.8
7/16/2021 22:10,76.21,391,8.9,106.6,8.87,0.9,0.6,2.9,12.3,28.6,68.9,,,,338.9,0.05,1.4,323,79,0.09,0.06,-1.8,1.1
7/16/2021 22:20,76.16,391,8.89,106.6,8.87,1,0.6,3.5,14.6,28.6,68.54,,,0,340.9,0.02,1.4,101,74,0.03,0.02,-1.4,0.6
7/16/2021 22:30,76.13,391,8.89,106.5,8.87,0.8,0.5,2.8,11.9,28.6,68,,,,337.9,0.02,1.4,101,74,0.03,0.02,-1.7,0.6
7/16/2021 22:40,76.1,391,8.88,106.5,8.87,0.9,0.6,2.7,11.4,28.6,68.18,,,1,336.9,0.02,1.6,81,33,0.03,0.02,-2,0.8
7/16/2021 22:50,76.02,391,8.87,106.4,8.87,1,0.7,3.1,13.2,28.6,68.18,,,,339.9,0.02,1.6,81,33,0.03,0.02,-1.3,1.1
7/16/2021 23:00,75.98,392,8.86,106.3,8.87,1,0.6,2.9,12.2,28.6,68,,,1,334.7,0.02,1.8,85,94,0.02,0.02,-1.9,0.9
7/16/2021 23:10,75.97,391,8.87,106.3,8.86,0.8,0.5,3,12.5,28.6,67.82,,,,330.1,0.02,1.8,85,94,0.02,0.02,-2.2,1.1
7/16/2021 23:20,75.97,392,8.86,106.2,8.86,0.8,0.5,2.7,11.5,28.6,67.46,,,1,329.9,0.02,1.3,67,68,0.04,0.03,-1.3,1.1
7/16/2021 23:30,75.92,391,8.86,106.1,8.86,0.9,0.6,3.4,14.1,28.6,67.46,,,,334.8,0.02,1.3,67,68,0.04,0.03,-2.7,0.8
7/16/2021 23:40,75.9,392,8.86,106.1,8.86,0.7,0.5,3.1,13.1,28.6,67.64,,,1,342,0.02,1.2,84,149,0.03,0.03,-1.6,0.6
7/16/2021 23:50,75.9,391,8.86,106.1,8.86,0.8,0.5,2.5,10.4,28.6,67.28,,,,340.9,0.02,1.2,84,149,0.03,0.03,-2.2,0.6
7/17/2021 0:00,75.87,392,8.85,106,8.85,0.7,0.5,2.8,11.9,28.6,67.46,,,0,342.1,0.01,2.3,77,115,0.02,0.02,-1.9,0.8
7/17/2021 0:10,75.81,392,8.86,105.9,8.85,0.7,0.5,2.5,10.4,28.6,67.28,,,,335.9,0.01,2.3,77,115,0.02,0.02,-1.9,0.7
7/17/2021 0:20,75.81,392,8.85,105.9,8.85,1,0.6,2.7,11.3,28.6,67.28,,,1,334.2,0.02,1.7,91,48,0.03,0.02,-2.4,1
7/17/2021 0:30,75.76,392,8.84,105.8,8.85,0.9,0.6,2.4,10.1,28.6,66.92,,,,331.1,0.02,1.7,91,48,0.03,0.02,-2.2,0.4
7/17/2021 0:40,75.7,392,8.84,105.7,8.84,0.7,0.5,2.4,10,28.6,66.92,,,0,333.8,0.02,1.5,78,338,0.03,0.02,-1.7,1.4
7/17/2021 0:50,75.68,392,8.83,105.7,8.84,0.8,0.5,2.6,10.9,28.6,66.38,,,,334.3,0.02,1.5,78,338,0.03,0.02,-1.9,1.1
7/17/2021 1:00,75.65,392,8.83,105.6,8.84,0.8,0.5,2.6,10.8,28.6,66.02,,,0,337.6,0.02,16.9,215,185,0.03,0.02,-2.1,1.4
7/17/2021 1:10,75.62,392,8.82,105.5,8.83,0.7,0.4,3.2,13.4,28.6,65.84,,,,329,0.02,16.9,215,185,0.03,0.02,-2,0.7
7/17/2021 1:20,75.57,392,8.82,105.4,8.83,0.7,0.5,2.7,11.1,28.6,65.66,,,1,342.5,0.02,1.6,71,76,0.03,0.02,-2.5,1
7/17/2021 1:30,75.52,392,8.82,105.3,8.83,0.7,0.4,2.5,10.3,28.6,65.66,,,,336.6,0.02,1.6,71,76,0.03,0.02,-2.7,1.2
7/17/2021 1:40,75.52,392,8.82,105.2,8.82,0.8,0.5,2.2,9.1,28.6,65.3,,,0,340.4,0.07,1.4,78,238,0.1,0.09,-1.8,1
7/17/2021 1:50,75.5,392,8.81,105.2,8.82,0.7,0.5,2.3,9.6,28.6,65.3,,,,338,0.07,1.4,78,238,0.1,0.09,-2.5,1.1
7/17/2021 2:00,75.47,393,8.8,105.1,8.81,0.7,0.4,2.5,10.3,28.6,65.48,,,1,332.6,0.05,1.3,54,94,0.07,0.06,-2.4,1.1
7/17/2021 2:10,75.42,393,8.79,105,8.81,0.6,0.4,2.5,10.4,28.6,66.2,,,,333.8,0.05,1.3,54,94,0.07,0.06,-2.1,0.9
7/17/2021 2:20,75.43,393,8.79,104.9,8.8,0.6,0.4,2.4,10,28.6,66.02,,,1,337.3,0.05,1.2,47,93,0.08,0.06,-1.8,0.7
7/17/2021 2:30,75.4,393,8.78,104.8,8.79,0.6,0.4,2.4,10.1,28.6,65.84,,,,332.4,0.05,1.2,47,93,0.08,0.06,-2.5,0.5
7/17/2021 2:40,75.36,393,8.78,104.7,8.79,0.6,0.4,2.4,10.1,28.6,65.3,,,0,333.5,0.05,1.2,47,93,0.08,0.06,-1.3,0.5
7/17/2021 2:50,75.33,393,8.77,104.5,8.78,0.6,0.4,2.2,9.2,28.6,65.3,,,,337.1,0.05,1.2,27,12,0.09,0.06,-2,1.4
7/17/2021 3:00,75.33,393,8.76,104.5,8.77,0.6,0.4,2.4,9.9,28.6,65.12,,,1,332.5,0.05,1.2,27,12,0.09,0.06,-2,0.5
7/17/2021 3:10,75.33,394,8.76,104.4,8.77,0.6,0.4,2.2,9.3,28.6,64.76,,,,338.5,0.03,1.2,40,75,0.05,0.04,-1.8,1
7/17/2021 3:20,75.32,393,8.75,104.3,8.76,0.5,0.3,2.4,10.1,28.6,65.12,,,1,338.3,0.03,1.2,40,75,0.05,0.04,-2,1.4
7/17/2021 3:30,75.27,393,8.75,104.2,8.75,0.6,0.4,2.5,10.5,28.6,65.3,,,,335.2,0.04,1.2,65,98,0.08,0.05,-2.5,0.5
7/17/2021 3:40,75.25,394,8.74,104.1,8.75,0.6,0.4,2.4,9.8,28.6,65.66,,,1,334.1,0.04,1.2,65,98,0.08,0.05,-1.7,1.1
7/17/2021 3:50,75.23,394,8.74,104,8.74,0.6,0.4,2.2,9.2,28.6,65.66,,,,341.4,0.02,17.1,91,90,0.03,0.03,-1.8,0.6
7/17/2021 4:00,75.21,394,8.74,103.9,8.74,0.6,0.3,2.2,8.9,28.6,65.3,,,1,335.9,0.02,17.1,91,90,0.03,0.03,-2.6,0.7
7/17/2021 4:10,75.2,394,8.74,103.8,8.73,0.6,0.4,2.2,9.2,28.6,64.94,,,,338.1,0.03,1.4,65,48,0.05,0.03,-1.6,1.3
7/17/2021 4:20,75.19,394,8.74,103.8,8.73,0.6,0.4,2.3,9.4,30.1,64.04,89,2.7,1,335.1,0.03,1.4,65,48,0.05,0.03,-2.2,0.9
7/17/2021 4:30,75.2,394,8.74,103.7,8.72,0.6,0.4,2.5,10.2,28.6,63.68,,,,340.6,0.03,1.2,210,83,0.04,0.03,-2.2,0.6
7/17/2021 4:40,75.19,394,8.74,103.7,8.72,0.6,0.4,2.5,10.4,28.6,63.32,,,1,334.6,0.03,1.2,210,83,0.04,0.03,-2.4,1.2
7/17/2021 4:50,75.19,394,8.75,103.6,8.71,0.6,0.4,2.4,10,28.6,63.5,,,,332.9,0.03,1.2,60,42,0.05,0.03,-2.4,1.5
7/17/2021 5:00,75.19,394,8.75,103.6,8.71,0.6,0.4,2.6,10.9,28.6,63.5,,,1,339.8,0.03,1.2,60,42,0.05,0.03,-2.1,0.5
7/17/2021 5:10,75.15,393,8.76,103.5,8.71,0.7,0.4,2.7,11.4,28.6,63.14,,,,335.8,0.02,1.2,42,341,0.03,0.03,-2,1.2
7/17/2021 5:20,75.18,393,8.78,103.5,8.71,0.8,0.5,3.5,14.9,28.6,63.14,,,1,335.9,0.02,1.2,42,341,0.03,0.03,-1.3,0.6
7/17/2021 5:30,75.17,393,8.77,103.4,8.7,0.8,0.5,2.5,10.6,28.6,62.78,,,,333.6,0.03,1.2,85,50,0.05,0.04,-2.6,0.6
7/17/2021 5:40,75.19,393,8.77,103.4,8.7,0.7,0.4,2.2,9,28.6,62.78,,,2,335.1,0.03,1.2,85,50,0.05,0.04,-1.9,0.8
7/17/2021 5:50,75.19,392,8.77,103.4,8.69,1.1,0.7,3.6,15.1,28.6,62.6,,,,334.6,0.01,1.3,57,51,0.02,0.02,-1.4,1
7/17/2021 6:00,75.19,393,8.78,103.4,8.69,0.8,0.5,2.2,9.2,28.6,62.6,,,11,335.2,0.01,1.3,57,51,0.02,0.02,-2.2,1.5
7/17/2021 6:10,75.18,393,8.77,103.3,8.69,0.8,0.5,3,12.6,28.6,62.96,,,,335.8,0.01,1.6,267,271,0.02,0.02,-2.5,1
7/17/2021 6:20,75.18,393,8.77,103.3,8.69,0.7,0.4,3.2,13.3,28.6,63.32,,,41,335.6,0.01,1.6,267,271,0.02,0.02,-1.1,0.5
7/17/2021 6:30,75.18,393,8.77,103.2,8.68,0.8,0.5,3,12.7,28.6,63.68,,,,333.9,0.02,1.3,311,209,0.03,0.02,-3.3,1.2
7/17/2021 6:40,75.2,392,8.78,103.2,8.68,0.7,0.5,3,12.5,28.6,63.68,,,81,334.6,0.02,1.3,311,209,0.03,0.02,-1.5,0.7
7/17/2021 6:50,75.22,392,8.79,103.2,8.68,0.9,0.6,2.9,12.3,28.6,63.5,,,,334.8,0.03,1.5,285,302,0.05,0.03,-2.1,0.1
7/17/2021 7:00,75.23,393,8.78,103.2,8.68,0.8,0.5,2.8,11.7,28.6,63.14,,,114,334.5,0.03,1.5,285,302,0.05,0.03,-1.8,0.9
7/17/2021 7:10,75.25,393,8.79,103.2,8.67,0.9,0.6,3.1,13,28.6,63.32,,,,336.9,0.01,14.3,124,88,0.02,0.02,-2,1.6
7/17/2021 7:20,75.24,392,8.79,103.2,8.67,0.7,0.5,2.3,9.7,28.6,63.14,,,197,328.4,0.01,14.3,124,88,0.02,0.02,-2.9,1.2
7/17/2021 7:30,75.25,392,8.79,103.2,8.67,0.8,0.5,2.9,12,28.6,63.5,,,,335.8,0.02,1.4,99,360,0.04,0.03,-1.8,0.2
7/17/2021 7:40,75.27,392,8.79,103.2,8.67,0.8,0.5,3.1,13,28.6,64.04,,,304,330.4,0.02,1.4,99,360,0.04,0.03,-1.6,1.3
7/17/2021 7:50,75.3,392,8.8,103.2,8.67,0.9,0.6,3,12.4,28.6,64.4,,,,341.7,0.04,1.6,301,256,0.07,0.05,-2,1.7
7/17/2021 8:00,75.33,392,8.8,103.2,8.67,0.9,0.6,3.3,13.8,28.6,65.48,,,383,337.9,0.04,1.6,301,256,0.07,0.05,-1.9,0.4
7/17/2021 8:10,75.35,392,8.8,103.3,8.67,0.8,0.5,3.4,14.1,28.6,66.38,,,,338,0.04,1.5,284,279,0.08,0.06,-2.3,1.4
7/17/2021 8:20,75.38,392,8.81,103.3,8.67,0.8,0.5,3.4,14.4,28.6,67.64,,,625,330.5,0.04,1.5,284,279,0.08,0.06,-1.1,1
7/17/2021 8:30,75.41,392,8.8,103.3,8.67,0.9,0.6,4.5,18.8,28.6,68.54,,,,338.8,0.03,1.4,129,216,0.06,0.04,-0.7,0.9
7/17/2021 8:40,75.44,392,8.81,103.4,8.67,0.9,0.6,3.4,14.5,28.6,68.9,,,618,334.1,0.03,1.4,129,216,0.06,0.04,-2.9,0.6
7/17/2021 8:50,75.49,392,8.81,103.4,8.67,1,0.6,4.4,18.4,28.6,70.16,,,,332.9,0.05,1.5,191,193,0.1,0.07,-3,0.1
7/17/2021 9:00,75.57,392,8.82,103.5,8.67,0.9,0.6,4.2,17.8,28.6,71.42,,,913,337.9,0.05,1.5,191,193,0.1,0.07,-2.5,0.6
7/17/2021 9:10,75.64,393,8.82,103.6,8.67,1,0.6,4.3,18.2,28.6,72.5,,,,339.4,0.07,1.6,192,203,0.13,0.09,-2.9,1.1
7/17/2021 9:20,75.7,392,8.82,103.7,8.68,1,0.6,3.9,16.2,28.6,73.04,,,991,332.1,0.07,1.6,192,203,0.13,0.09,-2.7,1.1
7/17/2021 9:30,75.75,392,8.82,103.8,8.68,0.9,0.6,4.1,17.1,28.6,74.48,,,,338.1,0.04,1.5,178,158,0.08,0.05,-2.2,1.1
7/17/2021 9:40,75.74,392,8.83,103.8,8.68,0.9,0.6,3.9,16.5,28.6,76.1,,,1036,339.4,0.04,1.5,178,158,0.08,0.05,-1.8,0.7
7/17/2021 9:50,75.81,392,8.83,103.9,8.69,0.9,0.6,4.4,18.5,28.7,77.9,,,,334.6,0.06,1.6,228,252,0.11,0.08,-2.9,1.2
7/17/2021 10:00,75.81,392,8.85,104,8.69,0.9,0.6,4.2,17.7,28.6,79.7,,,1216,335,0.06,1.6,228,252,0.11,0.08,-2.7,1.1
7/17/2021 10:10,75.9,392,8.85,104.1,8.69,0.9,0.6,3.7,15.6,28.6,79.52,,,,340.4,0.07,1.6,250,228,0.13,0.09,-2.6,1.9
7/17/2021 10:20,75.98,392,8.85,104.3,8.7,0.8,0.5,3.9,16.5,28.7,79.16,,,791,340.5,0.07,1.6,250,228,0.13,0.09,-2.9,1.3
7/17/2021 10:30,75.94,392,8.85,104.3,8.7,0.9,0.6,4,16.9,28.7,74.48,,,,342.1,0.08,1.7,42,349,0.14,0.1,-1.4,0.8
7/17/2021 10:40,76.11,392,8.85,104.5,8.71,0.8,0.5,3.7,15.6,28.7,74.3,,,1453,337.3,0.08,1.7,42,349,0.14,0.1,-2.5,1
7/17/2021 10:50,76.1,392,8.86,104.6,8.71,0.8,0.5,3.6,15.1,28.7,73.76,,,,342.8,0.07,1.4,148,206,0.13,0.09,-1.9,0.7
7/17/2021 11:00,76.22,392,8.86,104.7,8.71,0.8,0.5,3.3,13.9,28.7,74.3,,,582,338.4,0.07,1.4,148,206,0.13,0.09,-2.2,1.3
7/17/2021 11:10,76.16,392,8.86,104.7,8.72,0.9,0.6,3.4,14.3,28.7,74.3,,,,337.2,0.08,1.4,140,195,0.14,0.1,-4.1,1.5
7/17/2021 11:20,76.16,392,8.86,104.7,8.72,0.9,0.6,4,16.7,28.7,73.94,,,1068,338.5,0.08,1.4,140,195,0.14,0.1,-3.3,1.4
7/17/2021 11:30,76.21,392,8.86,104.8,8.72,0.9,0.6,4.4,18.7,28.7,74.66,,,,338.6,0.08,1.7,195,165,0.15,0.11,-1.9,0.8
7/17/2021 11:40,76.34,392,8.87,105,8.73,0.8,0.5,3,12.7,28.7,75.56,,,1630,339.6,0.08,1.7,195,165,0.15,0.11,-2.5,1.1
7/17/2021 11:50,76.46,392,8.87,105.1,8.73,0.8,0.5,2.9,12.1,28.7,75.74,,,,338.3,0.1,1.5,183,260,0.19,0.13,-2.2,1.5
7/17/2021 12:00,76.59,392,8.87,105.3,8.73,0.7,0.5,2.5,10.3,28.7,75.74,,,1653,340.4,0.1,1.5,183,260,0.19,0.13,-2.1,0.2
7/17/2021 12:10,76.56,392,8.87,105.3,8.73,0.7,0.5,2.9,12,28.7,75.2,,,,337.1,0.09,1.8,20,224,0.17,0.12,-0.8,0.7
7/17/2021 12:20,76.55,392,8.86,105.3,8.74,0.7,0.5,2.6,10.7,28.7,75.74,,,1748,340,0.09,1.8,20,224,0.17,0.12,-0.6,0.2
7/17/2021 12:30,76.57,392,8.86,105.4,8.74,0.7,0.5,2.6,10.9,28.7,75.74,,,,336.6,0.15,1.8,197,101,0.21,0.19,-0.6,0.7
7/17/2021 12:40,76.61,392,8.86,105.4,8.74,0.7,0.4,2.3,9.8,28.7,75.74,,,1793,344.6,0.15,1.8,197,101,0.21,0.19,-3.7,1.5
7/17/2021 12:50,76.62,392,8.87,105.5,8.74,0.8,0.5,3.5,14.6,28.7,75.74,,,,337.2,0.11,16.2,233,245,0.16,0.14,-3.1,1.5
7/17/2021 13:00,76.58,392,8.87,105.5,8.75,0.7,0.5,3,12.4,28.7,76.1,,,1860,338.5,0.11,16.2,233,245,0.16,0.14,-3,1.8
7/17/2021 13:10,76.66,392,8.87,105.6,8.74,0.7,0.4,2.7,11.3,28.7,75.92,,,,335,0.18,1.6,185,170,0.26,0.23,-2.4,0.8
7/17/2021 13:20,76.69,392,8.86,105.6,8.74,0.7,0.4,2.8,11.9,28.7,76.46,,,1791,339.6,0.18,1.6,185,170,0.26,0.23,-0.9,2.2
7/17/2021 13:30,76.76,392,8.86,105.7,8.75,0.7,0.4,2.4,10.2,28.7,76.28,,,,337.4,0.13,1.6,14,213,0.23,0.16,-0.9,1
7/17/2021 13:40,76.7,392,8.86,105.6,8.75,0.6,0.4,2.8,11.6,28.7,76.28,,,1854,338.9,0.13,1.6,14,213,0.23,0.16,-1.4,0.7
7/17/2021 13:50,76.79,392,8.86,105.8,8.75,0.7,0.4,2.9,12.1,28.7,76.28,,,,340.3,0.11,1.6,111,161,0.21,0.14,-3.3,1.1
7/17/2021 14:00,76.73,392,8.86,105.7,8.75,0.7,0.4,2.7,11.2,28.7,76.64,,,1671,335.4,0.11,1.6,111,161,0.21,0.14,-0.9,1
7/17/2021 14:10,76.71,392,8.86,105.7,8.76,0.8,0.5,2.9,12.3,28.6,76.28,,,,341.3,0.19,1.8,104,234,0.35,0.24,-1.1,0.6
7/17/2021 14:20,76.8,392,8.86,105.9,8.76,0.7,0.4,2.5,10.3,28.7,76.82,,,1654,334.9,0.19,1.8,104,234,0.35,0.24,-5.5,1.4
7/17/2021 14:30,76.78,392,8.86,105.9,8.76,0.7,0.4,2.5,10.6,28.7,77.18,,,,339.1,0.16,17.1,93,100,0.23,0.2,-2,1.1
7/17/2021 14:40,76.81,392,8.86,105.9,8.76,0.8,0.5,2.9,12,28.7,77.18,,,1699,332.6,0.16,17.1,93,100,0.23,0.2,-1.3,0.8
7/17/2021 14:50,76.89,392,8.85,106,8.76,0.7,0.4,2.2,9.2,28.7,77.36,,,,333.6,0.11,1.6,138,176,0.21,0.15,-0.7,1.8
7/17/2021 15:00,77.18,393,8.84,106.2,8.75,0.5,0.3,1.7,7.2,28.7,77.36,,,1660,333.8,0.11,1.6,138,176,0.21,0.15,-3.1,2.1
7/17/2021 15:10,77.44,392,8.86,106.5,8.75,0.5,0.3,1.5,6.2,28.7,77.36,,,,338.1,0.17,1.9,139,153,0.31,0.22,-4.6,0.7
7/17/2021 15:20,77.46,392,8.87,106.7,8.76,0.6,0.4,1.6,6.4,28.7,77.36,,,1587,334.4,0.17,1.9,139,153,0.31,0.22,-0.5,0.7
7/17/2021 15:30,77.39,392,8.87,106.7,8.77,0.6,0.3,1.6,6.8,28.7,77.54,,,,337.9,0.15,1.8,181,180,0.27,0.19,-3.4,1.3
7/17/2021 15:40,77.6,392,8.89,106.9,8.77,0.6,0.4,1.6,6.6,28.6,77.72,,,1528,338.1,0.15,1.8,181,180,0.27,0.19,-3.9,1.1
7/17/2021 15:50,77.49,392,8.88,107,8.79,0.6,0.4,1.8,7.4,28.7,77.54,,,,338.6,0.17,1.8,196,214,0.3,0.21,-2.1,0.2
7/17/2021 16:00,77.32,391,8.88,106.9,8.79,0.7,0.4,2.5,10.3,28.6,77.36,,,647,339.4,0.17,1.8,196,214,0.3,0.21,-1.3,0.4
7/17/2021 16:10,77.35,392,8.89,107,8.8,0.7,0.4,2.4,10,30.2,77.36,159,8.9,,334.8,0.13,1.7,254,214,0.24,0.17,-4.1,1
7/17/2021 16:20,77.37,391,8.89,107,8.8,0.7,0.4,2.5,10.3,28.7,77.36,,,1343,337.8,0.13,1.7,254,214,0.24,0.17,-3.4,1.6
7/17/2021 16:30,77.47,391,8.9,107.2,8.81,0.7,0.4,3,12.4,28.6,77.54,,,,336.1,0.21,1.8,235,200,0.38,0.27,-2.9,0.4
7/17/2021 16:40,77.63,390,8.91,107.5,8.82,0.7,0.4,2,8.4,28.6,77.54,,,1282,336.6,0.21,1.8,235,200,0.38,0.27,-1.3,1.1
7/17/2021 16:50,77.63,390,8.91,107.6,8.82,0.7,0.5,2.6,11,28.6,77.54,,,,339.9,0.14,1.8,202,220,0.26,0.18,-6.7,0.9
7/17/2021 17:00,77.7,390,8.92,107.7,8.83,0.7,0.5,2.4,10.1,28.6,77.72,,,1185,339.6,0.14,1.8,202,220,0.26,0.18,-2,0.4
7/17/2021 17:10,77.71,389,8.93,107.9,8.84,0.8,0.5,2.5,10.3,28.6,77.72,,,,335.8,0.11,1.6,164,163,0.21,0.15,-2.1,0.9
7/17/2021 17:20,77.66,389,8.93,107.9,8.85,0.8,0.5,3,12.4,28.6,77.54,,,538,341.9,0.11,1.6,164,163,0.21,0.15,-2.1,0.6
7/17/2021 17:30,77.58,389,8.93,108,8.86,0.7,0.5,2.8,11.9,28.6,77.36,,,,337.6,0.13,1.9,170,255,0.23,0.17,-2.1,0.9
7/17/2021 17:40,77.6,388,8.93,108.1,8.87,0.8,0.5,2.9,12.3,28.6,77.36,,,912,337,0.13,1.9,170,255,0.23,0.17,0.2,-0.4
7/17/2021 17:50,77.53,389,8.93,108.1,8.87,0.8,0.5,3.2,13.3,28.6,77.36,,,,336.3,0.13,1.7,267,82,0.23,0.16,-2.6,0.4
7/17/2021 18:00,77.47,390,8.93,108.1,8.88,0.9,0.6,3.4,14.1,28.6,77.18,,,803,340.3,0.13,1.7,267,82,0.23,0.16,-2.4,1.1
7/17/2021 18:10,77.51,390,8.93,108.2,8.88,0.8,0.5,3,12.5,28.6,77.18,,,,338.1,0.16,16.4,65,189,0.24,0.2,-3.2,1.1
7/17/2021 18:20,77.51,390,8.93,108.2,8.89,0.8,0.5,3.1,13.2,28.6,77,,,684,340,0.16,16.4,65,189,0.24,0.2,-1.8,0.3
7/17/2021 18:30,77.49,390,8.93,108.3,8.89,0.8,0.5,3.2,13.6,28.6,77,,,,342.6,0.13,1.6,181,165,0.25,0.17,-2.5,1
7/17/2021 18:40,77.43,390,8.93,108.3,8.9,0.8,0.5,3.9,16.2,28.6,77,,,586,338.3,0.13,1.6,181,165,0.25,0.17,-1.5,0.8
7/17/2021 18:50,77.38,390,8.94,108.3,8.91,0.9,0.6,3.4,14.2,29.1,77,148,7.8,,341.9,0.12,1.6,208,214,0.22,0.16,-2.3,0.7
7/17/2021 19:00,77.31,390,8.94,108.3,8.91,0.8,0.5,3.7,15.4,28.6,76.82,,,478,337.9,0.12,1.6,208,214,0.22,0.16,-2.1,0.4
7/17/2021 19:10,77.25,390,8.94,108.3,8.92,0.8,0.5,3,12.7,28.6,76.64,,,,336.3,0.09,1.6,186,177,0.16,0.11,-2.8,0.8
7/17/2021 19:20,77.21,390,8.94,108.4,8.93,0.8,0.5,3.1,13.2,28.6,76.46,,,370,339.7,0.09,1.6,186,177,0.16,0.11,-2.8,0.9
7/17/2021 19:30,77.18,390,8.94,108.4,8.93,0.9,0.6,3.3,13.8,28.6,76.28,,,,338.1,0.09,1.7,112,134,0.16,0.11,-2,0.4
7/17/2021 19:40,77.12,390,8.94,108.4,8.94,0.8,0.5,3.2,13.5,28.6,76.1,,,282,341.8,0.09,1.7,112,134,0.16,0.11,-2.4,0.8
7/17/2021 19:50,77.1,390,8.94,108.4,8.94,0.9,0.6,2.7,11.4,28.6,75.92,,,,343.7,0.09,1.5,87,189,0.16,0.11,-2.1,0.8
7/17/2021 20:00,77.05,390,8.93,108.4,8.94,0.8,0.5,3.2,13.5,28.6,75.74,,,180,338.4,0.09,1.5,87,189,0.16,0.11,-2.6,1.1
7/17/2021 20:10,77.02,390,8.93,108.4,8.94,0.8,0.5,4,16.8,28.6,75.38,,,,340.6,0.09,1.5,193,185,0.15,0.11,-2.1,0.3
7/17/2021 20:20,76.98,390,8.93,108.4,8.95,0.9,0.6,3.1,13.1,28.6,74.84,,,98,339.7,0.09,1.5,193,185,0.15,0.11,-1.9,0.2
7/17/2021 20:30,76.9,390,8.93,108.3,8.95,0.9,0.6,2.7,11.4,28.6,74.3,,,,336.8,0.09,1.8,157,167,0.16,0.11,-2.9,1
7/17/2021 20:40,76.85,390,8.92,108.3,8.95,0.8,0.5,3.4,14.2,28.7,74.3,,,39,338.3,0.09,1.8,157,167,0.16,0.11,-2.2,0.4
7/17/2021 20:50,76.8,390,8.92,108.2,8.95,0.8,0.5,3.2,13.3,28.7,73.76,,,,341.5,0.08,1.7,140,179,0.15,0.11,-2,0.6
7/17/2021 21:00,76.73,390,8.91,108.2,8.96,0.8,0.5,3.4,14.2,28.7,73.4,,,6,338.3,0.08,1.7,140,179,0.15,0.11,-2.1,0.4
7/17/2021 21:10,76.7,390,8.91,108.1,8.95,0.9,0.6,3.4,14.5,28.7,72.86,,,,337.4,0.08,1.6,193,181,0.15,0.11,-2.2,0.7
7/17/2021 21:20,76.68,390,8.92,108.1,8.95,0.8,0.5,3.5,14.9,29.3,72.68,144,6,0,340.6,0.08,1.6,193,181,0.15,0.11,-3.2,0.3
7/17/2021 21:30,76.67,390,8.91,108.1,8.95,0.8,0.5,3.4,14.3,28.7,71.96,,,,342.5,0.06,1.7,118,136,0.12,0.08,-1.4,0.4
7/17/2021 21:40,76.62,390,8.91,108.1,8.95,0.8,0.5,3.6,15.3,28.7,71.42,,,0,340.8,0.06,1.7,118,136,0.12,0.08,-2.2,1.3
7/17/2021 21:50,76.63,390,8.9,108,8.95,0.8,0.5,3.4,14.2,28.7,71.06,,,,339.6,0.06,1.7,203,218,0.1,0.07,-2.3,0.2
7/17/2021 22:00,76.62,390,8.9,108,8.95,0.8,0.5,3.4,14.4,28.7,70.52,,,1,342.1,0.06,1.7,203,218,0.1,0.07,-2.3,0.3
7/17/2021 22:10,76.6,390,8.91,108,8.95,0.8,0.5,2.7,11.4,28.7,70.52,,,,332.1,0.04,1.5,182,162,0.08,0.06,-1.1,1
7/17/2021 22:20,76.62,390,8.9,108,8.95,0.8,0.5,3.4,14.2,28.7,70.52,,,0,335.3,0.04,1.5,182,162,0.08,0.06,-2.2,1.2
7/17/2021 22:30,76.61,390,8.9,108,8.95,0.9,0.6,3.5,14.6,30.1,70.16,150,5.8,,332.3,0.03,1.5,86,158,0.06,0.04,-2.3,0.5
7/17/2021 22:40,76.58,390,8.9,107.9,8.95,0.8,0.5,3.4,14.2,28.7,70.16,,,0,337.7,0.03,1.5,86,158,0.06,0.04,-2.2,0.5
7/17/2021 22:50,76.59,390,8.9,107.9,8.95,0.9,0.6,2.9,12.1,28.7,70.16,,,,330.6,0.02,1.6,304,341,0.04,0.03,-1.1,0.7
7/17/2021 23:00,76.58,390,8.9,107.9,8.95,0.8,0.5,3.2,13.5,28.7,69.8,,,0,335.8,0.02,1.6,304,341,0.04,0.03,-2.9,1.1
7/17/2021 23:10,76.58,391,8.9,107.9,8.95,0.7,0.4,3.2,13.6,28.7,69.62,,,,332.9,0.02,1.7,48,46,0.03,0.02,-1.6,0.5
7/17/2021 23:20,76.59,391,8.9,107.9,8.95,1,0.6,3.3,14,28.7,69.98,,,0,334.1,0.02,1.7,48,46,0.03,0.02,-1.6,0.4
7/17/2021 23:30,76.59,391,8.9,107.9,8.95,0.8,0.5,3.7,15.5,28.7,69.98,,,,332.2,0.01,1.3,188,267,0.01,0.01,-2.4,1.3
7/17/2021 23:40,76.62,391,8.9,107.9,8.94,0.8,0.5,3.3,13.7,28.7,69.8,,,0,330.3,0.01,1.3,188,267,0.01,0.01,-1.2,1.2
7/17/2021 23:50,76.65,391,8.9,108,8.95,0.7,0.4,3.1,13,28.7,69.98,,,,338.8,0.03,1.7,111,116,0.06,0.04,-1.8,1.3
7/18/2021 0:00,76.66,391,8.9,108,8.94,0.9,0.6,3,12.6,28.7,69.62,,,0,333.1,0.03,1.7,111,116,0.06,0.04,-2.5,0.4
7/18/2021 0:10,76.65,391,8.9,108,8.94,0.9,0.6,3.2,13.5,28.7,69.44,,,,337.3,0.01,6.5,93,46,0.01,0.01,-1.5,1.3
7/18/2021 0:20,76.65,391,8.9,108,8.94,0.7,0.4,2.8,11.5,28.7,69.44,,,1,337.4,0.01,6.5,93,46,0.01,0.01,-2.3,0.8
7/18/2021 0:30,76.64,391,8.89,107.9,8.94,0.8,0.5,2.9,12,28.7,69.26,,,,337.4,0.01,6.6,43,44,0.01,0.01,-2.5,0.6
7/18/2021 0:40,76.66,391,8.89,107.9,8.94,0.6,0.4,2.8,11.9,28.7,69.08,,,0,337.5,0.01,6.6,43,44,0.01,0.01,-2.7,0.4
7/18/2021 0:50,76.65,391,8.89,107.9,8.94,0.7,0.5,2.9,12,28.7,69.08,,,,338.6,0,6.6,179,162,0.01,0,-2.9,0.8
7/18/2021 1:00,76.66,391,8.89,107.9,8.94,1.1,0.7,3.3,13.9,28.7,68.72,,,0,337,0,6.6,179,162,0.01,0,-2.5,0.8
7/18/2021 1:10,76.66,391,8.89,107.9,8.94,0.6,0.4,2.7,11.4,28.7,68.72,,,,337.1,0,7.2,66,56,0.01,0.01,-2,0.7
7/18/2021 1:20,76.65,391,8.89,107.9,8.94,0.8,0.5,2.6,10.8,28.7,68.72,,,1,337.3,0,7.2,66,56,0.01,0.01,-1.7,0.8
7/18/2021 1:30,76.66,391,8.89,107.9,8.93,0.8,0.5,3.1,12.9,28.7,68.54,,,,337.4,0,6.5,61,294,0.01,0.01,-2.3,0.8
7/18/2021 1:40,76.66,391,8.89,107.9,8.94,0.7,0.4,2.5,10.6,28.7,68.54,,,1,338.1,0,6.5,61,294,0.01,0.01,-2.1,0.2
7/18/2021 1:50,76.63,391,8.89,107.8,8.94,0.8,0.5,3,12.7,28.7,68.36,,,,337.6,0.01,1.2,305,359,0.02,0.01,-1.6,0.5
7/18/2021 2:00,76.65,391,8.89,107.9,8.94,0.7,0.4,2.6,10.9,28.7,68.18,,,0,338.1,0.01,1.2,305,359,0.02,0.01,-1.8,0
7/18/2021 2:10,76.65,391,8.89,107.9,8.94,0.6,0.4,2.4,9.9,28.7,68.18,,,,337.8,0.02,13.5,13,87,0.02,0.02,-1.4,0
7/18/2021 2:20,76.64,391,8.89,107.9,8.94,0.4,0.3,2.3,9.7,28.7,68.18,,,0,334.8,0.02,13.5,13,87,0.02,0.02,-2.5,1.3
7/18/2021 2:30,76.64,391,8.89,107.9,8.94,0.5,0.3,2.5,10.4,28.7,68.18,,,,336.2,0.01,1.4,348,121,0.01,0.01,-2.3,1.2
7/18/2021 2:40,76.65,391,8.88,107.9,8.94,1.7,1.1,3.1,12.9,28.7,68.18,,,1,336.2,0.01,1.4,348,121,0.01,0.01,-2.1,1.1
7/18/2021 2:50,76.64,391,8.87,107.8,8.93,0.7,0.5,2.8,11.6,28.7,68,,,,336.2,0.01,9.5,19,78,0.01,0.01,-2.1,1.1
7/18/2021 3:00,76.63,391,8.88,107.8,8.93,0.7,0.5,2.9,12.1,30,67.46,145,4.7,0,336.2,0.01,9.5,19,78,0.01,0.01,-2.1,1
7/18/2021 3:10,76.63,391,8.88,107.8,8.93,0.7,0.5,2.5,10.5,28.7,67.46,,,,336.3,0,10.8,218,297,0.01,0.01,-2,1
7/18/2021 3:20,76.6,391,8.88,107.7,8.93,0.9,0.6,2.5,10.4,28.7,67.64,,,1,334.8,0,10.8,218,297,0.01,0.01,-2,1
7/18/2021 3:30,76.59,391,8.87,107.7,8.93,1.2,0.8,2.7,11.4,30.2,67.46,137,3.6,,334.8,0,6.3,57,62,0,0,-2,1
7/18/2021 3:40,76.6,391,8.88,107.7,8.93,0.9,0.6,2.4,9.9,28.7,67.1,,,1,334.8,0,6.3,57,62,0,0,-2,1
7/18/2021 3:50,76.59,391,8.88,107.7,8.93,0.9,0.6,2.9,12.2,28.7,65.84,,,,335.7,0,6.1,201,197,0.01,0,-2.8,1
7/18/2021 4:00,76.57,391,8.87,107.7,8.93,0.6,0.4,2.3,9.6,28.7,65.84,,,0,335.1,0,6.1,201,197,0.01,0,-2.6,0.8
7/18/2021 4:10,76.54,391,8.88,107.7,8.93,0.8,0.5,2.7,11.4,28.7,65.3,,,,335.8,0.01,1.9,247,342,0.01,0.01,-1,0.7
7/18/2021 4:20,76.54,391,8.87,107.6,8.93,0.7,0.4,2.5,10.5,29.3,65.84,130,5.1,1,334.4,0.01,1.9,247,342,0.01,0.01,-2,0.9
7/18/2021 4:30,76.54,391,8.87,107.6,8.93,1.3,0.8,2.9,12.3,28.7,66.2,,,,336.4,0.01,1.3,355,119,0.02,0.02,-2.7,0.8
7/18/2021 4:40,76.53,391,8.87,107.6,8.92,0.8,0.5,2.3,9.7,30.2,66.02,113,3.1,1,336.4,0.01,1.3,355,119,0.02,0.02,-2.5,0.8
7/18/2021 4:50,76.51,391,8.87,107.6,8.92,0.6,0.4,2.4,10.1,28.7,66.2,,,,337.2,0,8.8,323,183,0.01,0.01,-2.4,0.8
7/18/2021 5:00,76.53,391,8.87,107.6,8.92,0.9,0.6,2.8,11.8,29.4,66.2,173,4.5,1,337.2,0,8.8,323,183,0.01,0.01,-2.4,0.8
7/18/2021 5:10,76.51,391,8.87,107.5,8.92,0.7,0.4,2.8,11.6,29.3,66.38,170,2.7,,337.1,0,6.8,142,243,0.01,0.01,-2.3,0.7
7/18/2021 5:20,76.48,391,8.86,107.5,8.92,0.8,0.5,2.2,9,28.7,66.56,,,0,336.1,0,6.8,142,243,0.01,0.01,-2.3,0.8
7/18/2021 5:30,76.46,391,8.86,107.4,8.92,0.6,0.4,2.6,10.8,28.7,66.74,,,,336.4,0.01,1.3,95,342,0.01,0.01,-2.4,0.3
7/18/2021 5:40,76.44,391,8.87,107.4,8.92,0.9,0.6,2.9,12,28.7,66.92,,,2,337.8,0.01,1.3,95,342,0.01,0.01,-2.5,0.4
7/18/2021 5:50,76.42,391,8.87,107.4,8.92,0.6,0.4,2.3,9.7,30,66.74,183,1.6,,333.9,0.02,1.4,160,175,0.03,0.02,-1.3,0.4
7/18/2021 6:00,76.39,391,8.87,107.4,8.92,1,0.6,3.1,12.9,28.7,66.92,,,11,336.5,0.02,1.4,160,175,0.03,0.02,-2.6,0.8
7/18/2021 6:10,76.35,391,8.87,107.3,8.92,0.8,0.5,2.6,10.9,28.7,66.92,,,,334.3,0.01,1.3,354,269,0.01,0.01,-1.6,0.9
7/18/2021 6:20,76.34,391,8.87,107.3,8.92,0.7,0.5,3.3,13.8,28.7,66.92,,,37,339.8,0.01,1.3,354,269,0.01,0.01,-2.2,0.2
7/18/2021 6:30,76.32,391,8.88,107.3,8.92,0.8,0.5,3.1,12.8,28.7,66.92,,,,334.8,0.04,1.3,319,279,0.07,0.05,-1.9,0.8
7/18/2021 6:40,76.32,391,8.87,107.3,8.92,0.8,0.5,2.5,10.6,29.9,66.74,123,4.3,84,340.4,0.04,1.3,319,279,0.07,0.05,-1.7,-0.1
7/18/2021 6:50,76.32,391,8.87,107.3,8.92,0.7,0.4,2.4,10.2,29.7,66.74,109,4.3,,335.6,0.03,1.4,333,298,0.06,0.04,-2.2,1.5
7/18/2021 7:00,76.33,391,8.87,107.3,8.92,0.7,0.4,2.8,11.5,30,67.28,113,3.8,167,336.6,0.03,1.4,333,298,0.06,0.04,-1.1,0.5
7/18/2021 7:10,76.32,391,8.87,107.3,8.92,0.7,0.4,2.5,10.4,29.9,68,148,2.5,,338.1,0.03,1.3,171,235,0.05,0.03,-2,0.6
7/18/2021 7:20,76.33,391,8.87,107.3,8.92,0.6,0.4,2.5,10.4,28.7,68.72,,,282,335.8,0.03,1.3,171,235,0.05,0.03,-1.7,0.8
7/18/2021 7:30,76.32,391,8.87,107.2,8.91,0.6,0.4,2.5,10.3,30.2,69.44,158,2.7,,339.9,0.03,1.6,249,262,0.05,0.03,-1.8,0.4
7/18/2021 7:40,76.33,391,8.87,107.3,8.91,0.8,0.5,2.7,11.2,28.7,69.98,,,394,338.2,0.03,1.6,249,262,0.05,0.03,-2,1
7/18/2021 7:50,76.35,391,8.87,107.2,8.91,0.8,0.5,2.6,11,30,71.06,137,2,,334.2,0.03,1.3,20,79,0.06,0.04,-2.6,0.9
7/18/2021 8:00,76.36,391,8.87,107.2,8.91,0.7,0.4,2.4,9.9,29.8,70.88,176,2.2,534,339.8,0.03,1.3,20,79,0.06,0.04,-3,0.8
7/18/2021 8:10,76.38,391,8.87,107.2,8.91,0.6,0.4,2.5,10.3,30,71.78,196,2,,336.1,0.05,1.5,187,210,0.08,0.06,-2.1,0.1
7/18/2021 8:20,76.42,391,8.87,107.3,8.91,0.7,0.4,2.3,9.6,28.7,72.68,,,638,336.2,0.05,1.5,187,210,0.08,0.06,-1.8,0.4
7/18/2021 8:30,76.46,391,8.87,107.3,8.91,0.7,0.4,2.3,9.7,28.7,73.58,,,,337.6,0.04,1.5,197,204,0.08,0.05,-2.7,1.1
7/18/2021 8:40,76.5,391,8.87,107.4,8.91,0.6,0.4,1.9,8,28.7,74.66,,,766,331.1,0.04,1.5,197,204,0.08,0.05,-1.2,0.6
7/18/2021 8:50,76.56,391,8.87,107.4,8.91,0.6,0.4,2.2,9.1,28.7,75.2,,,,336.3,0.04,1.5,319,13,0.07,0.05,-1.5,0.3
7/18/2021 9:00,76.59,391,8.88,107.5,8.91,0.6,0.4,2.2,9,28.7,77.18,,,889,335.4,0.04,1.5,319,13,0.07,0.05,-2.4,0.2
7/18/2021 9:10,76.64,391,8.88,107.5,8.91,0.6,0.4,2.2,9.1,28.7,77.72,,,,333.4,0.03,1.4,341,355,0.06,0.04,-3,0.8
7/18/2021 9:20,76.68,391,8.88,107.6,8.91,0.6,0.4,1.7,7.2,28.7,78.44,,,1014,342.5,0.03,1.4,341,355,0.06,0.04,-2.4,0.9
7/18/2021 9:30,76.75,391,8.88,107.7,8.91,0.6,0.4,2,8.5,28.8,78.8,,,,339.7,0.06,1.7,322,298,0.11,0.08,-2.2,1.2
7/18/2021 9:40,76.9,391,8.88,107.9,8.91,0.6,0.3,1.9,7.7,28.8,79.16,,,1131,340.1,0.06,1.7,322,298,0.11,0.08,-2.1,0.8
7/18/2021 9:50,76.97,391,8.88,108,8.92,0.5,0.3,1.5,6,29.4,80.78,35,1.1,,339.3,0.07,1.6,353,342,0.13,0.09,-1.8,-0.1
7/18/2021 10:00,77.13,391,8.9,108.1,8.92,0.5,0.3,1.8,7.3,28.7,80.24,,,1223,343.2,0.07,1.6,353,342,0.13,0.09,-1.9,0.3
7/18/2021 10:10,77.1,391,8.9,108.2,8.92,0.5,0.3,1.9,8,28.7,81.68,,,,340.4,0.06,1.7,91,56,0.12,0.08,-2.2,1.1
7/18/2021 10:20,77.28,391,8.9,108.3,8.92,0.5,0.3,1.7,6.9,28.7,82.04,,,1303,343.3,0.06,1.7,91,56,0.12,0.08,-2.3,-0.2
7/18/2021 10:30,77.34,391,8.9,108.5,8.93,0.5,0.3,1.8,7.3,29.4,82.4,339,8.7,,336.1,0.06,1.4,340,303,0.12,0.08,-2.8,0.2
7/18/2021 10:40,77.3,390,8.92,108.5,8.93,0.6,0.3,2.1,8.6,29.4,82.22,41,0.9,1406,336.6,0.06,1.4,340,303,0.12,0.08,-2.9,0.8
7/18/2021 10:50,77.37,390,8.92,108.6,8.93,0.5,0.3,2.5,10.4,28.7,82.04,,,,340.5,0.06,2,177,160,0.11,0.08,-2.7,0.5
7/18/2021 11:00,77.45,390,8.92,108.8,8.94,0.6,0.4,2.4,9.9,28.8,80.96,,,1536,335.9,0.06,2,177,160,0.11,0.08,-1.7,0.6
7/18/2021 11:10,77.69,390,8.92,109.2,8.95,0.6,0.4,2.5,10.3,28.8,80.6,,,,335.1,0.07,1.6,303,228,0.13,0.09,-3.2,1
7/18/2021 11:20,77.75,390,8.93,109.2,8.94,0.6,0.3,2.2,9.2,29.4,78.98,40,3.1,1655,339.4,0.07,1.6,303,228,0.13,0.09,-1.6,0.3
7/18/2021 11:30,78.04,390,8.92,109.4,8.94,0.5,0.3,1.9,8.1,28.7,77.72,,,,333.7,0.08,1.6,43,179,0.15,0.1,-2.3,0.4
7/18/2021 11:40,77.9,390,8.93,109.6,8.96,0.5,0.3,2.2,9.1,28.7,79.34,,,973,342.5,0.08,1.6,43,179,0.15,0.1,-0.7,-0.1
7/18/2021 11:50,77.95,389,8.93,109.5,8.95,0.6,0.4,2.6,10.8,28.7,79.88,,,,340.9,0.12,1.7,229,273,0.21,0.15,-1.5,0.1
7/18/2021 12:00,78.36,390,8.93,110,8.96,0.5,0.3,2.1,8.7,28.7,79.34,,,659,341.1,0.12,1.7,229,273,0.21,0.15,-1.8,0.5
7/18/2021 12:10,78.16,390,8.94,109.9,8.97,0.6,0.4,2.4,10.2,28.7,78.44,,,,342.8,0.12,1.9,287,257,0.21,0.15,-2,0.2
7/18/2021 12:20,78.5,390,8.93,110.3,8.97,0.6,0.4,1.9,7.9,28.7,77.9,,,1841,339.9,0.12,1.9,287,257,0.21,0.15,-1.4,0.2
7/18/2021 12:30,78.76,390,8.93,110.5,8.96,0.7,0.4,2.4,10.2,28.7,77.36,,,,343,0.1,1.9,285,277,0.18,0.13,-1.8,0.3
7/18/2021 12:40,79.02,390,8.93,110.9,8.97,0.6,0.3,2,8.2,29.6,77,39,3.4,664,340.5,0.1,1.9,285,277,0.18,0.13,-2.2,0.7
7/18/2021 12:50,78.85,390,8.95,110.8,8.98,0.5,0.3,1.8,7.6,28.7,77.18,,,,336.5,0.1,1.7,179,145,0.18,0.12,-2.3,-0.1
7/18/2021 13:00,78.65,390,8.96,110.8,8.99,0.6,0.4,2.5,10.3,28.7,78.26,,,839,339.2,0.1,1.7,179,145,0.18,0.12,-1.1,0
7/18/2021 13:10,78.35,389,8.96,110.6,9.01,0.7,0.4,2.9,12.1,28.7,77.18,,,,339,0.11,1.6,157,216,0.2,0.14,-2.1,0.2
7/18/2021 13:20,79.25,390,8.97,111.4,8.99,0.6,0.4,2.3,9.7,28.7,76.82,,,634,343,0.11,1.6,157,216,0.2,0.14,-1.6,-0.3
7/18/2021 13:30,79.1,389,8.97,111.4,9,0.7,0.4,2.6,10.8,28.7,76.82,,,,341.6,0.1,1.9,293,288,0.19,0.13,-2.3,0.1
7/18/2021 13:40,78.94,389,8.98,111.4,9.02,0.6,0.4,1.9,8,28.7,77.9,,,1857,344.4,0.1,1.9,293,288,0.19,0.13,-2.1,0.2
7/18/2021 13:50,79.18,389,8.98,111.6,9.01,0.6,0.3,2,8.3,28.7,78.26,,,,340.1,0.11,1.8,309,140,0.2,0.14,-1.7,0.3
7/18/2021 14:00,79.5,389,8.98,112.1,9.02,0.5,0.3,1.6,6.7,28.7,78.08,,,1846,341.8,0.11,1.8,309,140,0.2,0.14,-1.9,0
7/18/2021 14:10,79.37,390,8.98,112.1,9.04,0.6,0.4,2.2,9.2,28.7,77.54,,,,335.1,0.09,1.5,307,221,0.16,0.11,-2.7,0.2
7/18/2021 14:20,79.57,389,8.98,112.2,9.03,0.5,0.3,1.7,6.9,28.7,78.08,,,1750,338.2,0.09,1.5,307,221,0.16,0.11,-2.6,0.4
7/18/2021 14:30,79.65,390,8.98,112.5,9.04,0.6,0.4,2.3,9.6,28.7,77.36,,,,340.4,0.1,1.7,160,171,0.18,0.12,-0.5,0.1
7/18/2021 14:40,79.62,390,8.97,112.5,9.04,0.6,0.4,2.2,9.3,28.7,77.36,,,628,342.1,0.1,1.7,160,171,0.18,0.12,-3,0.7
7/18/2021 14:50,79.41,390,8.97,112.3,9.05,0.6,0.4,2.3,9.5,28.7,77.36,,,,344,0.11,1.6,231,8,0.2,0.14,-2.9,0.8
7/18/2021 15:00,79.2,390,8.97,112.1,9.05,0.7,0.4,2.4,10,28.7,77.36,,,421,338.6,0.11,1.6,231,8,0.2,0.14,-1.1,0.3
7/18/2021 15:10,79.05,390,8.96,112.1,9.07,0.6,0.4,2.5,10.2,28.7,77.54,,,,336.9,0.1,3.1,182,220,0.18,0.13,-1,0.2
7/18/2021 15:20,79.01,390,8.96,112.2,9.07,0.6,0.4,2.3,9.6,28.7,77.9,,,1629,337.9,0.1,3.1,182,220,0.18,0.13,-2,0.5
7/18/2021 15:30,78.87,390,8.96,112.1,9.08,0.7,0.4,2.5,10.4,28.7,77.36,,,,338.3,0.13,2.4,292,15,0.18,0.16,1.6,0
7/18/2021 15:40,78.74,390,8.96,112.1,9.09,0.6,0.4,2.6,10.9,28.7,77.36,,,590,341.9,0.13,2.4,292,15,0.18,0.16,-0.5,-0.6
7/18/2021 15:50,78.87,390,8.96,112.2,9.09,0.6,0.4,2.2,9.1,28.7,77.9,,,,338.9,0.13,1.6,129,195,0.23,0.16,-2.7,0.5
7/18/2021 16:00,78.79,390,8.96,112.2,9.09,0.7,0.4,2.5,10.3,28.7,77.72,,,534,337.4,0.13,1.6,129,195,0.23,0.16,-0.2,0.3
7/18/2021 16:10,78.78,390,8.97,112.2,9.1,0.6,0.4,2.5,10.5,28.7,78.44,,,,341.4,0.12,1.6,136,220,0.17,0.15,-1.9,0.7
7/18/2021 16:20,78.87,390,8.97,112.4,9.1,0.6,0.4,2.3,9.6,28.7,78.62,,,1360,339.2,0.12,1.6,136,220,0.17,0.15,-2.7,1.1
7/18/2021 16:30,78.48,389,8.98,112.1,9.12,0.7,0.5,3.2,13.2,28.7,78.62,,,,339.7,0.12,1.6,241,190,0.22,0.15,1.7,-0.5
7/18/2021 16:40,78.89,390,8.98,112.5,9.11,0.7,0.4,2.3,9.7,28.7,78.98,,,1254,341.8,0.12,1.6,241,190,0.22,0.15,-2.4,0.7
7/18/2021 16:50,78.9,389,8.98,112.6,9.12,0.7,0.4,2.5,10.5,28.7,78.98,,,,337.9,0.13,1.5,199,196,0.23,0.16,-2.3,0.8
7/18/2021 17:00,78.94,389,8.99,112.8,9.13,0.7,0.4,2.5,10.4,28.7,78.8,,,1132,341.1,0.13,1.5,199,196,0.23,0.16,-2.9,1
7/18/2021 17:10,78.67,389,8.99,112.6,9.14,0.7,0.5,2.9,12.3,28.7,78.98,,,,344,0.1,1.7,248,350,0.18,0.12,-2.6,0.8
7/18/2021 17:20,78.96,389,8.99,112.9,9.14,0.7,0.4,2.7,11.2,28.7,78.62,,,990,337.5,0.1,1.7,248,350,0.18,0.12,-4.9,1.9
7/18/2021 17:30,78.65,389,8.99,112.8,9.15,0.8,0.5,3.1,13.1,28.7,78.44,,,,340.4,0.1,1.6,148,145,0.19,0.13,-1.8,0.8
7/18/2021 17:40,78.8,389,9,113,9.16,0.8,0.5,2.8,11.8,28.7,78.26,,,831,343.2,0.1,1.6,148,145,0.19,0.13,-2.6,1.1
7/18/2021 17:50,78.74,389,9.01,113.1,9.17,0.8,0.5,3.3,13.9,28.7,77.9,,,,336.9,0.07,1.8,139,128,0.12,0.09,-1.8,1.2
7/18/2021 18:00,78.6,389,9.01,113,9.18,0.8,0.5,3.5,14.8,28.7,77.54,,,720,342.8,0.07,1.8,139,128,0.12,0.09,-2.2,0.9
7/18/2021 18:10,78.51,388,9.02,113.1,9.19,0.9,0.6,3.5,14.6,28.7,77.54,,,,339.9,0.06,2.7,171,170,0.1,0.07,-2,0.9
7/18/2021 18:20,78.5,388,9.02,113.2,9.2,0.8,0.5,3.5,14.8,28.7,77.72,,,674,339.9,0.06,2.7,171,170,0.1,0.07,-2.8,0.8
7/18/2021 18:30,78.43,388,9.02,113.2,9.21,0.9,0.6,3.8,15.8,28.7,77.9,,,,340.3,0.06,1.8,163,139,0.1,0.07,-1.3,0.2
7/18/2021 18:40,78.38,388,9.03,113.3,9.22,0.8,0.5,3.8,16,28.7,77.54,,,503,341.2,0.06,1.8,163,139,0.1,0.07,-2.8,0.4
7/18/2021 18:50,78.27,388,9.02,113.2,9.23,0.9,0.6,4.1,17.1,28.7,77.36,,,,338.9,0.07,1.7,6,322,0.12,0.08,-2.1,1.1
7/18/2021 19:00,78.15,388,9.03,113.2,9.24,0.9,0.6,3.8,16.1,28.7,77.36,,,419,340.9,0.07,1.7,6,322,0.12,0.08,-2.1,0.7
7/18/2021 19:10,78.07,388,9.02,113.2,9.25,0.9,0.6,4,17,28.7,77,,,,338.1,0.07,1.9,172,204,0.12,0.08,-2.1,0.2
7/18/2021 19:20,78.04,388,9.03,113.3,9.25,1,0.6,4,16.9,28.7,76.64,,,295,339.9,0.07,1.9,172,204,0.12,0.08,-1.7,0.3
7/18/2021 19:30,77.95,388,9.02,113.2,9.26,0.8,0.5,5.4,22.6,28.7,76.1,,,,340.1,0.08,1.7,111,38,0.15,0.11,-0.9,0.9
7/18/2021 19:40,77.93,388,9.02,113.3,9.26,0.8,0.5,3.7,15.7,28.7,75.74,,,176,338.8,0.08,1.7,111,38,0.15,0.11,-1.7,0.6
7/18/2021 19:50,77.88,388,9.02,113.3,9.27,0.9,0.6,5.4,22.7,28.7,75.56,,,,336.5,0.07,1.8,172,128,0.12,0.08,-1,0.3
7/18/2021 20:00,77.85,388,9.02,113.3,9.28,0.9,0.6,3.4,14.2,28.7,75.2,,,143,333.1,0.07,1.8,172,128,0.12,0.08,-1.8,0.1
7/18/2021 20:10,77.77,388,9.02,113.3,9.28,0.9,0.6,4.6,19.5,28.7,75.02,,,,335.8,0.07,2.7,48,45,0.12,0.09,-1.6,0.2
7/18/2021 20:20,77.8,388,9.02,113.4,9.28,0.9,0.6,3.6,14.9,28.7,74.66,,,78,336.4,0.07,2.7,48,45,0.12,0.09,-2.8,0.6
7/18/2021 20:30,77.75,388,9.02,113.4,9.29,0.8,0.5,4.3,18.2,28.7,74.3,,,,342.7,0.05,1.5,121,37,0.09,0.06,-3.3,0.8
7/18/2021 20:40,77.75,388,9.02,113.5,9.29,0.8,0.5,3.2,13.4,28.7,73.58,,,32,342.8,0.05,1.5,121,37,0.09,0.06,-2.7,0.2
7/18/2021 20:50,77.81,388,9.02,113.6,9.3,0.9,0.6,3,12.5,28.7,72.86,,,,332.4,0.04,1.5,252,163,0.08,0.06,-3.2,1.3
7/18/2021 21:00,77.75,388,9.02,113.6,9.31,0.8,0.5,4.7,19.7,28.7,72.5,,,6,338.9,0.04,1.5,252,163,0.08,0.06,-2.6,1
7/18/2021 21:10,77.73,388,9.02,113.6,9.31,0.9,0.6,3.4,14.1,28.7,72.14,,,,340.9,0.05,1.6,51,102,0.09,0.06,-2.4,1
7/18/2021 21:20,77.71,388,9.01,113.6,9.31,0.9,0.6,3.6,14.9,28.7,71.6,,,0,339.1,0.05,1.6,51,102,0.09,0.06,-1.4,0.3
7/18/2021 21:30,77.7,388,9.01,113.6,9.32,0.8,0.5,3.2,13.5,28.7,71.6,,,,336.2,0.03,1.5,172,295,0.06,0.04,-1.8,0.9
7/18/2021 21:40,77.69,388,9.01,113.6,9.32,0.9,0.6,3.7,15.7,28.7,71.24,,,0,336.4,0.03,1.5,172,295,0.06,0.04,-2.4,1.3
7/18/2021 21:50,77.66,388,9.01,113.7,9.32,0.9,0.6,3.7,15.5,28.7,70.88,,,,338.7,0.01,1.6,231,338,0.03,0.02,-2.7,0.4
7/18/2021 22:00,77.63,388,9,113.6,9.32,0.8,0.5,3.3,14.1,28.7,70.52,,,0,340.3,0.01,1.6,231,338,0.03,0.02,-1.8,1.3
7/18/2021 22:10,77.6,388,8.99,113.6,9.32,0.8,0.5,2.7,11.5,28.7,70.7,,,,337.4,0.01,1.2,322,316,0.02,0.02,-1.6,0.9
7/18/2021 22:20,77.57,388,8.99,113.6,9.32,0.7,0.5,3,12.5,28.7,70.16,,,0,336.7,0.01,1.2,322,316,0.02,0.02,-2,1.1
7/18/2021 22:30,77.53,388,8.99,113.5,9.32,0.8,0.5,3.3,13.8,28.7,69.98,,,,339.3,0.01,1.9,124,165,0.01,0.01,-2.1,0.3
7/18/2021 22:40,77.52,388,8.99,113.5,9.32,0.9,0.6,3.4,14.2,28.7,69.8,,,0,335.7,0.01,1.9,124,165,0.01,0.01,-1.5,0.5
7/18/2021 22:50,77.51,388,8.99,113.5,9.32,0.8,0.5,3.1,13.1,28.7,69.44,,,,332,0.01,1.7,133,146,0.02,0.02,-2.2,0.4
7/18/2021 23:00,77.44,388,8.99,113.5,9.32,0.9,0.6,3.2,13.5,28.7,69.44,,,0,340.2,0.01,1.7,133,146,0.02,0.02,-1.4,0.8
7/18/2021 23:10,77.42,388,8.99,113.4,9.32,0.8,0.5,3.1,12.9,28.7,69.26,,,,339.3,0.01,16.7,283,291,0.02,0.02,-2,0.8
7/18/2021 23:20,77.41,389,8.98,113.4,9.32,0.8,0.5,3.1,12.8,28.7,68.72,,,1,331.9,0.01,16.7,283,291,0.02,0.02,-2.1,0.4
7/18/2021 23:30,77.38,389,8.98,113.4,9.32,0.8,0.5,3.2,13.6,28.7,68.54,,,,337.1,0.01,1.4,184,181,0.02,0.02,-1.9,0.5
7/18/2021 23:40,77.35,389,8.98,113.4,9.32,1.1,0.7,3,12.8,28.7,68.72,,,0,332.1,0.01,1.4,184,181,0.02,0.02,-2.3,1.3
7/18/2021 23:50,77.34,389,8.98,113.3,9.32,0.9,0.6,3,12.5,28.7,68.72,,,,332,0.01,16.9,215,223,0.02,0.02,-2,0.9
7/19/2021 0:00,77.3,389,8.98,113.3,9.32,1,0.7,3.6,15.2,28.7,68.9,,,1,340.1,0.01,16.9,215,223,0.02,0.02,-1.4,1.2
7/19/2021 0:10,77.28,389,8.98,113.3,9.33,1,0.6,3.3,13.8,28.7,68.9,,,,337.9,0.01,17.1,272,265,0.02,0.02,-1.9,0.8
7/19/2021 0:20,77.26,389,8.97,113.2,9.32,0.8,0.5,3.1,12.8,28.7,68.9,,,1,334.6,0.01,17.1,272,265,0.02,0.02,-2,1
7/19/2021 0:30,77.25,389,8.97,113.2,9.32,0.9,0.6,2.6,10.9,28.7,68.9,,,,337.1,0.01,16.9,237,227,0.01,0.01,-1.6,0.9
7/19/2021 0:40,77.23,389,8.96,113.2,9.32,0.9,0.6,3.3,14,28.7,68.72,,,1,337.1,0.01,16.9,237,227,0.01,0.01,-1.4,0.7
7/19/2021 0:50,77.2,389,8.97,113.1,9.32,0.6,0.4,2.1,8.8,28.7,68.9,,,,336.5,0,6.7,318,14,0.01,0.01,-2,0.3
7/19/2021 1:00,77.18,389,8.96,113.1,9.32,1.1,0.7,2.5,10.6,28.7,68.9,,,0,334.9,0,6.7,318,14,0.01,0.01,-1.9,0.6
7/19/2021 1:10,77.16,389,8.96,113.1,9.32,1,0.6,2.9,12.1,28.7,68.72,,,,334.9,0.01,9.5,213,71,0.01,0.01,-2.3,0.6
7/19/2021 1:20,77.13,389,8.94,113,9.32,0.9,0.6,2.3,9.6,28.7,68.72,,,1,335.9,0.01,9.5,213,71,0.01,0.01,-1.2,0.6
7/19/2021 1:30,77.13,389,8.95,113,9.32,0.9,0.6,2.6,11,28.7,68,,,,335.9,0.01,6.3,61,52,0.01,0.01,-1.6,0.5
7/19/2021 1:40,77.12,389,8.95,113,9.31,0.6,0.4,2.4,10.1,28.7,67.82,,,0,335.9,0.01,6.3,61,52,0.01,0.01,-2.8,0.7
7/19/2021 1:50,77.08,389,8.95,112.9,9.31,1,0.6,2.8,11.7,28.7,68.18,,,,335.8,0.01,17.4,193,194,0.01,0.01,-2.1,0.8
7/19/2021 2:00,77.05,389,8.92,112.9,9.31,1.1,0.7,2.5,10.5,28.7,68.18,,,0,335.8,0.01,17.4,193,194,0.01,0.01,-2.1,0.8
7/19/2021 2:10,77.05,389,8.94,112.8,9.31,0.7,0.5,2.4,10.1,30.1,68.18,233,3.8,,336.8,0.01,11.2,211,205,0.01,0.01,-2.1,0.8
7/19/2021 2:20,77.04,389,8.93,112.8,9.31,0.6,0.4,2.6,10.8,28.7,67.64,,,0,336.7,0.01,11.2,211,205,0.01,0.01,-2.2,0.8
7/19/2021 2:30,77.02,389,8.93,112.7,9.3,0.7,0.5,2.9,12,28.7,67.46,,,,336.7,0.01,11.2,211,205,0.01,0.01,-2.2,0.8
7/19/2021 2:40,76.99,389,8.93,112.7,9.3,1.9,1.3,2.9,12.2,28.7,67.64,,,0,336.8,0,7.5,248,214,0,0,-2.1,0.8
7/19/2021 2:50,76.97,389,8.94,112.6,9.3,0.5,0.3,2.7,11.1,28.7,67.46,,,,336.1,0,7.5,248,214,0,0,-2.1,0.8
7/19/2021 3:00,76.97,389,8.95,112.6,9.3,0.7,0.4,2.5,10.6,28.7,67.46,,,0,336.5,0,6.9,231,228,0,0,-2.1,0.8
7/19/2021 3:10,76.92,389,8.91,112.6,9.3,0.7,0.5,2.1,8.9,28.7,67.46,,,,336.4,0,6.9,231,228,0,0,-2.1,0.8
7/19/2021 3:20,76.91,389,8.93,112.5,9.3,0.7,0.4,2.6,10.8,29.3,66.74,144,5.1,1,336.3,0.01,13.8,51,81,0.01,0.01,-2.1,0.8
7/19/2021 3:30,76.93,389,8.92,112.5,9.3,1.1,0.7,2.9,12.2,29.4,66.92,186,4.5,,336.3,0.01,13.8,51,81,0.01,0.01,-2.1,0.8
7/19/2021 3:40,76.92,389,8.94,112.5,9.29,1,0.6,2.9,12.2,29.4,67.28,188,6,1,335.6,0,8.2,53,75,0.01,0.01,-2.3,0.8
7/19/2021 3:50,76.92,389,8.93,112.5,9.29,0.8,0.5,2.8,11.8,29.4,67.46,168,5.6,,335.6,0,8.2,53,75,0.01,0.01,-2.3,0.8
7/19/2021 4:00,76.94,390,8.94,112.5,9.29,1,0.6,2.7,11.3,28.7,67.46,,,1,335.3,0,6.5,228,249,0,0,-1.7,0.8
7/19/2021 4:10,76.91,390,8.93,112.4,9.28,1,0.6,3,12.4,28.7,67.28,,,,338,0,6.5,228,249,0,0,-0.9,0.9
7/19/2021 4:20,76.93,390,8.93,112.4,9.28,0.8,0.5,2.9,12.3,28.7,67.1,,,1,335.3,0.01,2.4,226,70,0.01,0.01,-1.5,1.1
7/19/2021 4:30,76.94,390,8.93,112.4,9.28,0.7,0.4,2.5,10.2,28.7,66.74,,,,335.3,0.01,2.4,226,70,0.01,0.01,-1.5,0.8
7/19/2021 4:40,76.93,389,8.92,112.3,9.28,1.3,0.9,2.5,10.6,28.7,66.92,,,1,335.3,0.01,1.3,12,17,0.01,0.01,-1.6,0.8
7/19/2021 4:50,76.9,390,8.93,112.3,9.28,0.8,0.5,3,12.4,28.7,66.74,,,,335.4,0.01,1.3,12,17,0.01,0.01,-1.6,0.7
7/19/2021 5:00,76.89,390,8.93,112.3,9.28,0.7,0.4,2.7,11.3,28.7,66.56,,,1,335.4,0,6.9,192,118,0.01,0,-1.8,0.8
7/19/2021 5:10,76.87,389,8.94,112.3,9.28,1,0.6,3.2,13.6,28.7,66.2,,,,335.4,0,6.9,192,118,0.01,0,-1.8,0.8
7/19/2021 5:20,76.85,390,8.92,112.2,9.28,0.7,0.4,2.8,11.6,28.7,66.02,,,1,335.8,0,7.1,68,322,0.01,0,-1.8,0.8
7/19/2021 5:30,76.82,390,8.92,112.1,9.27,0.6,0.4,2.8,11.5,28.7,65.84,,,,335.9,0,7.1,68,322,0.01,0,-1.9,0.8
7/19/2021 5:40,76.79,390,8.9,112,9.27,0.6,0.4,2.6,10.9,29.3,65.48,202,2,2,337.1,0.01,14.6,341,343,0.01,0.01,-1.9,0.8
7/19/2021 5:50,76.78,390,8.91,112,9.27,0.7,0.5,3.1,13.2,28.7,65.48,,,,335.9,0.01,14.6,341,343,0.01,0.01,-1.8,0.8
7/19/2021 6:00,76.78,390,8.91,112,9.26,0.8,0.5,3.3,14,28.7,65.48,,,13,335.9,0,6.6,231,91,0.01,0,-1.8,0.8
7/19/2021 6:10,76.76,390,8.91,111.9,9.26,0.8,0.5,2.8,11.7,29.5,65.66,203,3.4,,335.9,0,6.6,231,91,0.01,0,-1.8,0.8
7/19/2021 6:20,76.73,390,8.91,111.9,9.26,0.6,0.4,2.9,12.2,28.7,66.2,,,53,335.9,0.01,16.9,283,243,0.01,0.01,-1.8,0.8
7/19/2021 6:30,76.7,390,8.91,111.8,9.25,0.7,0.5,3.1,12.9,29.4,67.1,187,1.6,,335.3,0.01,16.9,283,243,0.01,0.01,-1.8,0.8
7/19/2021 6:40,76.69,390,8.91,111.7,9.25,0.8,0.5,3.1,12.9,28.7,68.36,,,128,333.4,0.01,2.4,125,162,0.01,0.01,-2.7,0.7
7/19/2021 6:50,76.68,390,8.9,111.7,9.25,0.7,0.4,2.1,8.6,28.7,68.72,,,,336.2,0.01,2.4,125,162,0.01,0.01,-1.3,1.1
7/19/2021 7:00,76.66,390,8.9,111.6,9.25,0.7,0.5,3,12.5,28.7,68.72,,,232,336.2,0.02,1.3,226,99,0.03,0.02,-1.4,1
7/19/2021 7:10,76.64,390,8.9,111.6,9.24,0.8,0.5,3.2,13.2,28.7,68.9,,,,335.9,0.02,1.3,226,99,0.03,0.02,-2.8,1.1
7/19/2021 7:20,76.6,390,8.91,111.5,9.24,0.8,0.5,3,12.4,28.7,69.8,,,356,336.3,0.01,2.6,302,312,0.01,0.01,-2.5,0.9
7/19/2021 7:30,76.62,390,8.92,111.5,9.24,0.7,0.4,3,12.6,28.7,71.6,,,,334.5,0.01,2.6,302,312,0.01,0.01,-1.1,1.2
7/19/2021 7:40,76.6,390,8.92,111.5,9.24,0.8,0.5,3.2,13.3,28.7,70.7,,,455,339.1,0.03,1.5,276,159,0.06,0.04,-2.1,0.7
7/19/2021 7:50,76.59,390,8.91,111.5,9.24,0.8,0.5,2.6,10.9,28.7,70.7,,,,340.5,0.03,1.5,276,159,0.06,0.04,-2.4,0
7/19/2021 8:00,76.59,390,8.9,111.4,9.23,1,0.6,2.9,12.2,28.7,71.6,,,583,334.1,0.03,1.5,321,111,0.06,0.04,-1.6,0.6
7/19/2021 8:10,76.67,390,8.92,111.4,9.23,0.8,0.5,3,12.4,28.7,71.78,,,,342.1,0.03,1.5,321,111,0.06,0.04,-2.6,0.2
7/19/2021 8:20,76.69,390,8.92,111.4,9.23,1,0.6,2.8,11.7,28.7,71.6,,,721,337.6,0.03,1.5,354,345,0.05,0.04,-1.9,1.7
7/19/2021 8:30,76.72,390,8.93,111.5,9.23,0.9,0.6,3.1,13.2,28.7,72.14,,,,339.1,0.03,1.5,354,345,0.05,0.04,-2.8,1.5
7/19/2021 8:40,76.77,390,8.93,111.5,9.23,0.7,0.5,2.7,11.2,28.7,75.02,,,840,339.1,0.03,1.5,9,347,0.06,0.04,-2.5,1.2
7/19/2021 8:50,76.83,390,8.93,111.6,9.23,0.8,0.5,2.9,12.3,28.7,77,,,,335.1,0.03,1.5,9,347,0.06,0.04,-2.7,0.8
7/19/2021 9:00,76.96,389,8.94,111.7,9.23,0.8,0.5,2,8.1,28.8,77.54,,,960,337.9,0.02,1.5,345,315,0.04,0.03,-2.2,0.3
7/19/2021 9:10,77.04,389,8.95,111.8,9.23,0.9,0.6,3,12.6,28.8,78.08,,,,336.5,0.02,1.5,345,315,0.04,0.03,-2.2,0
7/19/2021 9:20,77.1,389,8.95,111.9,9.23,0.8,0.5,1.9,8.1,28.7,78.26,,,1075,338.1,0.04,1.7,179,150,0.07,0.05,-2.2,0.9
7/19/2021 9:30,77.19,389,8.95,112,9.23,0.8,0.5,2.2,9.3,28.8,79.34,,,,342.6,0.04,1.7,179,150,0.07,0.05,-2.1,1
7/19/2021 9:40,77.27,389,8.96,112.1,9.23,0.8,0.5,2.4,10.2,28.8,80.6,,,1178,340.6,0.02,1.5,342,342,0.04,0.03,-1.6,-0.1
7/19/2021 9:50,77.42,389,8.96,112.3,9.23,0.9,0.6,1.7,7,28.7,81.68,,,,339,0.02,1.5,342,342,0.04,0.03,-2.6,0.6
7/19/2021 10:00,77.45,388,8.98,112.4,9.23,0.9,0.6,2.3,9.6,28.7,80.06,,,1277,342.8,0.03,1.4,318,1,0.06,0.04,-2.7,0.7
7/19/2021 10:10,77.46,388,8.98,112.4,9.24,0.9,0.6,2.2,9.3,28.7,78.98,,,,336.6,0.03,1.4,318,1,0.06,0.04,-1.5,0.3
7/19/2021 10:20,77.79,388,8.97,112.8,9.23,0.9,0.6,2,8.4,28.7,79.34,,,1362,330.8,0.05,2.5,110,91,0.08,0.06,-1.7,0.4
7/19/2021 10:30,77.84,388,8.98,112.9,9.24,0.8,0.5,2,8.3,28.7,79.52,,,,341.1,0.05,2.5,110,91,0.08,0.06,-2,0.2
7/19/2021 10:40,77.94,388,8.99,113.1,9.25,0.8,0.5,1.8,7.6,28.7,78.98,,,1446,337.7,0.06,1.8,177,175,0.12,0.08,-2.7,0.1
7/19/2021 10:50,78.16,388,8.98,113.4,9.25,0.9,0.6,1.8,7.3,28.7,79.34,,,,337.2,0.06,1.8,177,175,0.12,0.08,-2.2,0.8
7/19/2021 11:00,78.37,389,8.98,113.6,9.24,0.8,0.5,1.5,6.2,28.7,79.7,,,1514,339.3,0.04,1.7,6,205,0.08,0.05,-1.7,0.3
7/19/2021 11:10,78.48,389,8.98,113.7,9.25,0.8,0.5,1.4,5.7,28.7,80.6,,,,341.4,0.04,1.7,6,205,0.08,0.05,-2,0.1
7/19/2021 11:20,78.62,389,8.98,113.9,9.25,0.9,0.6,1.5,6,28.7,80.78,,,1586,334.8,0.03,1.4,102,48,0.05,0.04,-1.8,0.1
7/19/2021 11:30,78.69,389,8.98,114,9.25,0.8,0.5,1.4,5.7,28.7,82.58,,,,338.4,0.03,1.4,102,48,0.05,0.04,-2,0
7/19/2021 11:40,78.92,389,8.97,114.3,9.25,0.8,0.5,1.2,5,28.7,84.2,,,1662,338.4,0.03,1.4,271,319,0.05,0.04,-1.3,0.8
7/19/2021 11:50,79.04,389,8.98,114.4,9.25,0.8,0.5,1.3,5.3,28.7,84.02,,,,339.1,0.03,1.4,271,319,0.05,0.04,-1.4,1.2
7/19/2021 12:00,79.24,389,8.98,114.5,9.24,0.8,0.5,1.2,4.8,28.7,82.4,,,1738,341.1,0.02,1.5,154,93,0.04,0.03,-1.5,0.7
7/19/2021 12:10,79.17,388,8.99,114.5,9.25,0.9,0.6,1.4,5.7,28.7,82.04,,,,340.8,0.02,1.5,154,93,0.04,0.03,-2.1,1.1
7/19/2021 12:20,79.27,388,9,114.8,9.26,0.8,0.5,1.5,6.1,28.7,81.32,,,1765,345.9,0.06,1.3,52,76,0.12,0.08,-2.3,0.7
7/19/2021 12:30,79.44,389,8.99,115,9.27,0.8,0.5,1.4,5.7,28.7,81.5,,,,342.5,0.06,1.3,52,76,0.12,0.08,-1.5,0.3
7/19/2021 12:40,79.48,388,9,115.1,9.27,0.8,0.5,1.3,5.4,28.7,79.7,,,1760,340.6,0.06,1.6,252,71,0.11,0.08,-1.7,0.1
7/19/2021 12:50,79.53,387,9.02,115.3,9.28,0.7,0.4,1.4,5.9,28.7,80.06,,,,342.9,0.06,1.6,252,71,0.11,0.08,-1.7,0.6
7/19/2021 13:00,79.67,388,9.01,115.5,9.28,0.7,0.4,1.4,5.6,28.7,79.52,,,1811,341.5,0.06,1.5,332,282,0.11,0.08,-2.7,0.4
7/19/2021 13:10,80.07,388,9,116.1,9.29,0.7,0.5,1.2,5,28.7,79.52,,,,341.3,0.06,1.5,332,282,0.11,0.08,-2.1,-0.1
7/19/2021 13:20,80.18,389,8.99,116.2,9.29,0.7,0.5,1.2,4.8,28.7,80.24,,,1805,343.4,0.05,1.7,302,298,0.09,0.07,-2.3,0.3
7/19/2021 13:30,80.39,389,8.99,116.5,9.3,0.7,0.4,1.2,4.9,28.7,81.86,,,,342.2,0.05,1.7,302,298,0.09,0.07,-1.9,-0.2
7/19/2021 13:40,80.24,387,9.02,116.4,9.3,0.7,0.4,1.3,5.4,28.7,80.6,,,1783,342.3,0.06,1.5,282,287,0.1,0.07,-2.8,0.6
7/19/2021 13:50,80.31,388,9.02,116.6,9.31,0.7,0.4,1.4,5.8,28.7,80.42,,,,343.5,0.06,1.5,282,287,0.1,0.07,-1.4,1
7/19/2021 14:00,80.43,387,9.03,116.7,9.31,0.6,0.4,1.5,6,28.7,80.96,,,1752,334.7,0.06,1.4,4,326,0.11,0.08,-2.7,1
7/19/2021 14:10,80.28,387,9.04,116.9,9.33,0.7,0.4,1.6,6.8,28.7,82.94,,,,335.8,0.06,1.4,4,326,0.11,0.08,-2.6,1
7/19/2021 14:20,80.32,386,9.03,116.8,9.33,0.5,0.3,1.5,6,28.7,82.94,,,1697,342,0.07,1.9,219,215,0.13,0.09,-2.6,0.5
7/19/2021 14:30,81.01,387,9.03,117.9,9.35,0.6,0.4,1.5,6.2,28.7,84.02,,,,344.4,0.07,1.9,219,215,0.13,0.09,-1.8,-0.2
7/19/2021 14:40,80.3,386,9.04,117.1,9.35,0.6,0.4,1.6,6.8,28.7,85.1,,,1662,341.8,0.08,1.6,276,254,0.14,0.1,-2.3,0.2
7/19/2021 14:50,80.51,386,9.05,117.4,9.36,0.6,0.4,1.6,6.7,28.7,84.38,,,,341.6,0.08,1.6,276,254,0.14,0.1,-1.9,-0.2
7/19/2021 15:00,80.59,387,9.05,117.9,9.39,0.6,0.4,1.8,7.3,28.7,85.1,,,1551,337.7,0.06,1.7,275,279,0.12,0.08,-3,0.5
7/19/2021 15:10,81.02,386,9.05,118.2,9.37,0.6,0.4,1.6,6.6,28.7,83.3,,,,337.8,0.06,1.7,275,279,0.12,0.08,-1.7,0
7/19/2021 15:20,80.51,385,9.06,117.7,9.38,0.6,0.4,1.8,7.6,28.7,84.38,,,1537,336.2,0.07,2.1,102,213,0.13,0.09,-2.4,0.3
7/19/2021 15:30,80.83,385,9.06,118.1,9.38,0.5,0.3,1.8,7.3,28.7,83.48,,,,336,0.07,2.1,102,213,0.13,0.09,-2.6,0.6
