datetime,Water Temperature_F,Sp Cond_uS/cm,pH,ODOSat_%,ODO_mg/L,BGA-Phycocyanin RFU_rfu,BGA-PC_ug/l,Chlorophyll RFU_rfu,Chlorophyll_ug/l,Rel. Barometric Pressure_inHg,Air Temperature_F,Wind Direction_deg,Wind Speed_mph,PAR_umol/s/m,Heading_deg,Hs Wave Height_m,Tp (DPD) Wave Period_sec,Dominant Wave Direction_deg,Mean Wave Direction (MWD)_deg,Hmax Wave Height_m,H10 Wave Height_m,Rolld_deg,Pitch_deg
3/29/2021 9:20,,,,,,,,,,,,,,3,262.7,0,0,0,0,0,0,47,9.6
3/29/2021 9:30,,,,,,,,,,28,52.7,,,4,262.4,0,0,0,0,0,0,47,9.6
3/29/2021 9:40,,,,,,,,,,28,53.06,,,6,263.8,0,0,0,0,0,0,47.1,9.4
3/29/2021 9:50,,,,,,,,,,28,53.42,,,7,263.7,0,0,0,0,0,0,47.1,9.6
3/29/2021 10:00,,,,,,,,,,28,53.78,,,7,263.7,0,0,0,0,0,0,47.1,9.6
3/29/2021 10:10,,,,,,,,,,28,54.14,,,4,263.9,0.01,11.4,52,51,0.01,0.01,47.1,10.1
3/29/2021 10:20,,,,,,,,,,28,54.5,,,9,263.9,0.01,11.4,52,51,0.01,0.01,47.1,10.1
3/29/2021 10:27,65.87,0,6.38,126.6,11.79,2.3,1.5,2.5,7.7,28,55.04,,,10,263.8,0,0,0,0,0,0,47.1,10.3
3/29/2021 10:30,65.47,0,6.37,126.9,11.87,2.3,1.6,2.6,7.8,,,,,9,263.8,0,0,0,0,0,0,47.1,10.3
3/29/2021 10:40,63.98,0,6.58,127.2,12.1,2.3,1.6,2.6,8,28,55.58,,,10,263.8,0,0,0,0,0,0,47.1,10.2
3/29/2021 10:50,62.76,0,6.56,127.4,12.29,2.4,1.6,2.7,8.2,28,55.94,,,9,263.8,0,9.4,168,2,0.01,0,47.1,9.9
3/29/2021 11:00,61.86,0,6.67,127.4,12.42,2.4,1.7,2.8,8.3,28,56.48,,,10,263.8,0,9.4,168,2,0.01,0,47.1,9.9
3/29/2021 11:10,61.2,0,6.6,127.4,12.51,2.4,1.7,2.8,8.4,28,57.02,,,10,263.6,0.01,6.5,175,199,0.01,0.01,47,10.1
3/29/2021 11:20,60.74,0,6.66,127.3,12.57,2.5,1.7,2.8,8.6,28,57.2,,,10,263.6,0.01,6.5,175,199,0.01,0.01,47,10.1
3/29/2021 11:30,60.44,0,6.7,127.2,12.61,2.5,1.7,2.9,8.8,28,57.74,,,10,264.1,0,6.5,276,181,0.01,0.01,47,9.9
3/29/2021 11:40,60.26,0,6.77,127.1,12.63,2.5,1.7,2.9,8.8,28,58.46,,,10,264.1,0,6.5,276,181,0.01,0.01,47,9.9
3/29/2021 11:50,60.19,0,6.83,127,12.63,2.6,1.8,3,9.1,28,59,,,10,264.5,0.01,6.9,173,181,0.01,0.01,47.1,9.9
3/29/2021 12:00,60.2,0,6.86,126.9,12.62,2.6,1.8,3.1,9.2,28,59.72,,,10,264.5,0.01,6.9,173,181,0.01,0.01,47.1,9.9
3/29/2021 12:10,60.23,0,6.91,126.8,12.6,2.5,1.7,3.1,9.3,28,60.08,,,9,265.3,0.01,6.7,148,177,0.01,0.01,47.1,9.8
3/29/2021 12:20,60.31,0,6.98,126.8,12.59,2.5,1.7,3.2,9.5,27.9,60.62,,,9,265.3,0.01,6.7,148,177,0.01,0.01,47.1,9.8
3/29/2021 12:30,60.43,0,7.01,126.7,12.56,2.6,1.8,3.2,9.6,27.9,60.98,,,9,264.3,0.01,7.9,151,178,0.01,0.01,47,9.9
3/29/2021 12:40,60.59,0,7.12,126.7,12.53,2.6,1.8,3.3,9.8,27.9,61.34,,,10,264.3,0.01,7.9,151,178,0.01,0.01,47,9.9
3/29/2021 12:50,60.78,0,7.21,126.6,12.5,2.7,1.8,3.3,10,27.9,61.88,,,9,264.7,0.01,8.1,174,173,0.01,0.01,47,9.8
3/29/2021 13:00,60.96,0,7.34,126.5,12.47,2.6,1.8,3.3,9.9,27.9,62.24,,,9,264.7,0.01,8.1,174,173,0.01,0.01,47,9.8
3/29/2021 13:10,61.15,0,7.47,126.5,12.44,2.6,1.8,3.3,10,27.9,62.42,,,8,264.8,0.01,15,356,191,0.01,0.01,46.9,9.9
3/29/2021 13:20,61.35,0,7.54,126.5,12.4,2.6,1.8,3.4,10.2,27.9,62.78,,,8,264.8,0.01,15,356,191,0.01,0.01,46.9,9.9
3/29/2021 13:30,61.54,0,7.6,126.4,12.37,2.6,1.8,3.4,10.2,27.9,63.14,,,8,265.8,0.01,6.6,188,183,0.01,0.01,46.9,9.8
3/29/2021 13:40,61.73,0,7.64,126.4,12.34,2.6,1.8,3.4,10.2,27.9,63.5,,,7,265.8,0.01,6.6,188,183,0.01,0.01,46.9,9.8
3/29/2021 13:50,61.93,0,7.68,126.4,12.31,2.5,1.7,3.4,10.3,27.9,63.68,,,7,265.5,0.01,6.6,188,179,0.01,0.01,47.1,9.9
3/29/2021 14:00,62.13,0,7.71,126.3,12.28,2.6,1.8,3.5,10.4,27.9,63.86,,,6,265.5,0.01,6.6,188,179,0.01,0.01,47.1,9.8
3/29/2021 14:10,62.32,0,7.73,126.3,12.25,2.6,1.8,3.4,10.3,27.9,64.22,,,6,264.8,0.01,7.1,181,190,0.01,0.01,47,9.7
3/29/2021 14:20,62.5,0,7.76,126.3,12.22,2.5,1.7,3.4,10.3,27.9,64.4,,,7,264.8,0.01,7.1,181,190,0.01,0.01,47,9.7
3/29/2021 14:30,62.69,0,7.79,126.2,12.19,2.6,1.8,3.5,10.4,27.9,64.58,,,6,265.6,0,6.4,180,178,0.01,0.01,46.9,9.8
3/29/2021 14:40,62.88,0,7.81,126.2,12.15,2.5,1.7,3.5,10.4,27.9,64.94,,,6,265.6,0,6.4,180,178,0.01,0.01,46.9,9.8
3/29/2021 14:50,63.07,0,7.84,126.1,12.12,2.6,1.8,3.5,10.4,27.9,64.94,,,6,265.4,0.01,9.1,186,184,0.01,0.01,46.9,9.8
3/29/2021 15:00,63.26,0,7.87,126.1,12.1,2.6,1.8,3.5,10.4,27.9,65.3,,,6,265.4,0.01,9.1,186,184,0.01,0.01,46.9,9.8
3/29/2021 15:10,63.44,0,7.89,126.1,12.07,2.6,1.8,3.5,10.4,27.9,65.48,,,5,265.2,0.01,8.5,148,160,0.01,0.01,46.9,9.7
3/29/2021 15:20,63.6,0,7.92,126,12.04,2.6,1.8,3.5,10.5,27.9,65.66,,,5,265.2,0.01,8.5,148,160,0.01,0.01,46.9,9.7
3/29/2021 15:30,63.76,0,7.95,126,12.02,2.7,1.8,3.5,10.3,27.9,65.84,,,6,265.3,0.01,14.5,151,172,0.01,0.01,47,9.6
3/29/2021 15:40,63.91,0,7.97,126,11.99,2.7,1.8,3.5,10.4,27.9,66.02,,,5,265.3,0.01,14.5,151,172,0.01,0.01,47,9.6
3/29/2021 15:50,64.04,0,7.99,125.9,11.97,2.6,1.8,3.4,10.3,27.9,66.2,,,5,264.9,0,6.7,187,180,0.01,0.01,46.9,9.6
3/29/2021 16:00,64.17,0,8.02,125.9,11.95,2.7,1.8,3.5,10.5,27.9,66.2,,,4,264.9,0,6.7,187,180,0.01,0.01,46.9,9.6
3/29/2021 16:10,64.28,0,8.04,125.9,11.93,2.6,1.8,3.5,10.3,27.9,66.38,,,5,265.4,0.01,7.7,184,182,0.01,0.01,47,9.5
3/29/2021 16:20,64.37,0,8.07,125.8,11.92,2.6,1.8,3.4,10.3,27.8,66.38,,,4,265.4,0.01,7.7,184,182,0.01,0.01,47,9.5
3/29/2021 16:30,64.46,0,8.09,125.8,11.9,2.7,1.8,3.4,10.2,27.8,66.38,,,4,265.4,0.01,8,216,180,0.01,0.01,47,9.6
3/29/2021 16:40,64.52,0,8.11,125.8,11.89,2.6,1.8,3.4,10.1,27.8,66.38,,,3,265.4,0.01,8,216,180,0.01,0.01,47,9.6
3/29/2021 16:50,64.57,0,8.11,125.8,11.89,2.6,1.8,3.4,10.3,27.8,66.38,,,3,265.7,0,7,189,187,0.01,0.01,47,9.6
3/29/2021 17:00,64.6,0,8.13,125.8,11.88,2.6,1.8,3.4,10.1,27.8,66.38,,,4,265.7,0,7,189,187,0.01,0.01,46.9,9.6
3/29/2021 17:10,64.6,0,8.13,125.7,11.88,2.6,1.8,3.4,10.3,27.8,66.2,,,1,265.7,0.01,16.2,95,124,0.01,0.01,46.9,9.5
3/29/2021 17:20,64.57,0,8.14,125.7,11.88,2.6,1.8,3.4,10.3,27.8,66.2,,,1,265.7,0.01,16.2,95,124,0.01,0.01,46.9,9.5
3/29/2021 17:30,64.5,0,8.13,125.8,11.89,2.7,1.8,3.4,10.2,27.8,66.2,,,2,265.4,0.01,7.1,177,138,0.01,0.01,46.9,9.6
3/29/2021 17:40,64.43,0,8.13,125.7,11.9,2.6,1.8,3.4,10.2,27.8,66.02,,,2,265.4,0.01,7.1,177,138,0.01,0.01,46.9,9.6
3/29/2021 17:50,64.34,0,8.14,125.8,11.91,2.7,1.8,3.4,10.1,27.8,65.84,,,1,265.9,0.01,15.6,33,185,0.01,0.01,46.9,9.5
3/29/2021 18:00,64.24,0,8.15,125.7,11.93,2.7,1.8,3.5,10.3,27.8,65.66,,,1,265.9,0.01,15.6,33,185,0.01,0.01,46.9,9.5
3/29/2021 18:10,64.12,0,8.16,125.7,11.94,2.7,1.8,3.4,10.3,27.8,65.48,,,0,264.9,0.01,7,183,186,0.01,0.01,47,9.5
3/29/2021 18:20,63.99,0,8.16,125.8,11.96,2.7,1.8,3.5,10.3,27.8,65.3,,,0,264.9,0.01,7,183,186,0.01,0.01,47,9.5
3/29/2021 18:30,63.85,0,8.17,125.8,11.98,2.7,1.8,3.4,10.3,27.8,64.94,,,0,265.4,0,6.6,183,184,0.01,0.01,47,9.5
3/29/2021 18:40,63.68,0,8.17,125.8,12.01,2.7,1.8,3.4,10.3,27.8,64.76,,,0,265.4,0,6.6,183,184,0.01,0.01,47,9.5
3/29/2021 18:50,63.51,0,8.16,125.8,12.03,2.7,1.9,3.4,10.2,27.8,64.4,,,0,265.3,0.01,6.9,187,185,0.01,0.01,47,9.4
3/29/2021 19:00,63.32,0,8.16,125.8,12.05,2.8,1.9,3.5,10.4,27.8,64.04,,,0,265.3,0.01,6.9,187,185,0.01,0.01,47,9.4
3/29/2021 19:10,63.14,0,8.15,125.7,12.08,2.8,1.9,3.5,10.3,27.8,63.86,,,0,265.6,0.01,11.2,207,186,0.01,0.01,47.1,9.5
3/29/2021 19:20,62.94,0,8.15,125.7,12.11,2.7,1.9,3.4,10.3,27.8,63.68,,,0,265.6,0.01,11.2,207,186,0.01,0.01,47.1,9.5
3/29/2021 19:30,62.75,0,8.15,125.7,12.13,2.8,1.9,3.5,10.3,27.8,63.5,,,-1,266,0.01,6.7,182,190,0.01,0.01,46.9,9.6
3/29/2021 19:40,62.55,0,8.12,125.7,12.16,2.7,1.9,3.5,10.4,27.8,63.14,,,-1,266,0.01,6.7,182,190,0.01,0.01,46.9,9.6
3/29/2021 19:50,62.36,0,8.13,125.8,12.19,2.7,1.9,3.4,10.3,27.8,62.78,,,-1,265.6,0.01,7.3,204,195,0.01,0.01,47.1,9.6
3/29/2021 20:00,62.16,0,8.1,125.8,12.22,2.7,1.9,3.4,10.3,27.8,62.42,,,0,265.6,0.01,7.3,204,195,0.01,0.01,47.1,9.6
3/29/2021 20:10,61.97,0,8.09,125.8,12.25,2.7,1.9,3.4,10.3,27.9,62.42,,,-1,264.7,0.01,7.2,186,171,0.01,0.01,46.9,9.6
3/29/2021 20:20,61.79,0,8.07,125.8,12.27,2.7,1.9,3.5,10.4,27.9,62.24,,,-1,264.7,0.01,7.2,186,171,0.01,0.01,46.9,9.6
3/29/2021 20:30,61.61,0,8.03,125.8,12.3,2.7,1.9,3.4,10.3,27.9,61.88,,,0,264.6,0.01,9.8,187,197,0.01,0.01,47.1,9.5
3/29/2021 20:40,61.44,0,8.06,125.8,12.33,2.8,1.9,3.5,10.4,27.9,61.52,,,0,264.6,0.01,9.8,187,197,0.01,0.01,47.1,9.5
3/29/2021 20:50,61.27,0,8.03,125.8,12.35,2.8,1.9,3.5,10.5,27.9,61.34,,,-1,264.3,0.01,16.9,219,213,0.02,0.01,47,9.6
3/29/2021 21:00,61.11,0,8.02,125.9,12.39,2.8,1.9,3.5,10.4,27.9,61.16,,,0,264.3,0.01,16.9,219,213,0.02,0.01,47,9.6
3/29/2021 21:10,60.95,0,7.99,125.9,12.41,2.8,1.9,3.5,10.4,27.9,61.16,,,-1,265.1,0.01,17.1,182,183,0.01,0.01,47.1,9.6
3/29/2021 21:20,60.79,0,7.98,126,12.44,2.7,1.9,3.5,10.4,27.9,60.8,,,0,265.1,0.01,17.1,182,183,0.01,0.01,47,9.6
3/29/2021 21:30,60.63,0,7.94,126.1,12.47,2.8,1.9,3.5,10.4,27.9,60.62,,,-1,264.8,0.01,17.1,193,193,0.02,0.01,47,9.7
3/29/2021 21:40,60.47,0,7.91,126.1,12.5,2.8,1.9,3.5,10.4,28,60.26,,,-1,264.8,0.01,17.1,193,193,0.02,0.01,47,9.7
3/29/2021 21:50,60.32,0,7.98,126.2,12.52,2.8,1.9,3.5,10.4,28,60.08,,,0,265.3,0.01,7,182,176,0.01,0.01,46.9,9.6
3/29/2021 22:00,60.17,0,7.97,126.2,12.55,2.8,1.9,3.5,10.5,28,59.9,,,-1,265.3,0.01,7,182,176,0.01,0.01,46.9,9.6
3/29/2021 22:10,60.03,0,7.95,126.3,12.58,2.8,1.9,3.5,10.5,28,59.54,,,0,264.5,0.01,15.8,270,274,0.01,0.01,47.1,9.6
3/29/2021 22:20,59.89,0,7.94,126.3,12.61,2.8,1.9,3.5,10.5,28,59.36,,,0,264.5,0.01,15.8,270,274,0.01,0.01,47.1,9.6
3/29/2021 22:30,59.74,0,7.92,126.3,12.63,2.8,1.9,3.5,10.6,28,59,,,0,264.8,0.01,17.1,186,185,0.01,0.01,47,9.8
3/29/2021 22:40,59.57,0,7.89,126.3,12.65,2.8,1.9,3.5,10.4,28,58.64,,,-1,264.8,0.01,17.1,186,185,0.01,0.01,47,9.8
3/29/2021 22:50,59.38,0,7.83,126.4,12.69,2.8,1.9,3.5,10.6,28,58.46,,,0,264.1,0.01,14.5,213,185,0.01,0.01,47,9.6
3/29/2021 23:00,59.2,0,7.79,126.4,12.71,2.9,2,3.5,10.6,28,58.1,,,0,264.1,0.01,14.5,213,185,0.01,0.01,47,9.6
3/29/2021 23:10,59.01,0,7.75,126.4,12.75,2.8,2,3.5,10.5,28,57.74,,,0,264.1,0.01,7.5,190,180,0.01,0.01,47,9.7
3/29/2021 23:20,58.81,0,7.67,126.4,12.78,2.9,2,3.5,10.5,28,57.38,,,-1,264.1,0.01,7.5,190,180,0.01,0.01,47,9.7
3/29/2021 23:30,58.58,0,7.61,126.4,12.82,2.9,2,3.5,10.6,28,57.2,,,0,264.8,0.01,13.2,181,183,0.01,0.01,47,9.8
3/29/2021 23:40,58.36,0,7.53,126.5,12.85,2.8,1.9,3.5,10.6,28,56.84,,,0,264.8,0.01,13.2,181,183,0.01,0.01,47,9.7
3/29/2021 23:50,58.12,0,7.43,126.5,12.89,2.8,2,3.5,10.5,28.1,56.48,,,0,264.7,0.01,6.7,181,189,0.01,0.01,47.1,9.6
3/30/2021 0:00,57.89,0,7.28,126.5,12.93,2.8,1.9,3.5,10.6,28.1,56.12,,,-1,264.7,0.01,6.7,181,189,0.01,0.01,47.1,9.6
3/30/2021 0:10,57.67,0,7.2,126.6,12.97,2.9,2,3.5,10.5,28.1,55.94,,,0,264.2,0.01,6.7,188,186,0.01,0.01,47,9.6
3/30/2021 0:20,57.48,0,7.12,126.7,13.01,2.9,2,3.6,10.7,28.1,55.94,,,0,264.2,0.01,6.7,188,186,0.01,0.01,47,9.6
3/30/2021 0:30,57.29,0,7,126.7,13.04,2.8,2,3.5,10.6,28.1,55.58,,,1,264.2,0.01,15.6,188,184,0.01,0.01,47,9.6
3/30/2021 0:40,57.1,0,6.83,126.7,13.07,2.9,2,3.6,10.6,28.1,55.4,,,0,264.2,0.01,15.6,188,184,0.01,0.01,47,9.6
3/30/2021 0:50,56.9,0,6.72,126.6,13.1,2.9,2,3.6,10.6,28.1,55.22,,,1,264.1,0.01,9.4,191,189,0.01,0.01,47.1,9.8
3/30/2021 1:00,56.71,0,6.53,126.7,13.14,2.9,2,3.5,10.6,28.1,54.86,,,-1,264.1,0.01,9.4,191,189,0.01,0.01,47.1,9.8
3/30/2021 1:10,56.5,0,6.4,126.7,13.17,2.9,2,3.6,10.6,28.1,54.68,,,-1,263.8,0.01,8.5,348,1,0.01,0.01,47.1,9.7
3/30/2021 1:20,56.29,0,6.14,126.7,13.21,2.9,2,3.6,10.7,28.1,54.5,,,0,263.8,0.01,8.5,348,1,0.01,0.01,47.1,9.7
3/30/2021 1:30,56.07,0,5.97,126.8,13.25,2.9,2,3.5,10.6,28.1,54.14,,,0,264,0.01,12.5,168,179,0.01,0.01,47.1,9.6
3/30/2021 1:40,55.83,0,5.74,126.8,13.29,2.9,2,3.6,10.7,28.1,53.78,,,0,264,0.01,12.5,168,179,0.01,0.01,47.1,9.6
3/30/2021 1:50,55.59,0,5.45,126.9,13.34,3,2,3.6,10.7,28.1,53.42,,,1,263.9,0.01,16.4,163,175,0.01,0.01,47.1,9.6
3/30/2021 2:00,55.36,0,5.21,126.8,13.37,2.9,2,3.6,10.8,28.1,53.06,,,0,263.9,0.01,16.4,163,175,0.01,0.01,47.1,9.6
3/30/2021 2:10,55.12,0,4.86,126.9,13.42,2.9,2,3.6,10.8,28.1,52.88,,,0,264.1,0.01,6.8,183,181,0.01,0.01,47.1,9.8
3/30/2021 2:20,54.89,0,4.66,126.9,13.46,2.9,2,3.6,10.7,28.2,52.7,,,1,264.1,0.01,6.8,183,181,0.01,0.01,47.1,9.8
3/30/2021 2:30,54.65,0,4.48,126.9,13.5,3,2,3.6,10.7,28.2,52.34,,,1,264.1,0.01,7.3,183,189,0.01,0.01,47.1,9.8
3/30/2021 2:40,54.42,0,4.02,127,13.54,2.9,2,3.6,10.7,28.2,51.98,,,0,264.1,0.01,7.3,183,189,0.01,0.01,47.1,9.8
3/30/2021 2:50,54.15,0,3.73,127,13.59,2.9,2,3.6,10.7,28.2,51.62,,,0,264,0,7.4,190,183,0.01,0.01,47.1,9.6
3/30/2021 3:00,53.86,0,3.24,127,13.64,3,2,3.6,10.8,28.2,51.26,,,1,264,0,7.4,190,183,0.01,0.01,47.1,9.6
3/30/2021 3:10,53.61,0,2.93,127,13.69,2.9,2,3.6,10.7,28.2,51.26,,,0,263.7,0.01,6.8,58,183,0.01,0.01,47.1,9.7
3/30/2021 3:20,53.44,0,2.82,127,13.72,3,2,3.6,10.8,28.2,51.62,,,0,263.7,0.01,6.8,58,183,0.01,0.01,47.1,9.8
3/30/2021 3:30,53.32,0,2.57,127,13.74,2.9,2,3.6,10.7,28.2,51.44,,,0,263.4,0.01,16.7,171,176,0.01,0.01,47,9.8
3/30/2021 3:40,53.18,0,2.25,127,13.76,3,2.1,3.6,10.8,28.2,51.08,,,1,263.4,0.01,16.7,171,176,0.01,0.01,47,9.8
3/30/2021 3:50,53.01,0,1.56,127,13.79,3,2,3.6,10.8,28.2,50.72,,,0,263.8,0.01,12.5,173,178,0.01,0.01,47.1,9.9
3/30/2021 4:00,52.79,0,1.3,127,13.83,3,2,3.6,10.9,28.2,50.36,,,0,263.8,0.01,12.5,173,178,0.01,0.01,47.1,9.9
3/30/2021 4:10,52.53,0,0.76,127,13.87,3,2,3.6,10.9,28.2,50,,,0,264.6,0.01,6.6,186,187,0.01,0.01,47.1,9.8
3/30/2021 4:20,52.25,0,0.27,127,13.92,3,2,3.7,10.9,28.2,49.64,,,0,264.6,0.01,6.6,186,187,0.01,0.01,47.1,9.8
3/30/2021 4:30,52.02,0,-0.35,127.1,13.97,3,2,3.6,10.8,28.2,49.82,,,0,264.1,0.01,8.3,191,184,0.01,0.01,47.1,9.8
3/30/2021 4:40,51.89,0,-0.44,127.1,14,3,2,3.6,10.8,28.2,50,,,0,264.1,0.01,8.3,191,184,0.01,0.01,47.1,9.8
3/30/2021 4:50,51.77,0,-0.53,127.1,14.02,3,2.1,3.6,10.9,28.2,50,,,0,264,0.01,6.4,190,190,0.01,0.01,47.1,9.8
3/30/2021 5:00,51.65,0,-0.77,127.2,14.05,3,2,3.6,10.8,28.2,49.82,,,0,264,0.01,6.4,190,190,0.01,0.01,47.1,9.8
3/30/2021 5:10,51.47,0,-1.32,127.2,14.09,3,2,3.6,10.9,28.2,49.28,,,0,263.3,0.01,6.5,182,189,0.01,0.01,47.1,9.9
3/30/2021 5:20,51.26,0,-1.52,127.2,14.13,3,2.1,3.7,10.9,28.2,48.92,,,0,263.3,0.01,6.5,182,189,0.01,0.01,47.1,9.9
3/30/2021 5:30,51.02,0,-2.67,127.2,14.17,3,2,3.6,10.8,28.2,48.56,,,0,263.6,0.01,15.8,246,223,0.01,0.01,47.1,9.8
3/30/2021 5:40,50.84,0,-2.85,127.2,14.2,3,2.1,3.7,10.9,28.2,48.92,,,1,263.6,0.01,15.8,246,223,0.01,0.01,47.1,9.8
3/30/2021 5:50,50.71,0,-2.92,127.3,14.23,3,2.1,3.6,10.8,28.2,49.1,,,0,263.8,0.01,6.7,188,165,0.01,0.01,47.2,9.9
3/30/2021 6:00,50.56,0,-2.99,127.3,14.26,3,2.1,3.7,11,28.2,49.1,,,0,263.8,0.01,6.7,188,165,0.01,0.01,47.2,9.9
3/30/2021 6:10,50.41,0,-3.39,127.3,14.3,3,2.1,3.7,10.9,28.2,48.74,,,0,263.4,0.01,12.4,176,186,0.01,0.01,47.1,9.8
3/30/2021 6:20,50.25,0,-3.88,127.3,14.32,3,2.1,3.7,11,28.2,48.38,,,1,263.4,0.01,12.4,176,186,0.01,0.01,47.1,9.8
3/30/2021 6:30,50.06,0,-5.01,127.3,14.36,3,2.1,3.7,10.9,28.2,48.2,,,0,262.8,0.01,8.6,179,172,0.01,0.01,47.1,9.8
3/30/2021 6:40,49.92,0,-4.33,127.3,14.39,3,2.1,3.6,10.8,28.2,48.2,,,1,262.8,0.01,8.6,179,172,0.01,0.01,47.1,9.8
3/30/2021 6:50,49.85,0,-5.02,127.4,14.41,3,2.1,3.6,10.9,28.3,48.56,,,1,263.4,0.01,8.4,179,179,0.01,0.01,47.1,9.9
3/30/2021 7:00,49.8,0,-5.02,127.4,14.42,3,2.1,3.7,11,28.3,48.38,,,1,263.4,0.01,8.4,179,179,0.01,0.01,47.1,9.9
3/30/2021 7:10,49.75,0,-5.02,127.5,14.44,3.1,2.1,3.7,11,28.3,48.2,,,0,263.4,0.01,15.8,168,168,0.01,0.01,47.2,9.9
3/30/2021 7:20,49.66,0,-5.01,127.4,14.45,3,2.1,3.7,11,28.3,47.84,,,1,263.4,0.01,15.8,168,168,0.01,0.01,47.2,9.9
3/30/2021 7:30,49.53,0,-4.23,127.5,14.48,3,2.1,3.7,11,28.3,47.66,,,1,263.3,0.01,7,184,189,0.01,0.01,47.1,9.9
3/30/2021 7:40,49.45,0,-5.03,127.5,14.49,3.1,2.1,3.7,11,28.3,48.02,,,1,263.3,0.01,7,184,189,0.01,0.01,47.1,9.9
3/30/2021 7:50,49.43,0,-4.31,127.5,14.5,3,2.1,3.7,11,28.3,48.2,,,1,263.5,0.01,7.8,190,182,0.01,0.01,47.2,9.9
3/30/2021 8:00,49.39,0,-4.34,127.5,14.51,3,2.1,3.7,10.9,28.3,48.2,,,2,263.5,0.01,7.8,190,182,0.01,0.01,47.2,9.9
3/30/2021 8:10,49.34,0,-3.62,127.5,14.52,3,2.1,3.7,11,28.3,47.84,,,2,263.1,0.01,7.1,175,172,0.01,0.01,47.2,9.8
3/30/2021 8:20,49.3,0,-5.03,127.5,14.53,3,2.1,3.7,11,28.3,47.66,,,2,263.1,0.01,7.1,175,172,0.01,0.01,47.2,9.8
3/30/2021 8:30,49.26,0,-5.03,127.6,14.54,3,2.1,3.7,11.1,28.3,47.66,,,1,263,0.01,17.1,97,123,0.01,0.01,47.2,9.8
3/30/2021 8:40,49.28,0,-5.03,127.6,14.54,3,2.1,3.7,11,28.3,48.2,,,2,263,0.01,17.1,97,123,0.01,0.01,47.2,9.8
3/30/2021 8:50,49.34,0,-5.03,127.6,14.53,3,2.1,3.7,11,28.3,48.2,,,3,263,0.01,11.4,173,176,0.01,0.01,47.1,9.9
3/30/2021 9:00,49.41,0,-5.01,127.6,14.51,3,2.1,3.7,11,28.3,48.2,,,4,263,0.01,11.4,173,176,0.01,0.01,47.1,9.9
3/30/2021 9:10,49.54,0,-5.03,127.6,14.49,3,2.1,3.6,10.9,28.3,48.38,,,4,263.8,0.01,16.9,5,9,0.02,0.01,47.1,9.9
3/30/2021 9:20,49.69,0,-5.02,127.5,14.45,3,2.1,3.7,10.9,28.3,48.38,,,3,263.8,0.01,16.9,5,9,0.02,0.01,47.1,9.9
3/30/2021 9:30,49.84,0,-2.21,127.5,14.43,3,2.1,3.7,10.9,28.3,48.74,,,4,263.3,0.01,7.6,187,190,0.01,0.01,47.2,9.9
3/30/2021 9:40,50,0,-3.8,127.5,14.4,3,2.1,3.7,10.9,28.3,48.92,,,6,263.6,0.01,7.6,187,190,0.01,0.01,47.2,9.9
3/30/2021 9:50,50.22,0,-5.01,127.6,14.36,3,2.1,3.7,11,28.3,49.28,,,7,264.1,0.01,16.7,175,177,0.01,0.01,42.2,8.8
3/30/2021 10:00,50.44,0,-5,127.5,14.31,3.1,2.1,3.7,10.9,28.3,49.46,,,5,263.8,0.01,16.7,175,177,0.01,0.01,47.1,9.9
3/30/2021 10:10,50.6,0,-4.08,127.5,14.28,3,2.1,3.6,10.9,28.3,49.46,,,6,263.8,0.01,16.7,175,177,0.01,0.01,47.1,9.9
3/30/2021 10:20,50.76,0,-5,127.5,14.25,3,2.1,3.7,11,28.3,49.64,,,8,263.1,0.01,17.1,181,181,0.02,0.01,47.2,9.9
3/30/2021 10:30,50.96,0,-4.99,127.5,14.21,3,2.1,3.7,10.9,28.3,50,,,7,263.1,0.01,17.1,181,181,0.02,0.01,47.2,9.9
3/30/2021 10:40,51.17,0,-4.99,127.5,14.17,3,2,3.7,11,28.3,50.18,,,6,263.3,0.01,7.7,192,194,0.01,0.01,47.1,9.9
3/30/2021 10:50,51.39,0,-2.16,127.5,14.13,3,2.1,3.6,10.9,28.3,50.36,,,9,263.3,0.01,7.7,192,194,0.01,0.01,47.1,9.9
3/30/2021 11:00,51.59,0,-4.98,127.4,14.09,3,2.1,3.7,11,28.3,50.54,,,9,264.4,0.01,10.2,167,181,0.01,0.01,47.1,9.8
3/30/2021 11:10,51.8,0,-4.97,127.4,14.05,3,2.1,3.6,10.9,28.3,50.54,,,10,264.4,0.01,10.2,167,181,0.01,0.01,47.1,9.8
3/30/2021 11:20,51.98,0,-4.95,127.4,14.01,3,2.1,3.7,11,28.3,50.72,,,7,263.6,0.01,7.1,183,184,0.01,0.01,47.2,9.9
3/30/2021 11:30,52.13,0,-4.96,127.3,13.98,3,2,3.6,10.9,28.3,50.72,,,11,263.6,0.01,7.1,183,184,0.01,0.01,47.2,9.9
3/30/2021 11:40,52.27,0,-4.96,127.3,13.96,3,2,3.7,11,28.3,50.9,,,8,262.8,0.01,16,180,178,0.01,0.01,47.2,9.9
3/30/2021 11:50,52.5,0,-4.96,127.3,13.91,3,2,3.6,10.8,28.3,51.26,,,9,262.8,0.01,16,180,178,0.01,0.01,47.2,9.9
3/30/2021 12:00,52.77,0,-3.83,127.3,13.86,3,2,3.6,10.8,28.3,51.62,,,9,262.9,0.01,12.5,187,176,0.01,0.01,47.2,9.9
3/30/2021 12:10,53.02,0,-4.94,127.3,13.82,3,2.1,3.6,10.8,28.3,51.62,,,9,262.9,0.01,12.5,187,176,0.01,0.01,47.2,9.9
3/30/2021 12:20,53.22,0,-4.94,127.3,13.79,3,2,3.7,10.9,28.3,51.8,,,8,263.3,0.01,15.2,193,190,0.01,0.01,47.1,9.8
3/30/2021 12:30,53.37,0,-4.94,127.3,13.76,3,2.1,3.6,10.9,28.4,51.98,,,9,263.3,0.01,15.2,193,190,0.01,0.01,47.1,9.8
3/30/2021 12:40,53.49,0,-3.09,127.3,13.74,3,2.1,3.6,10.9,28.4,51.98,,,8,263.3,0.01,7.3,181,170,0.01,0.01,47.2,9.9
3/30/2021 12:50,,,,,,,,,,28.3,51.98,,,10,263.3,0.01,7.3,181,170,0.01,0.01,47.2,9.8
3/30/2021 13:00,,,,,,,,,,28.4,51.98,,,9,264.4,0.01,16.4,202,195,0.02,0.02,47.1,9.8
3/30/2021 13:10,,,,,,,,,,28.4,51.98,,,9,264.4,0.01,16.4,202,195,0.02,0.02,47.1,9.8
3/30/2021 13:20,,,,,,,,,,28.4,51.98,,,7,262.8,0,6.9,196,185,0.01,0.01,47.1,9.8
3/30/2021 13:30,,,,,,,,,,28.3,51.98,,,7,262.8,0,6.9,196,185,0.01,0.01,47.1,9.8
3/30/2021 13:40,,,,,,,,,,28.4,51.8,,,7,263.3,0.01,12.6,192,175,0.01,0.01,47.1,9.8
3/30/2021 13:50,,,,,,,,,,28.3,51.8,,,8,263.3,0.01,12.6,192,175,0.01,0.01,47.1,9.8
3/30/2021 14:00,,,,,,,,,,28.4,52.16,,,8,263.6,0.01,13.2,167,182,0.01,0.01,47.1,9.9
3/30/2021 14:10,,,,,,,,,,28.4,51.98,,,7,263.6,0.01,13.2,167,182,0.01,0.01,47.1,9.9
3/30/2021 14:20,,,,,,,,,,28.4,52.16,,,6,263.5,0.01,7.6,185,182,0.01,0.01,47.1,9.9
3/30/2021 14:30,,,,,,,,,,28.4,52.16,,,5,263.5,0.01,7.6,185,182,0.01,0.01,47.1,9.8
3/30/2021 14:40,,,,,,,,,,28.4,52.16,,,6,263.4,0.01,7.3,195,190,0.01,0.01,47.1,9.8
3/30/2021 14:50,,,,,,,,,,28.4,52.34,,,5,263.4,0.01,7.3,195,190,0.01,0.01,47.1,9.8
3/30/2021 15:00,,,,,,,,,,28.4,52.34,,,6,263.5,0.01,12.9,5,170,0.01,0.01,47.1,9.9
3/30/2021 15:10,,,,,,,,,,28.4,52.52,,,6,263.5,0.01,12.9,5,170,0.01,0.01,47.1,9.9
3/30/2021 15:20,,,,,,,,,,28.4,52.52,,,5,263.9,0.01,17.1,232,206,0.01,0.01,47.1,9.9
3/30/2021 15:30,,,,,,,,,,28.4,52.34,,,5,263.9,0.01,17.1,232,206,0.01,0.01,47.1,9.9
3/30/2021 15:40,,,,,,,,,,28.4,52.34,,,5,263,0.01,12.5,182,189,0.01,0.01,47.1,9.8
3/30/2021 15:50,,,,,,,,,,28.4,52.16,,,5,263,0.01,12.5,182,189,0.01,0.01,47.1,9.8
3/30/2021 16:00,,,,,,,,,,28.4,51.98,,,5,263.1,0.01,7.6,182,155,0.01,0.01,47.1,9.9
3/30/2021 16:10,,,,,,,,,,28.4,51.98,,,5,263.1,0.01,7.6,182,155,0.01,0.01,47.1,9.9
3/30/2021 16:20,,,,,,,,,,28.4,52.16,,,4,263.6,0,7,182,182,0.01,0.01,47.1,9.8
3/30/2021 16:30,,,,,,,,,,28.4,52.34,,,4,263.6,0,7,182,182,0.01,0.01,47.1,9.8
3/30/2021 16:40,,,,,,,,,,28.4,52.34,,,4,263.5,0.01,7.5,185,185,0.01,0.01,47.1,9.9
3/30/2021 16:50,,,,,,,,,,28.4,52.16,,,4,263.5,0.01,7.5,185,185,0.01,0.01,47.1,9.9
3/30/2021 17:00,,,,,,,,,,28.4,52.16,,,5,263.6,0.01,14,170,181,0.01,0.01,47.1,9.8
3/30/2021 17:10,,,,,,,,,,28.4,51.62,,,3,263.6,0.01,14,170,181,0.01,0.01,47.1,9.8
3/30/2021 17:20,,,,,,,,,,28.4,51.62,,,2,263.1,0.01,9.8,165,177,0.01,0.01,47.1,9.8
3/30/2021 17:30,,,,,,,,,,28.4,51.62,,,3,263.1,0.01,9.8,165,177,0.01,0.01,47.1,9.8
3/30/2021 17:40,,,,,,,,,,28.4,51.44,,,2,263.9,0.01,6.9,183,175,0.01,0.01,47.1,9.8
3/30/2021 17:50,,,,,,,,,,28.4,51.44,,,2,263.9,0.01,6.9,183,175,0.01,0.01,47.1,9.8
3/30/2021 18:00,,,,,,,,,,28.4,51.44,,,2,262.8,0.01,8.6,178,159,0.01,0.01,47.1,9.8
3/30/2021 18:10,,,,,,,,,,28.4,51.44,,,2,262.8,0.01,8.6,178,159,0.01,0.01,47.1,9.8
3/30/2021 18:20,,,,,,,,,,28.4,51.44,,,1,263.4,0.01,16.9,4,359,0.02,0.01,47.1,9.8
3/30/2021 18:30,,,,,,,,,,28.4,51.08,,,2,263.4,0.01,16.9,4,359,0.02,0.01,47.1,9.8
3/30/2021 18:40,,,,,,,,,,28.4,50.72,,,1,263.6,0.01,16.9,4,12,0.01,0.01,47.1,9.8
3/30/2021 18:50,,,,,,,,,,28.4,50.36,,,2,263.6,0.01,16.9,4,12,0.01,0.01,47.1,9.8
3/30/2021 19:00,,,,,,,,,,28.4,50.36,,,1,264.1,0,6.5,188,183,0.01,0.01,47.1,9.8
3/30/2021 19:10,,,,,,,,,,28.4,50.36,,,1,264.1,0,6.5,188,183,0.01,0.01,47.1,9.8
3/30/2021 19:20,,,,,,,,,,28.4,50.36,,,1,263.1,0.01,7.8,182,190,0.01,0.01,47.1,9.8
3/30/2021 19:30,,,,,,,,,,28.5,50,,,1,263.1,0.01,7.8,182,190,0.01,0.01,47.1,9.8
3/30/2021 19:40,,,,,,,,,,28.5,49.82,,,1,262.7,0.01,13.8,176,48,0.01,0.01,47.2,9.9
3/30/2021 19:50,,,,,,,,,,28.5,49.28,,,1,262.7,0.01,13.8,176,48,0.01,0.01,47.1,9.9
3/30/2021 20:00,,,,,,,,,,28.5,48.92,,,1,262.8,0.01,6.7,184,186,0.01,0.01,47.2,9.8
3/30/2021 20:10,,,,,,,,,,28.5,49.1,,,0,262.8,0.01,6.7,184,186,0.01,0.01,47.2,9.8
3/30/2021 20:20,,,,,,,,,,28.5,49.28,,,1,264.4,0.01,12.9,322,183,0.01,0.01,47.2,9.8
3/30/2021 20:30,,,,,,,,,,28.5,49.1,,,1,264.4,0.01,12.9,322,183,0.01,0.01,47.2,9.8
3/30/2021 20:40,,,,,,,,,,28.5,48.92,,,0,262.8,0.01,7.6,196,174,0.01,0.01,47.1,9.9
3/30/2021 20:50,,,,,,,,,,28.5,48.38,,,0,262.8,0.01,7.6,196,174,0.01,0.01,47.1,9.9
3/30/2021 21:00,,,,,,,,,,28.5,48.2,,,1,263.4,0.01,7.8,185,185,0.01,0.01,47.1,9.8
3/30/2021 21:10,,,,,,,,,,28.5,48.2,,,0,263.4,0.01,7.8,185,185,0.01,0.01,47.1,9.8
3/30/2021 21:20,,,,,,,,,,28.5,48.2,,,0,263.3,0.01,13.6,198,185,0.01,0.01,47.1,9.8
3/30/2021 21:30,,,,,,,,,,28.5,48.2,,,0,263.3,0.01,13.6,198,185,0.01,0.01,47.1,9.9
3/30/2021 21:40,,,,,,,,,,28.5,47.84,,,1,263,0,7.3,179,178,0.01,0.01,47.3,9.9
3/30/2021 21:50,,,,,,,,,,28.5,47.48,,,1,263,0,7.3,179,178,0.01,0.01,47.3,9.9
3/30/2021 22:00,,,,,,,,,,28.5,47.12,,,0,263.1,0.01,8,178,180,0.01,0.01,47.3,9.8
3/30/2021 22:10,,,,,,,,,,28.5,47.3,,,0,263.1,0.01,8,178,180,0.01,0.01,47.3,9.8
3/30/2021 22:20,,,,,,,,,,28.5,47.3,,,1,262.6,0.01,6.2,181,184,0.01,0.01,47.1,9.9
3/30/2021 22:30,,,,,,,,,,28.5,46.94,,,1,262.6,0.01,6.2,181,184,0.01,0.01,47.1,9.9
3/30/2021 22:40,,,,,,,,,,28.5,46.76,,,0,262.8,0.01,7.1,175,182,0.01,0.01,47.3,9.9
3/30/2021 22:50,,,,,,,,,,28.5,46.58,,,1,262.8,0.01,7.1,175,182,0.01,0.01,47.3,9.9
3/30/2021 23:00,,,,,,,,,,28.5,46.58,,,1,262.5,0.01,6.7,169,180,0.01,0.01,47.2,9.9
3/30/2021 23:10,,,,,,,,,,28.6,46.58,,,1,262.5,0.01,6.7,169,180,0.01,0.01,47.2,9.9
3/30/2021 23:20,,,,,,,,,,28.6,46.4,,,1,263.6,0.01,7.5,173,176,0.01,0.01,47.2,10
3/30/2021 23:30,,,,,,,,,,28.6,46.4,,,0,263.6,0.01,7.5,173,176,0.01,0.01,47.2,10
3/30/2021 23:40,,,,,,,,,,28.6,46.04,,,1,263.3,0.01,6.5,184,203,0.01,0.01,47.2,9.9
3/30/2021 23:50,,,,,,,,,,28.6,46.04,,,1,263.3,0.01,6.5,184,203,0.01,0.01,47.2,9.9
3/31/2021 0:00,,,,,,,,,,28.6,46.22,,,0,262.8,0.01,10.9,215,193,0.01,0.01,47.2,10.1
3/31/2021 0:10,,,,,,,,,,28.6,46.22,,,1,262.8,0.01,10.9,215,193,0.01,0.01,47.2,10.1
3/31/2021 0:20,,,,,,,,,,28.6,46.04,,,0,262.6,0.01,7.2,175,178,0.01,0.01,47.1,10
3/31/2021 0:30,,,,,,,,,,28.6,45.86,,,1,262.6,0.01,7.2,175,178,0.01,0.01,47.1,10
3/31/2021 0:40,,,,,,,,,,28.6,45.86,,,1,262.9,0.01,6.7,175,177,0.01,0.01,47.2,10.1
3/31/2021 0:50,,,,,,,,,,28.6,45.86,,,0,262.9,0.01,6.7,175,177,0.01,0.01,47.2,10.1
3/31/2021 1:00,,,,,,,,,,28.6,45.68,,,0,263.7,0.01,7.6,173,170,0.01,0.01,47.2,9.9
3/31/2021 1:10,,,,,,,,,,28.6,45.32,,,1,263.7,0.01,7.6,173,170,0.01,0.01,47.2,9.9
3/31/2021 1:20,,,,,,,,,,28.6,45.14,,,1,263.4,0.01,7.5,189,182,0.01,0.01,47.2,10.1
3/31/2021 1:30,,,,,,,,,,28.6,45.14,,,0,263.4,0.01,7.5,189,182,0.01,0.01,47.2,10.1
3/31/2021 1:40,,,,,,,,,,28.6,45.32,,,1,263.4,0,6.5,179,180,0.01,0.01,47.2,9.9
3/31/2021 1:50,,,,,,,,,,28.6,45.14,,,1,263.4,0,6.5,179,180,0.01,0.01,47.2,9.9
3/31/2021 2:00,,,,,,,,,,28.6,44.96,,,1,0,0,6.9,185,183,0.01,0.01,47.2,9.9
3/31/2021 2:10,,,,,,,,,,28.6,44.78,,,1,359.9,0,6.9,185,183,0.01,0.01,47.2,10
3/31/2021 2:20,,,,,,,,,,28.6,44.96,,,1,264.3,0.01,6.9,266,270,0.01,0.01,47.2,10
3/31/2021 2:30,,,,,,,,,,28.6,44.78,,,1,264.3,0.01,6.9,266,270,0.01,0.01,47.2,10
3/31/2021 2:40,,,,,,,,,,28.6,44.6,,,1,263.9,0.01,11.9,195,187,0.01,0.01,47.3,10.1
3/31/2021 2:50,,,,,,,,,,28.6,44.24,,,1,263.9,0.01,11.9,195,187,0.01,0.01,47.3,10.1
3/31/2021 3:00,,,,,,,,,,28.6,44.42,,,0,0,0.01,15.2,195,44,0.01,0.01,47.1,10.1
3/31/2021 3:10,,,,,,,,,,28.6,44.6,,,1,0,0.01,15.2,195,44,0.01,0.01,47.1,10.1
3/31/2021 3:20,,,,,,,,,,28.6,44.42,,,1,359.9,0.01,8.1,277,276,0.01,0.01,47.2,10
3/31/2021 3:30,,,,,,,,,,28.6,44.42,,,1,359.9,0.01,8.1,277,276,0.01,0.01,47.2,10
3/31/2021 3:40,,,,,,,,,,28.6,44.06,,,1,0,0.01,6.9,277,279,0.01,0.01,47.2,10.1
3/31/2021 3:50,,,,,,,,,,28.6,44.06,,,2,0,0.01,6.9,277,279,0.01,0.01,47.2,10.1
3/31/2021 4:00,,,,,,,,,,28.6,44.24,,,1,359.9,0.01,7.1,293,281,0.01,0.01,47.2,9.9
3/31/2021 4:10,,,,,,,,,,28.6,44.06,,,1,359.9,0.01,7.1,293,281,0.01,0.01,47.2,9.9
3/31/2021 4:20,,,,,,,,,,28.6,43.88,,,1,0,0.01,7.5,278,278,0.01,0.01,47.1,10.1
3/31/2021 4:30,,,,,,,,,,28.6,44.06,,,1,0,0.01,7.5,278,278,0.01,0.01,47.1,10.1
3/31/2021 4:40,,,,,,,,,,28.6,44.06,,,1,0,0.01,9.2,279,276,0.01,0.01,47.2,10.1
3/31/2021 4:50,,,,,,,,,,28.6,44.06,,,1,0,0.01,9.2,279,276,0.01,0.01,47.2,10.1
3/31/2021 5:00,,,,,,,,,,28.6,43.7,,,1,0,0.01,8.6,285,283,0.01,0.01,47.3,10.1
3/31/2021 5:10,,,,,,,,,,28.6,43.52,,,0,0,0.01,8.6,285,283,0.01,0.01,47.3,10.1
3/31/2021 5:20,,,,,,,,,,28.7,43.7,,,1,359.9,0.01,6.8,283,278,0.01,0.01,47.2,10.1
3/31/2021 5:30,,,,,,,,,,28.7,43.7,,,1,359.9,0.01,6.8,283,278,0.01,0.01,47.2,10.1
3/31/2021 5:40,,,,,,,,,,28.7,43.52,,,1,0,0.01,7.5,278,274,0.01,0.01,47.2,10.1
3/31/2021 5:50,,,,,,,,,,28.7,43.34,,,1,359.9,0.01,7.5,278,274,0.01,0.01,47.2,10.1
3/31/2021 6:00,,,,,,,,,,28.7,43.16,,,1,0,0.01,7.4,278,282,0.01,0.01,47.1,10.1
3/31/2021 6:10,,,,,,,,,,28.7,43.52,,,0,0,0.01,7.4,278,282,0.01,0.01,47.1,10.1
3/31/2021 6:20,,,,,,,,,,28.7,43.16,,,0,0,0.01,14.6,266,262,0.02,0.01,47.1,10.1
3/31/2021 6:30,,,,,,,,,,28.7,42.98,,,1,0,0.01,14.6,266,262,0.02,0.01,47.1,10.1
3/31/2021 6:40,,,,,,,,,,28.7,42.98,,,1,360,0.01,7,284,280,0.01,0.01,47.1,10.1
3/31/2021 6:50,,,,,,,,,,28.7,43.16,,,1,0,0.01,7,284,280,0.01,0.01,47.1,10.1
3/31/2021 7:00,,,,,,,,,,28.7,43.16,,,1,0,0.01,6.5,279,278,0.01,0.01,47.2,10.1
3/31/2021 7:10,,,,,,,,,,28.7,42.98,,,1,0,0.01,6.5,279,278,0.01,0.01,47.2,10.1
3/31/2021 7:20,,,,,,,,,,28.7,42.8,,,2,359.9,0.01,7,279,279,0.01,0.01,47.2,10.1
3/31/2021 7:30,,,,,,,,,,28.7,42.8,,,2,0,0.01,7,279,279,0.01,0.01,47.2,10.1
3/31/2021 7:40,,,,,,,,,,28.7,43.16,,,2,0,0.01,6.9,279,276,0.01,0.01,47.1,10.1
3/31/2021 7:50,,,,,,,,,,28.7,42.98,,,1,0,0.01,6.9,279,276,0.01,0.01,47.1,10.1
3/31/2021 8:00,,,,,,,,,,28.7,42.8,,,2,359.9,0.01,8.1,269,278,0.01,0.01,47.2,10.1
3/31/2021 8:10,,,,,,,,,,28.7,42.98,,,2,359.9,0.01,8.1,269,278,0.01,0.01,47.2,10.1
3/31/2021 8:20,,,,,,,,,,28.7,43.34,,,2,359.9,0.01,8.9,281,279,0.01,0.01,47.1,10.1
3/31/2021 8:30,,,,,,,,,,28.7,43.7,,,2,359.9,0.01,8.9,281,279,0.01,0.01,47.1,10.1
3/31/2021 8:40,,,,,,,,,,28.7,43.88,,,3,0,0.01,8,121,278,0.01,0.01,47.1,10.3
3/31/2021 8:50,,,,,,,,,,28.7,44.06,,,4,0,0.01,8,121,278,0.01,0.01,47.1,10.3
3/31/2021 9:00,,,,,,,,,,28.7,44.42,,,6,359.9,0.01,6.7,281,280,0.01,0.01,47.1,10.1
3/31/2021 9:10,,,,,,,,,,28.7,44.78,,,6,0,0.01,6.7,281,280,0.01,0.01,47.1,10.1
3/31/2021 9:20,,,,,,,,,,28.7,45.14,,,4,0,0.01,14.5,228,263,0.01,0.01,47.2,10.1
3/31/2021 9:30,,,,,,,,,,28.7,45.32,,,7,0,0.01,14.5,228,263,0.01,0.01,47.2,10.1
3/31/2021 9:40,,,,,,,,,,28.7,44.78,,,4,0.2,0.01,10.4,278,285,0.01,0.01,47.3,10.3
3/31/2021 9:50,,,,,,,,,,28.7,45.32,,,8,0.2,0.01,10.4,278,285,0.01,0.01,47.3,10.3
3/31/2021 10:00,,,,,,,,,,28.7,45.86,,,7,263.4,0.01,13.8,98,290,0.02,0.01,47.2,10.1
3/31/2021 10:10,,,,,,,,,,28.8,46.04,,,6,263.4,0.01,13.8,98,290,0.02,0.01,47.2,10.1
3/31/2021 10:20,,,,,,,,,,28.8,46.4,,,8,264.1,0.01,6.9,180,180,0.01,0.01,47.3,10.1
3/31/2021 10:30,,,,,,,,,,28.8,46.4,,,10,264.1,0.01,6.9,180,180,0.01,0.01,47.3,10.1
3/31/2021 10:40,,,,,,,,,,28.8,46.94,,,11,262.8,0.01,6.9,184,183,0.01,0.01,47.2,10.1
3/31/2021 10:50,,,,,,,,,,28.8,47.48,,,12,262.8,0.01,6.9,184,183,0.01,0.01,47.2,10.1
3/31/2021 11:00,,,,,,,,,,28.8,47.84,,,13,262.9,0,6.9,182,180,0.01,0.01,47.2,10.1
3/31/2021 11:10,,,,,,,,,,28.8,48.2,,,11,262.9,0,6.9,182,180,0.01,0.01,47.2,10.1
3/31/2021 11:20,,,,,,,,,,28.8,48.2,,,13,263.1,0.01,8.3,177,176,0.01,0.01,47.3,10
3/31/2021 11:30,,,,,,,,,,28.8,48.56,,,14,263.1,0.01,8.3,177,176,0.01,0.01,47.3,10
3/31/2021 11:40,,,,,,,,,,28.8,48.74,,,15,262.6,0.01,7.9,177,181,0.01,0.01,47.2,10.1
3/31/2021 11:50,,,,,,,,,,28.8,48.92,,,13,262.6,0.01,7.9,177,181,0.01,0.01,47.2,10.1
3/31/2021 12:00,,,,,,,,,,28.8,48.92,,,12,262.8,0.01,7.3,178,342,0.01,0.01,47.2,10.1
3/31/2021 12:10,,,,,,,,,,28.8,48.2,,,16,262.8,0.01,7.3,178,342,0.01,0.01,47.2,10.1
3/31/2021 12:20,,,,,,,,,,28.8,46.58,,,10,265.7,0.01,12.2,21,358,0.01,0.01,47.2,9.8
3/31/2021 12:30,,,,,,,,,,28.8,48.2,,,10,265.7,0.01,12.2,21,358,0.01,0.01,47.2,9.8
3/31/2021 12:40,,,,,,,,,,28.8,49.28,,,6,266.5,0.01,7.8,191,191,0.01,0.01,47.1,10.1
3/31/2021 12:50,,,,,,,,,,28.8,50,,,6,266.5,0.01,7.8,191,191,0.01,0.01,47.1,10.1
3/31/2021 13:00,,,,,,,,,,28.8,50.54,,,5,266.5,0.01,6.6,182,183,0.01,0.01,47.3,10
3/31/2021 13:10,,,,,,,,,,28.8,51.08,,,6,266.5,0.01,6.6,182,183,0.01,0.01,47.3,10
3/31/2021 13:20,,,,,,,,,,28.8,51.62,,,8,267.5,0,6.6,181,187,0.01,0.01,47.3,10
3/31/2021 13:30,,,,,,,,,,28.8,52.16,,,6,267.5,0,6.6,181,187,0.01,0.01,47.3,10
3/31/2021 13:40,,,,,,,,,,28.8,52.7,,,7,268.1,0,6.7,180,184,0.01,0.01,47.3,9.8
3/31/2021 13:50,,,,,,,,,,28.8,53.06,,,5,268.1,0,6.7,180,184,0.01,0.01,47.3,9.8
3/31/2021 14:00,,,,,,,,,,28.8,53.06,,,7,267.6,0.01,10.1,202,193,0.01,0.01,47.2,10
3/31/2021 14:10,,,,,,,,,,28.8,53.42,,,7,267.6,0.01,10.1,202,193,0.01,0.01,47.2,10
3/31/2021 14:20,,,,,,,,,,28.8,53.6,,,5,267.8,0.01,12.6,0,192,0.01,0.01,47.1,9.9
3/31/2021 14:30,,,,,,,,,,28.8,53.78,,,7,267.8,0.01,12.6,0,192,0.01,0.01,47.1,9.9
3/31/2021 14:40,,,,,,,,,,28.8,54.32,,,4,267.6,0.01,12.1,184,184,0.01,0.01,47.1,9.9
3/31/2021 14:50,,,,,,,,,,28.8,54.5,,,6,267.6,0.01,12.1,184,184,0.01,0.01,47.1,9.9
3/31/2021 15:00,,,,,,,,,,28.8,54.5,,,4,267.8,0.01,16.7,172,169,0.02,0.02,47.1,9.8
3/31/2021 15:10,,,,,,,,,,28.8,54.5,,,4,267.8,0.01,16.7,172,169,0.02,0.02,47.1,9.8
3/31/2021 15:20,,,,,,,,,,28.8,54.5,,,5,267.8,0.01,7.1,168,123,0.01,0.01,47.1,9.8
3/31/2021 15:30,,,,,,,,,,28.8,54.5,,,4,267.8,0.01,7.1,168,123,0.01,0.01,47.1,9.8
3/31/2021 15:40,,,,,,,,,,28.8,54.32,,,4,267.3,0.01,8.2,184,179,0.01,0.01,47.1,9.9
3/31/2021 15:50,,,,,,,,,,28.8,54.32,,,2,267.3,0.01,8.2,184,179,0.01,0.01,47.1,9.9
3/31/2021 16:00,,,,,,,,,,28.8,54.14,,,3,268.2,0.01,10.7,171,202,0.01,0.01,47.1,9.8
3/31/2021 16:10,,,,,,,,,,28.8,54.14,,,3,268.2,0.01,10.7,171,202,0.01,0.01,47.1,9.8
3/31/2021 16:20,,,,,,,,,,28.8,54.14,,,2,267.7,0.01,8.8,173,166,0.01,0.01,47.1,9.9
3/31/2021 16:30,,,,,,,,,,28.8,53.96,,,2,267.7,0.01,8.8,173,166,0.01,0.01,47.1,9.9
3/31/2021 16:40,,,,,,,,,,28.8,53.78,,,2,268.1,0.01,6.7,181,170,0.01,0.01,47.1,9.8
3/31/2021 16:50,,,,,,,,,,28.8,53.78,,,3,268.1,0.01,6.7,181,170,0.01,0.01,47.1,9.8
3/31/2021 17:00,,,,,,,,,,28.8,54.14,,,2,269.1,0.01,6.6,184,191,0.01,0.01,47.3,9.7
3/31/2021 17:10,,,,,,,,,,28.8,54.32,,,3,269.1,0.01,6.6,184,191,0.01,0.01,47.2,9.7
3/31/2021 17:20,,,,,,,,,,28.8,54.32,,,2,267.5,0.01,17.1,352,192,0.01,0.01,47.1,9.9
3/31/2021 17:30,,,,,,,,,,28.8,54.32,,,2,267.5,0.01,17.1,352,192,0.01,0.01,47.1,9.9
3/31/2021 17:40,,,,,,,,,,28.8,54.14,,,2,268.6,0.01,8.6,200,185,0.01,0.01,47.2,9.8
3/31/2021 17:50,,,,,,,,,,28.8,53.78,,,1,268.6,0.01,8.6,200,185,0.01,0.01,47.2,9.8
3/31/2021 18:00,,,,,,,,,,28.8,53.78,,,1,267.9,0,6.8,186,188,0.01,0.01,47.2,9.8
3/31/2021 18:10,,,,,,,,,,28.8,53.96,,,1,267.9,0,6.8,186,188,0.01,0.01,47.2,9.8
3/31/2021 18:20,,,,,,,,,,28.8,53.78,,,2,268.3,0,6.9,183,181,0.01,0.01,47.2,9.8
3/31/2021 18:30,,,,,,,,,,28.8,53.6,,,2,268.3,0,6.9,183,181,0.01,0.01,47.2,9.8
3/31/2021 18:40,,,,,,,,,,28.8,53.42,,,1,268.1,0.01,7,193,186,0.01,0.01,47.2,9.8
3/31/2021 18:50,,,,,,,,,,28.8,53.06,,,1,268.1,0.01,7,193,186,0.01,0.01,47.2,9.8
3/31/2021 19:00,,,,,,,,,,28.8,53.24,,,1,268.2,0.01,7.7,189,184,0.01,0.01,47.2,9.8
3/31/2021 19:10,,,,,,,,,,28.8,53.06,,,0,268.2,0.01,7.7,189,184,0.01,0.01,47.2,9.8
3/31/2021 19:20,,,,,,,,,,28.8,53.06,,,1,268.5,0,6.7,195,190,0.01,0.01,47.2,9.8
3/31/2021 19:30,,,,,,,,,,28.8,52.7,,,0,268.5,0,6.7,195,190,0.01,0.01,47.2,9.8
3/31/2021 19:40,,,,,,,,,,28.8,52.52,,,0,267.9,0.01,7.8,191,184,0.01,0.01,47.1,9.8
3/31/2021 19:50,,,,,,,,,,28.9,52.52,,,1,267.9,0.01,7.8,191,184,0.01,0.01,47.1,9.8
3/31/2021 20:00,,,,,,,,,,28.9,52.34,,,0,268,0.01,11.5,355,183,0.01,0.01,47.2,9.9
3/31/2021 20:10,,,,,,,,,,28.9,51.98,,,1,268,0.01,11.5,355,183,0.01,0.01,47.2,9.8
3/31/2021 20:20,,,,,,,,,,28.9,51.8,,,0,268.3,0.01,6.6,191,192,0.01,0.01,47.2,9.8
3/31/2021 20:30,,,,,,,,,,28.9,51.8,,,0,268.3,0.01,6.6,191,192,0.01,0.01,47.2,9.8
3/31/2021 20:40,,,,,,,,,,28.9,51.8,,,0,267.9,0,6.5,188,187,0.01,0.01,47.1,9.8
3/31/2021 20:50,,,,,,,,,,28.9,51.62,,,0,267.9,0,6.5,188,187,0.01,0.01,47.1,9.8
3/31/2021 21:00,,,,,,,,,,28.9,51.08,,,1,268,0.01,10.6,167,196,0.01,0.01,47.2,9.7
3/31/2021 21:10,,,,,,,,,,28.9,51.44,,,1,268,0.01,10.6,167,196,0.01,0.01,47.2,9.7
3/31/2021 21:20,,,,,,,,,,28.9,51.44,,,0,268.1,0.01,16.2,181,181,0.01,0.01,47.1,9.8
3/31/2021 21:30,,,,,,,,,,28.9,51.08,,,1,268.1,0.01,16.2,181,181,0.01,0.01,47.1,9.8
3/31/2021 21:40,,,,,,,,,,28.9,50.72,,,0,267.8,0,6.7,179,189,0.01,0.01,47.1,9.8
3/31/2021 21:50,,,,,,,,,,28.9,50.9,,,1,267.8,0,6.7,179,189,0.01,0.01,47.1,9.8
3/31/2021 22:00,,,,,,,,,,28.9,51.08,,,0,267.7,0.01,16,176,181,0.01,0.01,47.3,9.8
3/31/2021 22:10,,,,,,,,,,28.9,50.9,,,0,267.7,0.01,16,176,181,0.01,0.01,47.2,9.8
3/31/2021 22:20,,,,,,,,,,28.9,50.54,,,1,268.1,0.01,6.6,189,182,0.01,0.01,47.2,9.8
3/31/2021 22:30,,,,,,,,,,28.9,50.54,,,1,268.1,0.01,6.6,189,182,0.01,0.01,47.2,9.8
3/31/2021 22:40,,,,,,,,,,28.9,50.72,,,1,267,0.01,10.5,198,186,0.01,0.01,47.2,9.9
3/31/2021 22:50,,,,,,,,,,28.9,50.54,,,1,267,0.01,10.5,198,186,0.01,0.01,47.2,9.9
3/31/2021 23:00,,,,,,,,,,28.9,50.18,,,1,267.6,0.01,14,3,28,0.02,0.02,47.1,9.9
3/31/2021 23:10,,,,,,,,,,28.9,50,,,1,267.6,0.01,14,3,28,0.02,0.02,47.1,9.9
3/31/2021 23:20,,,,,,,,,,28.9,50.36,,,1,267.7,0.01,16.2,185,184,0.01,0.01,47.2,9.8
3/31/2021 23:30,,,,,,,,,,28.9,50.36,,,1,267.7,0.01,16.2,185,184,0.01,0.01,47.2,9.8
3/31/2021 23:40,,,,,,,,,,28.9,50.18,,,1,267.9,0.01,10.2,189,187,0.01,0.01,47.1,9.8
3/31/2021 23:50,,,,,,,,,,28.9,49.82,,,1,267.9,0.01,10.2,189,187,0.01,0.01,47.1,9.8
4/1/2021 0:00,,,,,,,,,,28.9,50,,,1,268.1,0,6.6,185,185,0.01,0.01,47.1,9.8
4/1/2021 0:10,,,,,,,,,,28.9,50.18,,,1,268.1,0,6.6,185,185,0.01,0.01,47.1,9.8
4/1/2021 0:20,,,,,,,,,,28.9,50,,,1,267.3,0.01,7.1,183,171,0.01,0.01,47.2,9.9
4/1/2021 0:30,,,,,,,,,,28.9,49.64,,,1,267.3,0.01,7.1,183,171,0.01,0.01,47.2,9.9
4/1/2021 0:40,,,,,,,,,,28.9,49.82,,,1,268.3,0.01,6.8,208,182,0.01,0.01,47.2,9.8
4/1/2021 0:50,,,,,,,,,,28.9,50,,,1,268.3,0.01,6.8,208,182,0.01,0.01,47.2,9.8
4/1/2021 1:00,,,,,,,,,,28.9,50,,,1,267.1,0.01,7,187,191,0.01,0.01,47.2,9.9
4/1/2021 1:10,,,,,,,,,,28.9,49.64,,,1,267.1,0.01,7,187,191,0.01,0.01,47.2,9.9
4/1/2021 1:20,,,,,,,,,,28.9,49.46,,,0,267.5,0.01,13.6,187,197,0.01,0.01,47.2,9.9
4/1/2021 1:30,,,,,,,,,,28.9,49.82,,,1,267.5,0.01,13.6,187,197,0.01,0.01,47.2,9.9
4/1/2021 1:40,,,,,,,,,,28.9,49.82,,,1,267.4,0.01,10.6,180,170,0.01,0.01,47.2,9.9
4/1/2021 1:50,,,,,,,,,,28.9,49.46,,,0,267.4,0.01,10.6,180,170,0.01,0.01,47.2,9.9
4/1/2021 2:00,,,,,,,,,,28.9,49.28,,,1,268.3,0.01,6.7,177,159,0.01,0.01,47.2,9.9
4/1/2021 2:10,,,,,,,,,,28.9,49.64,,,1,268.3,0.01,6.7,177,159,0.01,0.01,47.2,9.9
4/1/2021 2:20,,,,,,,,,,28.9,49.64,,,0,267.1,0.01,12.8,200,186,0.01,0.01,47.3,10
4/1/2021 2:30,,,,,,,,,,28.9,49.46,,,1,267.1,0.01,12.8,200,186,0.01,0.01,47.3,10
4/1/2021 2:40,,,,,,,,,,28.9,49.1,,,0,266.9,0.01,6.9,188,186,0.01,0.01,42.2,9
4/1/2021 2:50,,,,,,,,,,28.9,49.28,,,1,267.3,0.01,6.9,188,186,0.01,0.01,47.2,10
4/1/2021 3:00,,,,,,,,,,28.9,49.64,,,0,267.3,0.01,6.9,188,186,0.01,0.01,47.2,10
4/1/2021 3:10,,,,,,,,,,28.9,49.46,,,0,268,0.01,6.7,153,189,0.01,0.01,47.3,9.9
4/1/2021 3:20,,,,,,,,,,28.9,49.1,,,0,268,0.01,6.7,153,189,0.01,0.01,47.3,9.9
4/1/2021 3:30,,,,,,,,,,28.9,49.1,,,0,268.2,0.01,7.2,174,184,0.01,0.01,47.2,9.9
4/1/2021 3:40,,,,,,,,,,28.9,49.46,,,1,268.2,0.01,7.2,174,184,0.01,0.01,47.2,9.9
4/1/2021 3:50,,,,,,,,,,28.9,49.28,,,1,267.3,0.01,14.5,208,201,0.01,0.01,47.1,10
4/1/2021 4:00,,,,,,,,,,28.9,49.1,,,0,267.3,0.01,14.5,208,201,0.01,0.01,47.1,10
4/1/2021 4:10,,,,,,,,,,28.9,48.92,,,0,268.1,0.01,6.9,186,184,0.01,0.01,47.3,9.9
4/1/2021 4:20,,,,,,,,,,28.9,49.28,,,1,268.1,0.01,6.9,186,184,0.01,0.01,47.3,9.9
4/1/2021 4:30,,,,,,,,,,28.9,49.46,,,1,267.3,0.01,7.6,184,175,0.01,0.01,47.2,9.9
4/1/2021 4:40,,,,,,,,,,28.9,49.28,,,0,267.3,0.01,7.6,184,175,0.01,0.01,47.2,9.9
4/1/2021 4:50,,,,,,,,,,28.9,48.92,,,1,267.6,0.01,16.7,175,175,0.01,0.01,47.1,9.9
4/1/2021 5:00,,,,,,,,,,28.9,49.1,,,1,267.6,0.01,16.7,175,175,0.01,0.01,47.1,9.9
4/1/2021 5:10,,,,,,,,,,28.9,49.28,,,1,267.4,0.01,17.1,192,188,0.01,0.01,47.2,9.9
4/1/2021 5:20,,,,,,,,,,28.9,49.1,,,1,267.4,0.01,17.1,192,188,0.01,0.01,47.2,9.9
4/1/2021 5:30,,,,,,,,,,28.9,48.74,,,0,268.2,0.01,6.7,187,183,0.01,0.01,47.3,9.9
4/1/2021 5:40,,,,,,,,,,28.9,48.92,,,0,268.2,0.01,6.7,187,183,0.01,0.01,47.3,9.9
4/1/2021 5:50,,,,,,,,,,28.9,49.1,,,1,268.2,0.01,6.9,186,187,0.01,0.01,47.3,9.8
4/1/2021 6:00,,,,,,,,,,28.9,48.92,,,1,268.2,0.01,6.9,186,187,0.01,0.01,47.3,9.8
4/1/2021 6:10,,,,,,,,,,28.9,48.56,,,1,267.6,0.01,16.9,173,172,0.02,0.02,47.2,9.9
4/1/2021 6:20,,,,,,,,,,28.9,48.74,,,1,267.6,0.01,16.9,173,172,0.02,0.02,47.2,9.9
4/1/2021 6:30,,,,,,,,,,28.9,48.92,,,1,267.8,0,6.6,193,186,0.01,0.01,47.3,9.9
4/1/2021 6:40,,,,,,,,,,28.9,48.92,,,1,267.8,0,6.6,193,186,0.01,0.01,47.2,9.9
4/1/2021 6:50,,,,,,,,,,28.9,48.56,,,1,267.6,0.01,6.6,182,184,0.01,0.01,47.2,10
4/1/2021 7:00,,,,,,,,,,28.9,48.56,,,1,267.6,0.01,6.6,182,184,0.01,0.01,47.2,10
4/1/2021 7:10,,,,,,,,,,29,48.92,,,1,268.4,0.01,6.6,183,178,0.01,0.01,47.1,9.9
4/1/2021 7:20,,,,,,,,,,29,48.92,,,1,268.4,0.01,6.6,183,178,0.01,0.01,47.1,9.9
4/1/2021 7:30,,,,,,,,,,29,48.56,,,1,267.4,0.01,7.7,200,134,0.01,0.01,47.2,9.9
4/1/2021 7:40,,,,,,,,,,29,48.56,,,2,267.4,0.01,7.7,200,134,0.01,0.01,47.2,9.9
4/1/2021 7:50,,,,,,,,,,29,48.92,,,1,268.2,0.01,17.1,65,29,0.01,0.01,47.3,9.9
4/1/2021 8:00,,,,,,,,,,29,49.1,,,1,268.2,0.01,17.1,65,29,0.01,0.01,47.3,9.9
4/1/2021 8:10,,,,,,,,,,29,49.1,,,2,267.6,0.01,15.6,14,176,0.01,0.01,47.2,10.1
4/1/2021 8:20,,,,,,,,,,29,49.1,,,2,267.6,0.01,15.6,14,176,0.01,0.01,47.2,10.1
4/1/2021 8:30,,,,,,,,,,29,49.82,,,3,267.3,0.01,14,189,188,0.01,0.01,47.1,10
4/1/2021 8:40,,,,,,,,,,29,50,,,3,267.3,0.01,14,189,188,0.01,0.01,47.1,10
4/1/2021 8:50,,,,,,,,,,29,50,,,3,267.7,0.01,10.6,170,180,0.01,0.01,47.1,10
4/1/2021 9:00,,,,,,,,,,29,50.18,,,3,267.7,0.01,10.6,170,180,0.01,0.01,47.1,10
4/1/2021 9:10,,,,,,,,,,29,50.54,,,3,267.7,0,6.7,183,184,0.01,0.01,47.2,10.1
4/1/2021 9:20,,,,,,,,,,29,51.08,,,3,267.7,0,6.7,183,184,0.01,0.01,47.2,10.1
4/1/2021 9:30,,,,,,,,,,29,51.26,,,5,268,0.01,10,199,191,0.01,0.01,47.1,9.9
4/1/2021 9:40,,,,,,,,,,29,50.9,,,6,268,0.01,10,199,191,0.01,0.01,47.1,9.9
4/1/2021 9:50,,,,,,,,,,29,50.18,,,4,267.6,0.01,11.8,172,183,0.01,0.01,47.3,9.9
4/1/2021 10:00,,,,,,,,,,29,50,,,5,267.6,0.01,11.8,172,183,0.01,0.01,47.3,9.9
4/1/2021 10:10,,,,,,,,,,29,50,,,7,267.9,0.01,14.1,197,192,0.01,0.01,47.2,9.9
4/1/2021 10:20,,,,,,,,,,29,48.92,,,5,267.9,0.01,14.1,197,192,0.01,0.01,47.2,9.9
4/1/2021 10:30,,,,,,,,,,28.9,48.74,,,25,270,0.01,9.3,191,186,0.01,0.01,47.6,10.8
4/1/2021 10:40,,,,,,,,,,28.9,47.48,,,26,270,0.01,9.3,191,186,0.01,0.01,47.6,10.8
4/1/2021 10:50,,,,,,,,,,28.9,46.4,,,24,270.9,0.01,6.8,187,303,0.01,0.01,47.3,11.2
4/1/2021 11:00,,,,,,,,,,28.9,46.22,,,24,270.9,0.01,6.8,187,303,0.01,0.01,47.3,11.2
4/1/2021 11:10,,,,,,,,,,29,46.04,,,23,271.3,0.01,6.9,176,175,0.01,0.01,47.4,11.1
4/1/2021 11:20,,,,,,,,,,28.9,45.86,,,22,271.3,0.01,6.9,176,175,0.01,0.01,47.4,11.1
4/1/2021 11:30,,,,,,,,,,28.9,45.5,,,22,271.5,0.01,8.6,177,157,0.01,0.01,47.4,11.2
4/1/2021 11:40,,,,,,,,,,28.9,45.32,,,21,271.5,0.01,8.6,177,157,0.01,0.01,47.4,11.1
4/1/2021 11:50,,,,,,,,,,28.9,45.68,,,20,270.3,0.01,6.6,196,201,0.01,0.01,47.4,11.1
4/1/2021 12:00,,,,,,,,,,28.9,46.04,,,20,270.3,0.01,6.6,196,201,0.01,0.01,47.4,11.1
4/1/2021 12:10,,,,,,,,,,28.9,46.4,,,20,271.5,0.01,17.1,272,214,0.02,0.02,47.4,11.1
4/1/2021 12:20,,,,,,,,,,28.9,46.76,,,18,271.5,0.01,17.1,272,214,0.02,0.02,47.4,11.1
4/1/2021 12:30,,,,,,,,,,28.9,46.94,,,18,270.7,0.01,7.3,193,197,0.01,0.01,47.4,11
4/1/2021 12:40,,,,,,,,,,28.9,47.3,,,18,270.7,0.01,7.3,193,197,0.01,0.01,47.4,11
4/1/2021 12:50,,,,,,,,,,28.9,47.66,,,6,271.3,0.01,7,188,195,0.01,0.01,47.4,11.1
4/1/2021 13:00,,,,,,,,,,28.9,48.56,,,6,271.3,0.01,7,188,195,0.01,0.01,47.4,11.1
4/1/2021 13:10,,,,,,,,,,28.9,50,,,7,271.3,0.01,12.1,189,165,0.01,0.01,47.4,11.2
4/1/2021 13:20,,,,,,,,,,28.9,50.9,,,6,271.3,0.01,12.1,189,165,0.01,0.01,47.4,11.2
4/1/2021 13:30,,,,,,,,,,28.9,51.8,,,6,272,0,6.7,186,198,0.01,0.01,47.4,11.2
4/1/2021 13:40,,,,,,,,,,28.9,52.7,,,5,272,0,6.7,186,198,0.01,0.01,47.4,11.2
4/1/2021 13:50,,,,,,,,,,28.9,53.42,,,5,271.3,0.01,6.7,183,200,0.01,0.01,47.4,11
4/1/2021 14:00,,,,,,,,,,28.9,53.96,,,6,271.3,0.01,6.7,183,200,0.01,0.01,47.4,11
4/1/2021 14:10,,,,,,,,,,28.9,54.5,,,5,272,0.01,10.3,14,188,0.01,0.01,47.4,11.1
4/1/2021 14:20,,,,,,,,,,28.9,55.04,,,5,272,0.01,10.3,14,188,0.01,0.01,47.4,11.1
4/1/2021 14:30,,,,,,,,,,28.9,55.58,,,4,272.4,0.01,8.6,167,31,0.01,0.01,47.3,10.9
4/1/2021 14:40,,,,,,,,,,28.8,55.94,,,5,272.4,0.01,8.6,167,31,0.01,0.01,47.3,10.9
4/1/2021 14:50,,,,,,,,,,28.8,56.3,,,5,272.9,0.01,6.5,110,185,0.01,0.01,47.3,10.9
4/1/2021 15:00,,,,,,,,,,28.8,56.66,,,4,272.9,0.01,6.5,110,185,0.01,0.01,47.3,10.9
4/1/2021 15:10,,,,,,,,,,28.8,57.02,,,5,273.1,0.01,13,359,179,0.01,0.01,47.3,10.9
4/1/2021 15:20,,,,,,,,,,28.8,57.2,,,5,273.1,0.01,13,359,179,0.01,0.01,47.3,10.9
4/1/2021 15:30,,,,,,,,,,28.8,57.56,,,4,273.9,0.01,8.5,186,194,0.01,0.01,47.3,10.9
4/1/2021 15:40,,,,,,,,,,28.8,57.74,,,4,273.9,0.01,8.5,186,194,0.01,0.01,47.3,10.9
4/1/2021 15:50,,,,,,,,,,28.8,57.92,,,4,273.5,0.01,8.5,209,230,0.01,0.01,47.3,10.8
4/1/2021 16:00,,,,,,,,,,28.8,58.1,,,5,273.5,0.01,8.5,209,230,0.01,0.01,47.3,10.8
4/1/2021 16:10,,,,,,,,,,28.8,58.28,,,4,273.1,0.01,6.6,194,181,0.01,0.01,47.3,10.9
4/1/2021 16:20,,,,,,,,,,28.8,58.1,,,4,273.1,0.01,6.6,194,181,0.01,0.01,47.3,10.9
4/1/2021 16:30,,,,,,,,,,28.8,58.1,,,3,273.6,0.01,7.1,193,191,0.01,0.01,47.3,10.8
4/1/2021 16:40,,,,,,,,,,28.8,57.92,,,3,273.6,0.01,7.1,193,191,0.01,0.01,47.3,10.8
4/1/2021 16:50,,,,,,,,,,28.8,57.92,,,4,273.3,0.01,7.3,193,188,0.01,0.01,47.3,10.8
4/1/2021 17:00,,,,,,,,,,28.8,57.92,,,4,273.3,0.01,7.3,193,188,0.01,0.01,47.3,10.8
4/1/2021 17:10,,,,,,,,,,28.8,57.92,,,4,272.8,0.01,6.9,193,199,0.01,0.01,47.3,10.8
4/1/2021 17:20,,,,,,,,,,28.8,57.74,,,2,267.2,0.01,6.9,193,199,0.01,0.01,47.3,10.8
4/1/2021 17:30,,,,,,,,,,28.8,57.56,,,2,269.7,0.01,7.1,191,194,0.01,0.01,47.4,10.9
4/1/2021 17:40,,,,,,,,,,28.8,57.56,,,3,269.7,0.01,7.1,191,194,0.01,0.01,47.4,10.9
4/1/2021 17:50,,,,,,,,,,28.8,57.38,,,2,270,0.01,13.8,180,177,0.01,0.01,47.3,10.9
4/1/2021 18:00,,,,,,,,,,28.8,57.2,,,2,270,0.01,13.8,180,177,0.01,0.01,47.3,10.9
4/1/2021 18:10,,,,,,,,,,28.8,57.2,,,2,269.1,0.01,7,190,198,0.01,0.01,47.3,10.9
4/1/2021 18:20,,,,,,,,,,28.7,57.02,,,2,269.1,0.01,7,190,198,0.01,0.01,47.3,10.9
4/1/2021 18:30,,,,,,,,,,28.7,56.84,,,2,269.9,0.01,7.5,193,196,0.01,0.01,47.4,10.9
4/1/2021 18:40,,,,,,,,,,28.7,56.66,,,2,269.9,0.01,7.5,193,196,0.01,0.01,47.4,10.9
4/1/2021 18:50,,,,,,,,,,28.7,56.48,,,2,269.8,0.01,16.7,122,169,0.01,0.01,47.3,10.8
4/1/2021 19:00,,,,,,,,,,28.7,56.3,,,2,269.8,0.01,16.7,122,169,0.01,0.01,47.3,10.8
4/1/2021 19:10,,,,,,,,,,28.7,55.94,,,2,269.6,0.01,12.4,189,181,0.01,0.01,47.3,10.9
4/1/2021 19:20,,,,,,,,,,28.7,55.94,,,2,269.6,0.01,12.4,189,181,0.01,0.01,47.3,10.9
4/1/2021 19:30,,,,,,,,,,28.7,55.58,,,2,269.5,0.01,13,23,357,0.01,0.01,47.3,10.9
4/1/2021 19:40,,,,,,,,,,28.7,55.4,,,2,269.5,0.01,13,23,357,0.01,0.01,47.3,10.9
4/1/2021 19:50,,,,,,,,,,28.7,55.04,,,2,269.6,0.01,10.2,175,213,0.01,0.01,47.3,10.8
4/1/2021 20:00,,,,,,,,,,28.7,54.68,,,2,269.6,0.01,10.2,175,213,0.01,0.01,47.3,10.8
4/1/2021 20:10,,,,,,,,,,28.7,54.5,,,2,269.4,0.01,9.2,191,178,0.01,0.01,47.3,10.9
4/1/2021 20:20,,,,,,,,,,28.7,54.32,,,2,269.4,0.01,9.2,191,178,0.01,0.01,47.3,10.9
4/1/2021 20:30,,,,,,,,,,28.7,53.96,,,2,269,0.01,14.6,186,192,0.01,0.01,47.3,10.8
4/1/2021 20:40,,,,,,,,,,28.7,53.6,,,2,269,0.01,14.6,186,192,0.01,0.01,47.3,10.8
4/1/2021 20:50,,,,,,,,,,28.7,53.24,,,2,269.1,0,6.7,198,190,0.01,0.01,47.3,11
4/1/2021 21:00,,,,,,,,,,28.7,53.06,,,1,269.1,0,6.7,198,190,0.01,0.01,47.3,10.9
4/1/2021 21:10,,,,,,,,,,28.7,52.7,,,1,268.9,0.01,7.6,198,194,0.01,0.01,47.4,10.8
4/1/2021 21:20,,,,,,,,,,28.7,52.52,,,2,268.9,0.01,7.6,198,194,0.01,0.01,47.4,10.9
4/1/2021 21:30,,,,,,,,,,28.7,52.16,,,2,268.9,0.01,7.3,196,186,0.01,0.01,47.4,10.9
4/1/2021 21:40,,,,,,,,,,28.7,51.8,,,2,268.9,0.01,7.3,196,186,0.01,0.01,47.3,10.9
4/1/2021 21:50,,,,,,,,,,28.7,51.62,,,2,269.3,0,7.1,190,189,0.01,0.01,47.3,10.8
4/1/2021 22:00,,,,,,,,,,28.7,51.44,,,0,269.3,0,7.1,190,189,0.01,0.01,47.3,10.8
4/1/2021 22:10,,,,,,,,,,28.7,51.08,,,0,269,0.01,7.3,175,189,0.01,0.01,47.3,11.1
4/1/2021 22:20,,,,,,,,,,28.7,50.72,,,0,269,0.01,7.3,175,189,0.01,0.01,47.3,11.1
4/1/2021 22:30,,,,,,,,,,28.7,50.72,,,1,269.6,0.01,8.5,184,79,0.01,0.01,47.4,10.9
4/1/2021 22:40,,,,,,,,,,28.7,50.54,,,0,269.6,0.01,8.5,184,79,0.01,0.01,47.4,10.9
4/1/2021 22:50,,,,,,,,,,28.7,50.36,,,1,268.7,0.01,7.3,195,182,0.01,0.01,47.4,10.9
4/1/2021 23:00,,,,,,,,,,28.7,50.18,,,1,268.7,0.01,7.3,195,182,0.01,0.01,47.3,10.9
4/1/2021 23:10,,,,,,,,,,28.7,50,,,1,269.1,0.01,14,6,185,0.01,0.01,47.4,10.9
4/1/2021 23:20,,,,,,,,,,28.7,49.82,,,1,269.1,0.01,14,6,185,0.01,0.01,47.4,10.9
4/1/2021 23:30,,,,,,,,,,28.7,49.64,,,1,268.2,0.01,9.9,188,169,0.01,0.01,47.3,10.9
4/1/2021 23:40,,,,,,,,,,28.7,49.28,,,1,268.2,0.01,9.9,188,169,0.01,0.01,47.3,10.9
4/1/2021 23:50,,,,,,,,,,28.7,49.1,,,0,268.9,0,6.5,195,186,0.01,0.01,47.4,11
4/2/2021 0:00,,,,,,,,,,28.7,49.1,,,0,268.9,0,6.5,195,186,0.01,0.01,47.4,11
4/2/2021 0:10,,,,,,,,,,28.7,49.1,,,1,268.8,0.01,8.4,179,198,0.01,0.01,47.4,11
4/2/2021 0:20,,,,,,,,,,28.7,48.92,,,1,268.8,0.01,8.4,179,198,0.01,0.01,47.4,11
4/2/2021 0:30,,,,,,,,,,28.7,48.92,,,0,268.9,0.01,6.9,176,181,0.01,0.01,47.4,11
4/2/2021 0:40,,,,,,,,,,28.7,48.56,,,1,268.9,0.01,6.9,176,181,0.01,0.01,47.4,11
4/2/2021 0:50,,,,,,,,,,28.7,48.38,,,1,269.1,0.01,17.1,17,95,0.02,0.02,47.3,11.1
4/2/2021 1:00,,,,,,,,,,28.7,48.2,,,0,269.1,0.01,17.1,17,95,0.02,0.02,47.3,11.1
4/2/2021 1:10,,,,,,,,,,28.7,48.2,,,1,268.1,0.01,6.9,192,191,0.01,0.01,47.3,11.1
4/2/2021 1:20,,,,,,,,,,28.7,48.2,,,1,268.1,0.01,6.9,192,191,0.01,0.01,47.3,11.1
4/2/2021 1:30,,,,,,,,,,28.7,48.2,,,0,268.7,0.01,7.1,187,189,0.01,0.01,47.4,11.1
4/2/2021 1:40,,,,,,,,,,28.7,48.2,,,1,268.7,0.01,7.1,187,189,0.01,0.01,47.4,11.1
4/2/2021 1:50,,,,,,,,,,28.7,48.02,,,0,268.7,0.01,10.5,192,187,0.01,0.01,47.4,11
4/2/2021 2:00,,,,,,,,,,28.7,47.66,,,1,268.7,0.01,10.5,192,187,0.01,0.01,47.4,11
4/2/2021 2:10,,,,,,,,,,28.7,47.66,,,1,267.8,0.01,7,184,186,0.01,0.01,47.4,11.1
4/2/2021 2:20,,,,,,,,,,28.7,47.84,,,1,267.8,0.01,7,184,186,0.01,0.01,47.4,11.1
4/2/2021 2:30,,,,,,,,,,28.7,47.84,,,0,268.3,0.01,7,183,185,0.01,0.01,47.4,11.1
4/2/2021 2:40,,,,,,,,,,28.7,47.66,,,0,268.3,0.01,7,183,185,0.01,0.01,47.4,11.1
4/2/2021 2:50,,,,,,,,,,28.7,47.48,,,1,268.1,0.01,6.9,181,183,0.01,0.01,47.3,11
4/2/2021 3:00,,,,,,,,,,28.7,47.3,,,1,268.1,0.01,6.9,181,183,0.01,0.01,47.3,11
4/2/2021 3:10,,,,,,,,,,28.7,47.3,,,0,268.4,0.01,15.6,181,180,0.01,0.01,47.3,11.1
4/2/2021 3:20,,,,,,,,,,28.7,47.3,,,1,268.4,0.01,15.6,181,180,0.01,0.01,47.3,11.1
4/2/2021 3:30,,,,,,,,,,28.7,47.3,,,1,268.6,0.01,7.1,202,173,0.01,0.01,47.5,11.1
4/2/2021 3:40,,,,,,,,,,28.7,47.3,,,0,268.6,0.01,7.1,202,173,0.01,0.01,47.5,11.1
4/2/2021 3:50,,,,,,,,,,28.6,47.3,,,1,269.4,0.01,9.7,181,187,0.01,0.01,47.4,10.9
4/2/2021 4:00,,,,,,,,,,28.6,46.94,,,1,269.4,0.01,9.7,181,187,0.01,0.01,47.4,10.9
4/2/2021 4:10,,,,,,,,,,28.6,46.94,,,0,268.4,0.01,8.5,186,192,0.01,0.01,47.4,11
4/2/2021 4:20,,,,,,,,,,28.6,47.12,,,1,268.4,0.01,8.5,186,192,0.01,0.01,47.4,11
4/2/2021 4:30,,,,,,,,,,28.6,47.12,,,0,268.4,0.01,16.7,172,174,0.01,0.01,47.4,11.1
4/2/2021 4:40,,,,,,,,,,28.6,47.12,,,1,268.4,0.01,16.7,172,174,0.01,0.01,47.4,11.1
4/2/2021 4:50,,,,,,,,,,28.6,46.94,,,0,268.8,0,6.4,194,189,0.01,0.01,47.3,11.1
4/2/2021 5:00,,,,,,,,,,28.6,46.76,,,1,268.8,0,6.4,194,189,0.01,0.01,47.3,11.1
4/2/2021 5:10,,,,,,,,,,28.6,46.76,,,0,268.3,0.01,12.2,189,187,0.01,0.01,47.4,11.1
4/2/2021 5:20,,,,,,,,,,28.6,46.76,,,1,268.3,0.01,12.2,189,187,0.01,0.01,47.4,11.1
4/2/2021 5:30,,,,,,,,,,28.6,46.76,,,1,268.1,0,6.3,189,184,0.01,0.01,47.4,11.1
4/2/2021 5:40,,,,,,,,,,28.6,46.76,,,0,268.1,0,6.3,189,184,0.01,0.01,47.4,11.1
4/2/2021 5:50,,,,,,,,,,28.6,46.76,,,0,268.1,0.01,6.9,191,178,0.01,0.01,47.4,11.1
4/2/2021 6:00,,,,,,,,,,28.6,46.58,,,1,268.1,0.01,6.9,191,178,0.01,0.01,47.4,11.1
4/2/2021 6:10,,,,,,,,,,28.6,46.58,,,0,268.9,0.01,13.5,355,337,0.01,0.01,47.4,11.1
4/2/2021 6:20,,,,,,,,,,28.6,46.58,,,1,268.9,0.01,13.5,355,337,0.01,0.01,47.4,11.1
4/2/2021 6:30,,,,,,,,,,28.6,46.58,,,1,269.1,0.01,17.4,181,183,0.01,0.01,47.4,11.1
4/2/2021 6:40,,,,,,,,,,28.6,46.58,,,1,269.1,0.01,17.4,181,183,0.01,0.01,47.4,11.1
4/2/2021 6:50,,,,,,,,,,28.6,46.4,,,0,269.3,0.01,16.9,32,43,0.02,0.01,47.4,11.1
4/2/2021 7:00,,,,,,,,,,28.6,46.4,,,1,269.3,0.01,16.9,32,43,0.02,0.01,47.4,11.1
4/2/2021 7:10,,,,,,,,,,28.6,46.4,,,1,268.5,0.01,16.7,172,176,0.01,0.01,47.4,11
4/2/2021 7:20,,,,,,,,,,28.6,46.4,,,1,268.5,0.01,16.7,172,176,0.01,0.01,47.4,11
4/2/2021 7:30,,,,,,,,,,28.6,46.4,,,1,268.1,0.01,16.4,197,193,0.01,0.01,47.4,11.2
4/2/2021 7:40,,,,,,,,,,28.6,46.4,,,1,268.1,0.01,16.4,197,193,0.01,0.01,47.4,11.2
4/2/2021 7:50,,,,,,,,,,28.6,46.4,,,1,267.9,0.01,16.7,192,196,0.01,0.01,47.4,11.1
4/2/2021 8:00,,,,,,,,,,28.6,46.4,,,2,267.9,0.01,16.7,192,196,0.01,0.01,47.4,11.1
4/2/2021 8:10,,,,,,,,,,28.6,46.58,,,2,268.4,0.01,7.2,186,195,0.01,0.01,47.4,11.2
4/2/2021 8:20,,,,,,,,,,28.6,46.76,,,4,268.4,0.01,7.2,186,195,0.01,0.01,47.4,11.1
4/2/2021 8:30,,,,,,,,,,28.6,46.76,,,2,268.8,0.01,7.4,190,187,0.01,0.01,47.4,11.1
4/2/2021 8:40,,,,,,,,,,28.6,46.76,,,2,268.8,0.01,7.4,190,187,0.01,0.01,47.4,11.1
4/2/2021 8:50,,,,,,,,,,28.6,46.76,,,43,267.8,0.01,7.1,185,185,0.01,0.01,47.4,11.2
4/2/2021 9:00,,,,,,,,,,28.6,46.94,,,4,267.8,0.01,7.1,185,185,0.01,0.01,47.4,11.2
4/2/2021 9:10,,,,,,,,,,28.6,47.12,,,3,267.4,0.01,6.5,186,192,0.01,0.01,47.3,11.2
4/2/2021 9:20,,,,,,,,,,28.6,47.66,,,4,267.4,0.01,6.5,186,192,0.01,0.01,47.3,11.2
4/2/2021 9:30,,,,,,,,,,28.6,48.2,,,4,267.9,0.01,17.1,196,194,0.01,0.01,47.4,11.1
4/2/2021 9:40,,,,,,,,,,28.6,48.56,,,5,267.9,0.01,17.1,196,194,0.01,0.01,47.4,11.1
4/2/2021 9:50,,,,,,,,,,28.6,49.1,,,4,267.6,0.01,14.3,180,179,0.01,0.01,47.4,11.1
4/2/2021 10:00,,,,,,,,,,28.6,49.64,,,4,267.6,0.01,14.3,180,179,0.01,0.01,47.4,11.2
4/2/2021 10:10,,,,,,,,,,28.6,50,,,5,268.3,0.01,6.6,180,179,0.01,0.01,47.3,11.1
4/2/2021 10:20,,,,,,,,,,28.6,50.36,,,5,268.3,0.01,6.6,180,179,0.01,0.01,47.3,11.1
4/2/2021 10:30,,,,,,,,,,28.6,50.72,,,5,267.3,0.01,16.4,195,192,0.01,0.01,47.3,11.1
4/2/2021 10:40,,,,,,,,,,28.5,51.26,,,5,267.3,0.01,16.4,195,192,0.01,0.01,47.3,11.1
4/2/2021 10:50,,,,,,,,,,28.5,51.62,,,24,268.4,0.01,11.3,186,175,0.01,0.01,47.3,11.1
4/2/2021 11:00,,,,,,,,,,28.5,51.8,,,23,265.4,0.01,11.3,186,175,0.01,0.01,47.3,11
4/2/2021 11:10,,,,,,,,,,28.5,52.34,,,21,267.6,0.01,7,187,194,0.01,0.01,47.3,11.1
4/2/2021 11:20,,,,,,,,,,28.5,52.88,,,21,267.6,0.01,7,187,194,0.01,0.01,47.3,11.1
4/2/2021 11:30,,,,,,,,,,28.5,53.24,,,20,268.3,0.01,6.5,181,175,0.01,0.01,47.3,11
4/2/2021 11:40,,,,,,,,,,28.5,53.96,,,20,268.3,0.01,6.5,181,175,0.01,0.01,47.3,11
4/2/2021 11:50,,,,,,,,,,28.5,54.5,,,19,267.8,0.01,6.7,183,182,0.01,0.01,47.3,11.1
4/2/2021 12:00,,,,,,,,,,28.5,54.86,,,19,267.8,0.01,6.7,183,182,0.01,0.01,47.3,11.1
4/2/2021 12:10,,,,,,,,,,28.5,55.58,,,18,269.3,0.01,6.6,180,175,0.01,0.01,47.3,11
4/2/2021 12:20,,,,,,,,,,28.5,55.94,,,17,269.3,0.01,6.6,180,175,0.01,0.01,47.3,11
4/2/2021 12:30,,,,,,,,,,28.5,56.3,,,16,268.4,0.01,7.6,186,183,0.01,0.01,47.2,11
4/2/2021 12:40,,,,,,,,,,28.5,56.84,,,15,268.4,0.01,7.6,186,183,0.01,0.01,47.2,11
4/2/2021 12:50,,,,,,,,,,28.5,57.2,,,15,271.6,0.01,9,1,183,0.01,0.01,47.3,10.9
4/2/2021 13:00,,,,,,,,,,28.5,57.74,,,14,271.6,0.01,9,1,183,0.01,0.01,47.3,10.9
4/2/2021 13:10,,,,,,,,,,28.5,58.28,,,14,275.3,0.01,12,184,188,0.01,0.01,47.2,10.9
4/2/2021 13:20,,,,,,,,,,28.5,58.64,,,13,275.3,0.01,12,184,188,0.01,0.01,47.2,10.9
4/2/2021 13:30,,,,,,,,,,28.5,58.82,,,13,272.9,0.01,8,16,185,0.01,0.01,47.3,10.9
4/2/2021 13:40,,,,,,,,,,28.5,59.18,,,12,272.9,0.01,8,16,185,0.01,0.01,47.3,10.9
4/2/2021 13:50,,,,,,,,,,28.5,59.72,,,12,268.9,0,6.9,194,193,0.01,0.01,47.3,10.9
4/2/2021 14:00,,,,,,,,,,28.5,59.9,,,11,268.9,0,6.9,194,193,0.01,0.01,47.3,10.9
4/2/2021 14:10,,,,,,,,,,28.4,60.08,,,11,273.4,0.01,17.7,194,194,0.01,0.01,47.3,10.8
4/2/2021 14:20,,,,,,,,,,28.4,60.44,,,9,273.4,0.01,17.7,194,194,0.01,0.01,47.3,10.8
4/2/2021 14:30,,,,,,,,,,28.4,60.8,,,10,273.1,0.01,9.2,195,191,0.01,0.01,47.3,10.8
4/2/2021 14:40,,,,,,,,,,28.4,61.16,,,10,273.1,0.01,9.2,195,191,0.01,0.01,47.3,10.8
4/2/2021 14:50,,,,,,,,,,28.4,61.16,,,9,273.9,0,6.7,174,187,0.01,0.01,47.2,10.8
4/2/2021 15:00,,,,,,,,,,28.4,61.52,,,9,273.9,0,6.7,174,187,0.01,0.01,47.2,10.8
4/2/2021 15:10,,,,,,,,,,28.4,61.88,,,9,274.6,0.01,6.7,189,189,0.01,0.01,47.3,10.6
4/2/2021 15:20,,,,,,,,,,28.4,62.06,,,2,274.6,0.01,6.7,189,189,0.01,0.01,47.3,10.6
4/2/2021 15:30,,,,,,,,,,28.4,62.42,,,2,274.6,0.01,6.9,184,178,0.01,0.01,47.2,10.8
4/2/2021 15:40,,,,,,,,,,28.4,62.42,,,2,274.6,0.01,6.9,184,178,0.01,0.01,47.2,10.8
4/2/2021 15:50,,,,,,,,,,28.4,62.42,,,2,275.3,0.01,8.2,198,194,0.01,0.01,47.2,10.8
4/2/2021 16:00,,,,,,,,,,28.4,62.42,,,1,275.3,0.01,8.2,198,194,0.01,0.01,47.2,10.8
4/2/2021 16:10,,,,,,,,,,28.4,62.6,,,2,274.8,0.01,6.4,191,16,0.01,0.01,47.3,10.8
4/2/2021 16:20,,,,,,,,,,28.4,62.6,,,2,274.8,0.01,6.4,191,16,0.01,0.01,47.3,10.8
4/2/2021 16:30,,,,,,,,,,28.4,62.6,,,1,275.1,0.01,16.2,224,202,0.01,0.01,47.3,10.7
4/2/2021 16:40,,,,,,,,,,28.4,62.6,,,2,275.1,0.01,16.2,224,202,0.01,0.01,47.3,10.7
4/2/2021 16:50,,,,,,,,,,28.4,62.6,,,1,274.7,0.2,7.1,351,352,0.33,0.26,47.2,10.8
4/2/2021 17:00,,,,,,,,,,28.4,62.78,,,1,274.7,0.2,7.1,351,352,0.33,0.26,47.2,10.8
4/2/2021 17:10,,,,,,,,,,28.4,62.6,,,1,275.4,0.01,6.4,202,199,0.01,0.01,47.3,10.7
4/2/2021 17:20,,,,,,,,,,28.4,62.6,,,0,275.4,0.01,6.4,202,199,0.01,0.01,47.3,10.7
4/2/2021 17:30,,,,,,,,,,28.4,62.6,,,1,275,0.01,17.1,206,202,0.01,0.01,47.2,10.7
4/2/2021 17:40,,,,,,,,,,28.4,62.6,,,1,275,0.01,17.1,206,202,0.01,0.01,47.2,10.7
4/2/2021 17:50,,,,,,,,,,28.4,62.6,,,0,275.4,0.01,6.9,201,129,0.01,0.01,47.3,10.7
4/2/2021 18:00,,,,,,,,,,28.4,62.42,,,1,275.4,0.01,6.9,201,129,0.01,0.01,47.3,10.7
4/2/2021 18:10,,,,,,,,,,28.4,62.42,,,0,274.8,0.01,17.4,186,185,0.02,0.01,47.2,10.7
4/2/2021 18:20,,,,,,,,,,28.4,62.42,,,0,274.8,0.01,17.4,186,185,0.02,0.01,47.2,10.7
4/2/2021 18:30,,,,,,,,,,28.4,62.42,,,0,275,0,6.6,190,188,0.01,0.01,47.3,10.6
4/2/2021 18:40,,,,,,,,,,28.4,62.24,,,0,275,0,6.6,190,188,0.01,0.01,47.3,10.6
4/2/2021 18:50,,,,,,,,,,28.4,62.06,,,0,275.8,0.01,7,9,186,0.01,0.01,47.3,10.6
4/2/2021 19:00,,,,,,,,,,28.4,61.88,,,0,275.8,0.01,7,9,186,0.01,0.01,47.3,10.6
4/2/2021 19:10,,,,,,,,,,28.4,61.7,,,0,274.5,0.01,14.8,193,189,0.01,0.01,42.2,9.6
4/2/2021 19:20,,,,,,,,,,28.4,61.52,,,1,274.9,0.01,14.8,193,189,0.01,0.01,47.2,10.7
4/2/2021 19:30,,,,,,,,,,28.3,61.34,,,0,274.9,0.01,14.8,193,189,0.01,0.01,47.2,10.7
4/2/2021 19:40,,,,,,,,,,28.3,61.16,,,0,274.8,0.01,10.6,181,185,0.01,0.01,47.3,10.8
4/2/2021 19:50,,,,,,,,,,28.3,60.98,,,0,274.8,0.01,10.6,181,185,0.01,0.01,47.3,10.8
4/2/2021 20:00,,,,,,,,,,28.3,60.62,,,0,274.6,0.01,6.4,193,196,0.01,0.01,47.2,10.6
4/2/2021 20:10,,,,,,,,,,28.3,60.44,,,0,274.6,0.01,6.4,193,196,0.01,0.01,47.2,10.6
4/2/2021 20:20,,,,,,,,,,28.3,60.08,,,0,274,0.01,9,155,194,0.01,0.01,47.3,10.7
4/2/2021 20:30,,,,,,,,,,28.4,59.9,,,-1,274,0.01,9,155,194,0.01,0.01,47.3,10.7
4/2/2021 20:40,,,,,,,,,,28.4,59.72,,,-1,274.5,0.01,7.5,189,195,0.01,0.01,47.3,10.6
4/2/2021 20:50,,,,,,,,,,28.4,59.54,,,0,274.5,0.01,7.5,189,195,0.01,0.01,47.3,10.6
4/2/2021 21:00,,,,,,,,,,28.4,59.36,,,0,274.9,0.01,11.4,197,202,0.01,0.01,47.3,10.7
4/2/2021 21:10,,,,,,,,,,28.4,59,,,0,274.9,0.01,11.4,197,202,0.01,0.01,47.3,10.7
4/2/2021 21:20,,,,,,,,,,28.4,58.64,,,-1,275,0.01,7.6,203,189,0.01,0.01,47.3,10.6
4/2/2021 21:30,,,,,,,,,,28.4,58.64,,,-1,275,0.01,7.6,203,189,0.01,0.01,47.3,10.6
4/2/2021 21:40,,,,,,,,,,28.4,58.28,,,0,274,0.01,6.9,197,193,0.01,0.01,47.3,10.7
4/2/2021 21:50,,,,,,,,,,28.4,58.1,,,0,274,0.01,6.9,197,193,0.01,0.01,47.3,10.7
4/2/2021 22:00,,,,,,,,,,28.4,57.74,,,0,273.8,0.01,6.7,185,193,0.01,0.01,47.3,10.7
4/2/2021 22:10,,,,,,,,,,28.4,57.56,,,0,273.8,0.01,6.7,185,193,0.01,0.01,47.3,10.7
4/2/2021 22:20,,,,,,,,,,28.4,57.38,,,0,274.3,0.01,8.3,197,188,0.01,0.01,47.3,10.8
4/2/2021 22:30,,,,,,,,,,28.4,57.2,,,0,274.3,0.01,8.3,197,188,0.01,0.01,47.3,10.8
4/2/2021 22:40,,,,,,,,,,28.4,57.02,,,0,274.9,0.01,16.2,298,213,0.01,0.01,47.3,10.8
4/2/2021 22:50,,,,,,,,,,28.4,56.84,,,0,274.9,0.01,16.2,298,213,0.01,0.01,47.3,10.8
4/2/2021 23:00,,,,,,,,,,28.4,56.48,,,0,273.8,0.01,9.3,195,196,0.01,0.01,47.3,10.8
4/2/2021 23:10,,,,,,,,,,28.4,56.3,,,0,273.8,0.01,9.3,195,196,0.01,0.01,47.3,10.8
4/2/2021 23:20,,,,,,,,,,28.4,55.94,,,0,274.3,0.01,15.2,185,185,0.01,0.01,47.3,10.8
4/2/2021 23:30,,,,,,,,,,28.4,55.94,,,0,274.3,0.01,15.2,185,185,0.01,0.01,47.3,10.8
4/2/2021 23:40,,,,,,,,,,28.4,55.76,,,-1,273.8,0.01,12,189,198,0.01,0.01,47.3,10.9
4/2/2021 23:50,,,,,,,,,,28.4,55.4,,,1,273.8,0.01,12,189,198,0.01,0.01,47.3,10.9
4/3/2021 0:00,,,,,,,,,,28.4,55.22,,,0,273.9,0,6.7,194,196,0.01,0.01,47.3,10.8
4/3/2021 0:10,,,,,,,,,,28.4,55.04,,,0,273.9,0,6.7,194,196,0.01,0.01,47.3,10.8
4/3/2021 0:20,,,,,,,,,,28.4,54.68,,,0,273.9,0.01,16.9,205,205,0.01,0.01,47.3,10.8
4/3/2021 0:30,,,,,,,,,,28.4,54.5,,,0,273.9,0.01,16.9,205,205,0.01,0.01,47.3,10.8
4/3/2021 0:40,,,,,,,,,,28.4,54.5,,,0,273.3,0.01,6.5,194,189,0.01,0.01,47.3,10.8
4/3/2021 0:50,,,,,,,,,,28.4,54.32,,,0,273.3,0.01,6.5,194,189,0.01,0.01,47.3,10.8
4/3/2021 1:00,,,,,,,,,,28.4,53.96,,,1,273.1,0.01,16.9,208,209,0.02,0.02,47.3,10.8
4/3/2021 1:10,,,,,,,,,,28.4,53.78,,,0,273.1,0.01,16.9,208,209,0.02,0.02,47.3,10.8
4/3/2021 1:20,,,,,,,,,,28.4,53.6,,,0,273.4,0.01,16.2,80,173,0.01,0.01,47.3,10.9
4/3/2021 1:30,,,,,,,,,,28.4,53.42,,,1,273.4,0.01,16.2,80,173,0.01,0.01,47.3,10.9
4/3/2021 1:40,,,,,,,,,,28.4,53.06,,,1,272.4,0.01,14.6,76,41,0.01,0.01,47.3,10.9
4/3/2021 1:50,,,,,,,,,,28.4,53.06,,,0,272.4,0.01,14.6,76,41,0.01,0.01,47.3,10.9
4/3/2021 2:00,,,,,,,,,,28.4,53.06,,,1,272.7,0,6.4,181,186,0.01,0.01,47.4,10.9
4/3/2021 2:10,,,,,,,,,,28.4,52.88,,,1,272.7,0,6.4,181,186,0.01,0.01,47.4,10.9
4/3/2021 2:20,,,,,,,,,,28.4,52.7,,,0,273.3,0,7.3,195,190,0.01,0.01,47.4,10.9
4/3/2021 2:30,,,,,,,,,,28.4,52.7,,,0,273.3,0,7.3,195,190,0.01,0.01,47.4,10.9
