datetime,Water Temperature_F,Sp Cond_uS/cm,pH,ODOSat_%,ODO_mg/L,BGA-Phycocyanin RFU_rfu,BGA-PC_ug/l,Chlorophyll RFU_rfu,Chlorophyll_ug/l,Rel. Barometric Pressure_inHg,Air Temperature_F,Wind Direction_deg,Wind Speed_mph,PAR_umol/s/m,Heading_deg,Hs Wave Height_m,Tp (DPD) Wave Period_sec,Dominant Wave Direction_deg,Mean Wave Direction (MWD)_deg,Hmax Wave Height_m,H10 Wave Height_m,Rolld_deg,Pitch_deg
4/17/2020 10:40,41.53,403,8.28,95,12.03,0.2,0.2,0.4,1.4,,,,,,,,,,,,,,
4/17/2020 10:50,41.54,403,8.26,95.1,12.03,0.2,0.2,0.4,1.5,,,,,,,,,,,,,,
4/17/2020 11:00,41.47,403,8.24,95,12.03,0.2,0.2,0.4,1.5,,,,,,,,,,,,,,
4/17/2020 11:10,41.63,403,8.22,95.2,12.04,0.2,0.2,0.4,1.4,,,,,,,,,,,,,,
4/17/2020 11:20,41.57,403,8.21,95.1,12.04,0.2,0.2,0.4,1.3,,,,,,,,,,,,,,
4/17/2020 11:30,41.66,403,8.21,95.3,12.04,0.2,0.2,0.3,1.2,,,,,,,,,,,,,,
4/17/2020 11:40,41.66,403,8.21,95.3,12.04,0.2,0.2,0.3,1.2,,,,,,,,,,,,,,
4/17/2020 11:50,41.58,403,8.2,95.2,12.04,0.2,0.2,0.4,1.3,,,,,,,,,,,,,,
4/17/2020 12:00,41.75,403,8.22,95.4,12.04,0.3,0.2,0.3,1.1,,,,,,,,,,,,,,
4/17/2020 12:10,41.75,403,8.22,95.4,12.04,0.2,0.2,0.3,1.2,,,,,,,,,,,,,,
4/17/2020 12:20,41.8,403,8.23,95.5,12.04,0.2,0.2,0.3,1.2,,,,,,,,,,,,,,
4/17/2020 12:30,41.79,403,8.22,95.5,12.04,0.3,0.2,0.3,1.2,,,,,,,,,,,,,,
4/17/2020 12:40,41.9,403,8.24,95.6,12.04,0.2,0.2,0.3,1.2,,,,,,,,,,,,,,
4/17/2020 12:50,41.87,403,8.24,95.5,12.03,0.2,0.2,0.3,1.2,,,,,,,,,,,,,,
4/17/2020 13:00,41.92,403,8.25,95.6,12.03,0.2,0.2,0.3,1,,,,,,,,,,,,,,
4/17/2020 13:10,41.93,403,8.24,95.6,12.03,0.2,0.2,0.3,1,,,,,,,,,,,,,,
4/17/2020 13:17,41.99,403,8.24,95.6,12.03,0.2,0.2,0.3,1.1,30,41.72,304,12.3,,,,,,,,,,
4/17/2020 13:20,42.01,403,8.24,95.6,12.02,0.2,0.2,0.4,1.3,,,,,,,,,,,,,,
4/17/2020 13:30,42,403,8.24,95.6,12.02,0.2,0.2,0.3,1.1,30,41.18,313,18.3,,,,,,,,,,
4/17/2020 13:40,41.96,403,8.24,95.5,12.02,0.2,0.2,0.3,1.1,29.8,41.18,278,8.3,,,,,,,,,,
4/17/2020 13:50,42.01,403,8.24,95.6,12.01,0.2,0.2,0.3,1.1,30,41.72,291,10.3,,,,,,,,,,
4/17/2020 14:00,41.97,403,8.24,95.5,12.01,0.2,0.2,0.3,0.9,29.8,41.72,277,8.7,,,,,,,,,,
4/17/2020 14:10,41.98,403,8.24,95.5,12.01,0.2,0.2,0.3,1.1,30,41.9,286,17,,,,,,,,,,
4/17/2020 14:20,41.93,403,8.24,95.5,12.02,0.2,0.2,0.3,1,30,41.9,287,17.4,,,,,,,,,,
4/17/2020 14:30,41.96,403,8.25,95.5,12.02,0.2,0.2,0.3,0.9,29.9,42.08,295,20.8,,,,,,,,,,
4/17/2020 14:40,42,403,8.25,95.5,12.01,0.2,0.2,0.3,1.2,30,42.08,305,15,,,,,,,,,,
4/17/2020 14:50,42.01,403,8.25,95.5,12.01,0.2,0.2,0.3,1,30,42.44,273,21.9,,,,,,,,,,
4/17/2020 15:00,42.02,403,8.25,95.6,12.01,0.2,0.2,0.3,1.2,30,42.26,283,13.9,,,,,,,,,,
4/17/2020 15:10,41.99,403,8.25,95.5,12.01,0.2,0.2,0.4,1.3,30,42.08,301,16.8,,,,,,,,,,
4/17/2020 15:20,42.02,403,8.25,95.5,12.01,0.2,0.2,0.4,1.4,30,42.26,300,18.6,,,,,,,,,,
4/17/2020 15:30,42.03,403,8.25,95.5,12,0.2,0.2,0.3,1.2,30,42.08,293,16.1,,,,,,,,,,
4/17/2020 15:40,42.04,403,8.25,95.4,11.99,0.2,0.2,0.4,1.5,30,42.26,302,8.9,,,,,,,,,,
4/17/2020 15:50,42.05,403,8.26,95.4,11.99,0.2,0.2,0.3,1.2,30,42.98,314,18.8,,,,,,,,,,
4/17/2020 16:00,42.11,403,8.26,95.5,11.99,0.2,0.2,0.3,0.8,30,44.06,279,16.6,,,,,,,,,,
4/17/2020 16:10,42.11,403,8.26,95.5,11.98,0.2,0.2,0.4,1.3,30,43.34,281,9.4,,,,,,,,,,
4/17/2020 16:20,42.12,403,8.26,95.4,11.98,0.2,0.2,0.4,1.4,30,43.7,254,16.6,,,,,,,,,,
4/17/2020 16:30,42.11,403,8.26,95.3,11.97,0.2,0.2,0.3,1,30,43.88,276,10.1,,,,,,,,,,
4/17/2020 16:40,42.13,403,8.26,95.4,11.97,0.2,0.2,0.3,1,29.2,44.42,281,18.1,,,,,,,,,,
4/17/2020 16:50,42.2,403,8.26,95.5,11.97,0.2,0.2,0.3,1,30,44.6,302,13.9,,,,,,,,,,
4/17/2020 17:00,42.25,403,8.26,95.5,11.97,0.2,0.2,0.3,1,29.1,44.96,305,12.3,,,,,,,,,,
4/17/2020 17:10,42.23,403,8.26,95.4,11.95,0.2,0.2,0.3,1.2,28.9,43.88,305,13.9,,,,,,,,,,
4/17/2020 17:20,42.25,403,8.26,95.4,11.95,0.2,0.2,0.3,1,30,44.6,298,9.6,,,,,,,,,,
4/17/2020 17:30,42.29,403,8.26,95.4,11.95,0.2,0.2,0.3,1.2,30,45.68,288,15,,,,,,,,,,
4/17/2020 17:40,42.29,403,8.26,95.4,11.95,0.2,0.2,0.3,1.1,29,45.5,266,15.2,,,,,,,,,,
4/17/2020 17:50,42.26,403,8.26,95.4,11.95,0.2,0.2,0.4,1.3,29.7,43.7,265,11.6,,,,,,,,,,
4/17/2020 18:00,42.31,403,8.26,95.4,11.95,0.2,0.2,0.3,1.2,30,45.32,302,15,,,,,,,,,,
4/17/2020 18:10,42.31,403,8.26,95.4,11.94,0.2,0.2,0.4,1.3,30,44.96,266,15.7,,,,,,,,,,
4/17/2020 18:20,42.31,403,8.26,95.4,11.94,0.2,0.2,0.4,1.4,29.9,44.78,277,11.4,,,,,,,,,,
4/17/2020 18:30,42.32,403,8.26,95.2,11.92,0.2,0.2,0.4,1.5,30,44.96,299,10.5,,,,,,,,,,
4/17/2020 18:40,42.33,403,8.26,95.3,11.92,0.2,0.2,0.4,1.7,29.9,45.14,265,13,,,,,,,,,,
4/17/2020 18:50,42.33,403,8.26,95.3,11.92,0.2,0.2,0.5,1.8,29.9,44.78,269,12.8,,,,,,,,,,
4/17/2020 19:00,42.33,403,8.26,95.2,11.92,0.2,0.2,0.5,1.9,30,44.78,275,8.3,,,,,,,,,,
4/17/2020 19:10,42.34,403,8.25,95.1,11.9,0.2,0.2,0.5,2.1,30,44.42,247,49.7,,,,,,,,,,
4/17/2020 19:20,42.34,403,8.26,95.1,11.9,0.3,0.2,0.5,2,30,44.24,279,10.1,,,,,,,,,,
4/17/2020 19:30,42.36,403,8.25,95,11.88,0.2,0.2,0.5,2.1,29.9,43.88,262,11.4,,,,,,,,,,
4/17/2020 19:40,42.36,403,8.25,94.9,11.88,0.3,0.2,0.5,2.1,29.9,43.34,267,12.3,,,,,,,,,,
4/17/2020 19:50,42.34,403,8.25,94.9,11.88,0.2,0.2,0.5,2,29.9,42.98,266,10.3,,,,,,,,,,
4/17/2020 20:00,42.37,403,8.25,94.8,11.86,0.3,0.2,0.5,2.1,29.9,42.08,256,8.1,,,,,,,,,,
4/17/2020 20:10,42.37,403,8.26,94.8,11.86,0.2,0.2,0.5,2.1,29.9,41.18,259,5.8,,,,,,,,,,
4/17/2020 20:20,42.37,403,8.26,94.8,11.86,0.3,0.2,0.6,2.5,29.9,40.46,249,6,,,,,,,,,,
4/17/2020 20:30,42.35,403,8.26,94.8,11.87,0.2,0.2,0.6,2.3,29.9,39.74,221,6.3,,,,,,,,,,
4/17/2020 20:40,42.37,403,8.26,94.9,11.87,0.2,0.2,0.6,2.4,29.9,39.38,225,5.4,,,,,,,,,,
4/17/2020 20:50,42.32,403,8.27,94.8,11.87,0.3,0.2,0.7,2.7,29.9,39.2,246,6,,,,,,,,,,
4/17/2020 21:00,42.31,403,8.27,94.8,11.87,0.3,0.2,0.7,3,29.9,39.2,219,6.3,,,,,,,,,,
4/17/2020 21:10,42.31,403,8.27,94.9,11.88,0.3,0.2,0.7,2.9,29.9,38.66,221,5.4,,,,,,,,,,
4/17/2020 21:20,42.33,403,8.27,94.8,11.87,0.3,0.2,0.7,3,29.9,38.12,211,4.7,,,,,,,,,,
4/17/2020 21:30,42.33,403,8.27,94.8,11.87,0.3,0.2,0.8,3.1,29.9,37.76,215,5.4,,,,,,,,,,
4/17/2020 21:40,42.31,403,8.27,94.8,11.87,0.3,0.2,0.7,3,29.9,37.4,212,4.9,,,,,,,,,,
4/17/2020 21:50,42.34,403,8.27,94.8,11.86,0.3,0.2,0.7,2.7,29.9,37.58,206,6.9,,,,,,,,,,
4/17/2020 22:00,42.29,403,8.27,94.8,11.87,0.3,0.2,0.7,2.9,29.9,37.94,207,6.3,,,,,,,,,,
4/17/2020 22:10,42.29,403,8.27,94.8,11.87,0.3,0.2,0.7,3,29.9,37.94,205,6.5,,,,,,,,,,
4/17/2020 22:20,42.37,403,8.27,94.8,11.86,0.3,0.2,0.7,3,29.9,37.94,188,6.9,,,,,,,,,,
4/17/2020 22:30,42.32,403,8.27,94.7,11.86,0.3,0.2,0.7,2.7,29.9,37.94,204,6.9,,,,,,,,,,
4/17/2020 22:40,42.3,403,8.27,94.8,11.87,0.3,0.2,0.7,2.8,29.9,37.58,186,7.4,,,,,,,,,,
4/17/2020 22:50,42.3,403,8.27,94.8,11.87,0.3,0.2,0.7,2.9,29.9,37.58,188,7.4,,,,,,,,,,
4/17/2020 23:00,42.29,403,8.27,94.9,11.88,0.3,0.2,0.7,2.7,29.9,37.4,179,7.6,,,,,,,,,,
4/17/2020 23:10,42.31,403,8.27,94.9,11.88,0.2,0.2,0.6,2.5,29.9,37.22,194,7.6,,,,,,,,,,
4/17/2020 23:20,42.28,403,8.27,94.8,11.88,0.2,0.2,0.6,2.4,29.9,37.04,182,7.8,,,,,,,,,,
4/17/2020 23:30,42.32,403,8.27,94.8,11.86,0.2,0.2,0.6,2.1,29.9,37.04,198,9.8,,,,,,,,,,
4/17/2020 23:40,42.27,403,8.27,94.8,11.88,0.3,0.2,0.6,2.4,29.9,36.68,199,8.5,,,,,,,,,,
4/17/2020 23:50,42.27,403,8.27,94.8,11.87,0.2,0.2,0.6,2.3,29.9,36.32,196,12.1,,,,,,,,,,
4/18/2020 0:00,42.29,403,8.27,94.7,11.86,0.2,0.2,0.6,2.4,29.9,36.5,198,14.8,,,,,,,,,,
4/18/2020 0:10,42.26,403,8.26,94.7,11.87,0.2,0.2,0.6,2.2,29.9,36.86,196,14.8,,,,,,,,,,
4/18/2020 0:20,42.25,403,8.24,94.7,11.87,0.2,0.2,0.5,2,29.9,37.22,210,16.3,,,,,,,,,,
4/18/2020 0:30,42.25,403,8.24,94.6,11.86,0.2,0.2,0.5,2.1,29.8,36.86,205,15.9,,,,,,,,,,
4/18/2020 0:40,42.27,403,8.24,94.6,11.84,0.2,0.2,0.5,2.1,29.9,36.5,209,14.1,,,,,,,,,,
4/18/2020 0:50,42.22,403,8.24,94.7,11.87,0.2,0.2,0.6,2.2,29.9,36.32,206,13.4,,,,,,,,,,
4/18/2020 1:00,42.23,403,8.24,94.6,11.86,0.2,0.2,0.5,2.1,29.9,36.32,209,16.6,,,,,,,,,,
4/18/2020 1:10,42.23,403,8.24,94.5,11.85,0.2,0.2,0.5,2.1,29.9,36.14,211,16.6,,,,,,,,,,
4/18/2020 1:20,42.23,403,8.24,94.5,11.84,0.3,0.2,0.6,2.2,29.8,35.96,210,16.6,,,,,,,,,,
4/18/2020 1:30,42.22,403,8.24,94.5,11.85,0.3,0.2,0.5,2.1,29.9,35.96,210,18.6,,,,,,,,,,
4/18/2020 1:40,42.2,403,8.24,94.5,11.85,0.3,0.2,0.5,2.1,29.7,35.96,211,19.5,,,,,,,,,,
4/18/2020 1:50,42.2,403,8.25,94.6,11.86,0.2,0.2,0.6,2.2,29.8,35.96,209,17.2,,,,,,,,,,
4/18/2020 2:00,42.22,403,8.24,94.4,11.83,0.2,0.2,0.6,2.2,29.6,36.14,204,16.3,,,,,,,,,,
4/18/2020 2:10,42.19,403,8.24,94.3,11.83,0.3,0.2,0.6,2.1,29.8,35.96,208,17.2,,,,,,,,,,
4/18/2020 2:20,42.18,403,8.24,94.3,11.83,0.3,0.2,0.5,2.1,92,36.14,,,,,,,,,,,,
4/18/2020 2:30,42.18,403,8.25,94.3,11.83,0.3,0.2,0.5,2.1,29.9,36.14,205,15.2,,,,,,,,,,
4/18/2020 2:40,42.2,403,8.24,94.3,11.82,0.2,0.2,0.6,2.2,29.8,36.14,215,15.7,,,,,,,,,,
4/18/2020 2:50,42.17,403,8.24,94.3,11.83,0.2,0.2,0.5,2.1,29.8,36.14,212,20.1,,,,,,,,,,
4/18/2020 3:00,42.14,403,8.25,94.5,11.86,0.3,0.2,0.5,2.1,29.8,36.14,214,18.3,,,,,,,,,,
4/18/2020 3:10,42.14,403,8.24,94.5,11.86,0.3,0.2,0.5,2.1,29.8,35.96,214,15,,,,,,,,,,
4/18/2020 3:20,42.14,403,8.24,94.4,11.85,0.2,0.2,0.5,2.1,29.7,35.78,206,17.7,,,,,,,,,,
4/18/2020 3:30,42.13,403,8.24,94.4,11.85,0.2,0.2,0.5,2.1,29.8,35.42,206,19,,,,,,,,,,
4/18/2020 3:40,42.14,403,8.24,94.3,11.84,0.3,0.2,0.5,2.1,29.8,35.42,208,21.9,,,,,,,,,,
4/18/2020 3:50,42.11,403,8.25,94.4,11.85,0.2,0.2,0.5,2.1,29.7,35.6,204,29.5,,,,,,,,,,
4/18/2020 4:00,42.11,403,8.24,94.4,11.86,0.2,0.2,0.6,2.2,29.8,35.6,210,21,,,,,,,,,,
4/18/2020 4:10,42.13,403,8.24,94.3,11.84,0.3,0.2,0.6,2.1,29.7,35.6,208,25.7,,,,,,,,,,
4/18/2020 4:20,42.1,403,8.24,94.4,11.85,0.3,0.2,0.6,2.2,29.8,35.6,207,25.1,,,,,,,,,,
4/18/2020 4:30,42.07,403,8.25,94.4,11.86,0.2,0.2,0.5,2,29.8,35.6,213,27.7,,,,,,,,,,
4/18/2020 4:40,42.06,403,8.24,94.5,11.87,0.2,0.2,0.6,2.1,29.8,35.78,205,20.4,,,,,,,,,,
4/18/2020 4:50,42,403,8.25,94.5,11.88,0.3,0.2,0.5,2.1,29.8,35.96,211,27.7,,,,,,,,,,
4/18/2020 5:00,41.99,403,8.25,94.5,11.89,0.3,0.2,0.5,2.1,29.5,35.78,206,22.4,,,,,,,,,,
4/18/2020 5:10,41.99,403,8.25,94.5,11.89,0.2,0.2,0.5,2.1,28.4,35.6,202,23.5,,,,,,,,,,
4/18/2020 5:20,41.97,403,8.24,94.5,11.89,0.2,0.2,0.5,2.1,29.8,35.24,211,27.1,,,,,,,,,,
4/18/2020 5:30,41.94,403,8.25,94.5,11.89,0.2,0.2,0.5,2.1,29.7,35.06,194,20.1,,,,,,,,,,
4/18/2020 5:40,41.96,403,8.25,94.5,11.88,0.3,0.2,0.5,2.1,29.7,34.88,193,20.6,,,,,,,,,,
4/18/2020 5:50,41.93,403,8.25,94.4,11.89,0.3,0.2,0.6,2.1,29.7,34.88,199,23.3,,,,,,,,,,
4/18/2020 6:00,41.91,403,8.25,94.5,11.9,0.2,0.2,0.6,2.2,29.7,35.24,200,23.5,,,,,,,,,,
4/18/2020 6:10,41.88,403,8.25,94.5,11.9,0.2,0.2,0.5,2.1,28.3,35.06,,,,,,,,,,,,
4/18/2020 6:20,41.84,403,8.25,94.5,11.91,0.2,0.2,0.5,2.1,29.7,35.06,201,22.1,,,,,,,,,,
4/18/2020 6:30,41.84,403,8.25,94.5,11.91,0.3,0.2,0.5,2,29.7,34.88,193,23.9,,,,,,,,,,
4/18/2020 6:40,41.84,403,8.25,94.5,11.91,0.3,0.2,0.5,2.1,28.3,34.88,,,,,,,,,,,,
4/18/2020 6:50,41.83,403,8.25,94.4,11.9,0.3,0.2,0.5,2,29.8,34.88,209,22.6,,,,,,,,,,
4/18/2020 7:00,41.8,403,8.25,94.4,11.9,0.2,0.2,0.5,2,29.7,35.42,210,20.6,,,,,,,,,,
4/18/2020 7:10,41.78,403,8.25,94.4,11.91,0.2,0.2,0.5,2,29.7,35.6,215,18.1,,,,,,,,,,
4/18/2020 7:20,41.77,404,8.24,94.4,11.9,0.3,0.2,0.5,2.1,29.7,35.78,209,23.3,,,,,,,,,,
4/18/2020 7:30,41.78,404,8.25,94.3,11.9,0.3,0.2,0.5,1.9,28.8,35.96,218,28.2,,,,,,,,,,
4/18/2020 7:40,41.77,404,8.24,94.2,11.89,0.3,0.2,0.5,2,29.7,36.32,215,24.6,,,,,,,,,,
4/18/2020 7:50,41.77,404,8.25,94.1,11.88,0.3,0.2,0.5,1.9,29.4,36.68,211,26.8,,,,,,,,,,
4/18/2020 8:00,41.76,404,8.24,94.1,11.87,0.2,0.2,0.5,1.8,29.7,36.86,213,24.8,,,,,,,,,,
4/18/2020 8:10,41.77,404,8.24,94,11.86,0.2,0.2,0.4,1.6,29.7,37.22,218,22.1,,,,,,,,,,
4/18/2020 8:20,41.79,404,8.24,94,11.85,0.2,0.2,0.4,1.4,29.4,37.58,215,22.1,,,,,,,,,,
4/18/2020 8:30,41.79,404,8.24,93.9,11.85,0.2,0.2,0.4,1.5,29.7,38.12,213,23,,,,,,,,,,
4/18/2020 8:40,41.83,404,8.24,93.8,11.82,0.2,0.2,0.4,1.6,29.7,38.66,215,24.8,,,,,,,,,,
4/18/2020 8:50,41.84,404,8.24,93.8,11.82,0.2,0.2,0.4,1.4,29.7,39.2,215,19.9,,,,,,,,,,
4/18/2020 9:00,41.86,404,8.24,93.7,11.81,0.2,0.2,0.4,1.6,29.7,39.92,219,25.9,,,,,,,,,,
4/18/2020 9:10,41.88,404,8.24,93.7,11.8,0.2,0.2,0.4,1.5,29.7,40.28,218,20.6,,,,,,,,,,
4/18/2020 9:20,41.91,404,8.24,93.6,11.78,0.2,0.2,0.4,1.5,29.7,41,214,25.5,,,,,,,,,,
4/18/2020 9:30,41.93,404,8.24,93.5,11.77,0.2,0.2,0.4,1.6,29.6,41.36,219,24.6,,,,,,,,,,
4/18/2020 9:40,41.97,404,8.23,93.4,11.76,0.2,0.2,0.4,1.4,29.7,41.9,222,22.4,,,,,,,,,,
4/18/2020 9:50,41.98,404,8.23,93.3,11.74,0.2,0.2,0.4,1.5,29.7,42.62,228,21.5,,,,,,,,,,
4/18/2020 10:00,42.01,404,8.23,93.3,11.73,0.2,0.2,0.4,1.4,29.7,42.98,236,19.5,,,,,,,,,,
4/18/2020 10:10,42.05,404,8.23,93.3,11.72,0.2,0.2,0.4,1.4,29.7,44.06,238,18.8,,,,,,,,,,
4/18/2020 10:20,42.07,404,8.23,93.3,11.72,0.2,0.2,0.4,1.4,29.7,45.14,243,22.6,,,,,,,,,,
4/18/2020 10:30,42.09,404,8.23,93.4,11.72,0.3,0.2,0.4,1.5,29.7,45.32,140,23,,,,,,,,,,
4/18/2020 10:40,42.09,404,8.23,93.3,11.71,0.2,0.2,0.4,1.4,29.7,44.6,258,26.4,,,,,,,,,,
4/18/2020 10:50,42.15,404,8.23,93.4,11.72,0.2,0.2,0.4,1.4,29.7,45.86,256,21.3,,,,,,,,,,
4/18/2020 11:00,42.17,404,8.23,93.3,11.71,0.2,0.2,0.4,1.6,29.7,46.04,248,25.1,,,,,,,,,,
4/18/2020 11:10,42.2,404,8.23,93.4,11.71,0.2,0.2,0.4,1.4,29.7,46.4,241,19.9,,,,,,,,,,
4/18/2020 11:20,42.22,404,8.23,93.4,11.71,0.2,0.2,0.4,1.5,29.7,46.76,249,25.1,,,,,,,,,,
4/18/2020 11:30,42.24,404,8.23,93.4,11.71,0.2,0.2,0.4,1.5,29.5,47.3,245,19.9,,,,,,,,,,
4/18/2020 11:40,42.3,404,8.23,93.5,11.71,0.2,0.2,0.4,1.4,29.5,47.66,247,22.1,,,,,,,,,,
4/18/2020 11:50,42.28,404,8.23,93.5,11.71,0.2,0.2,0.4,1.6,29.7,48.38,221,16.6,,,,,,,,,,
4/18/2020 12:00,42.33,404,8.23,93.6,11.72,0.2,0.2,0.4,1.3,29.7,48.56,236,15.9,,,,,,,,,,
4/18/2020 12:10,42.33,404,8.23,93.6,11.72,0.2,0.2,0.4,1.5,29,49.1,218,13.9,,,,,,,,,,
4/18/2020 12:20,42.36,404,8.23,93.8,11.73,0.2,0.2,0.4,1.4,29.7,49.28,233,19,,,,,,,,,,
4/18/2020 12:30,42.33,404,8.23,93.7,11.73,0.2,0.2,0.4,1.4,29.7,50.36,247,19.7,,,,,,,,,,
4/18/2020 12:40,42.43,404,8.23,93.9,11.74,0.2,0.2,0.4,1.4,29.6,51.44,240,19.5,,,,,,,,,,
4/18/2020 12:50,42.47,404,8.23,94,11.75,0.2,0.2,0.4,1.3,29.7,51.98,238,10.5,,,,,,,,,,
4/18/2020 13:00,42.51,404,8.24,94.1,11.75,0.2,0.2,0.3,1.2,29.7,52.88,239,18.3,,,,,,,,,,
4/18/2020 13:10,42.5,404,8.24,94.2,11.76,0.2,0.2,0.4,1.3,29.6,52.7,254,14.1,,,,,,,,,,
4/18/2020 13:20,42.52,404,8.24,94.3,11.78,0.2,0.2,0.3,1.2,29.6,54.5,253,15.2,,,,,,,,,,
4/18/2020 13:30,42.54,404,8.24,94.4,11.78,0.2,0.2,0.4,1.3,29.6,53.78,244,19.7,,,,,,,,,,
4/18/2020 13:40,42.63,404,8.24,94.6,11.78,0.2,0.2,0.3,1.2,29.6,54.5,257,12.8,,,,,,,,,,
4/18/2020 13:50,42.62,404,8.24,94.6,11.79,0.2,0.2,0.3,1.2,29.6,55.4,251,17.4,,,,,,,,,,
4/18/2020 14:00,42.72,404,8.24,94.8,11.79,0.2,0.2,0.3,1.1,29.6,56.48,242,20.1,,,,,,,,,,
4/18/2020 14:10,42.77,404,8.24,94.9,11.8,0.2,0.2,0.3,1.1,29.6,56.3,257,11.6,,,,,,,,,,
4/18/2020 14:20,42.76,404,8.24,94.9,11.8,0.2,0.2,0.3,1.2,29.6,56.3,262,12.1,,,,,,,,,,
4/18/2020 14:30,42.77,404,8.24,95,11.81,0.2,0.2,0.3,1.1,29.6,57.38,255,23.3,,,,,,,,,,
4/18/2020 14:40,42.83,404,8.24,95.1,11.81,0.2,0.2,0.3,1.1,29.6,58.1,283,17.2,,,,,,,,,,
4/18/2020 14:50,42.83,403,8.24,95.2,11.83,0.2,0.2,0.3,1,29.7,58.1,277,16.1,,,,,,,,,,
4/18/2020 15:00,42.9,403,8.25,95.3,11.83,0.2,0.2,0.3,1,29.6,58.28,288,16.6,,,,,,,,,,
4/18/2020 15:10,42.9,403,8.25,95.4,11.84,0.2,0.2,0.3,1,29.6,58.64,259,21.7,,,,,,,,,,
4/18/2020 15:20,42.94,403,8.25,95.5,11.85,0.2,0.2,0.3,0.9,29.6,58.28,261,21.5,,,,,,,,,,
4/18/2020 15:30,42.99,403,8.24,95.5,11.85,0.2,0.2,0.3,1,29.6,59.18,272,16.6,,,,,,,,,,
4/18/2020 15:40,43.02,403,8.25,95.7,11.86,0.2,0.2,0.3,1.1,29.6,59.36,275,23.7,,,,,,,,,,
4/18/2020 15:50,43.06,403,8.25,95.8,11.86,0.2,0.2,0.3,1,29.6,59.54,281,17.7,,,,,,,,,,
4/18/2020 16:00,43.1,403,8.25,95.9,11.87,0.2,0.2,0.3,0.9,29.6,59.18,268,18.8,,,,,,,,,,
4/18/2020 16:10,43.12,403,8.25,95.9,11.88,0.2,0.2,0.3,1,29.6,59.36,279,18.8,,,,,,,,,,
4/18/2020 16:20,43.14,403,8.25,96,11.88,0.2,0.2,0.3,0.9,29.6,59,296,17,,,,,,,,,,
4/18/2020 16:30,43.17,403,8.25,96.1,11.88,0.2,0.2,0.3,0.9,29.6,59.18,263,19.5,,,,,,,,,,
4/18/2020 16:40,43.17,403,8.25,96.1,11.89,0.2,0.2,0.3,1.1,29.6,60.08,286,16.1,,,,,,,,,,
4/18/2020 16:50,43.21,403,8.25,96.2,11.89,0.2,0.2,0.3,1.1,28.8,59.9,301,20.1,,,,,,,,,,
4/18/2020 17:00,43.23,403,8.25,96.2,11.89,0.2,0.2,0.3,1.1,29.2,59.18,287,11.9,,,,,,,,,,
4/18/2020 17:10,43.22,403,8.25,96.2,11.89,0.2,0.2,0.3,1,29.6,58.1,296,17.7,,,,,,,,,,
4/18/2020 17:20,43.27,403,8.25,96.3,11.89,0.2,0.2,0.3,1.2,29.2,58.46,297,18.6,,,,,,,,,,
4/18/2020 17:30,43.26,403,8.25,96.2,11.89,0.2,0.2,0.3,1.1,29.6,58.64,298,19.5,,,,,,,,,,
4/18/2020 17:40,43.29,403,8.25,96.3,11.89,0.2,0.2,0.3,1.1,29.5,58.82,307,16.8,,,,,,,,,,
4/18/2020 17:50,43.3,403,8.25,96.3,11.88,0.2,0.2,0.3,1.2,29.6,57.92,322,18.1,,,,,,,,,,
4/18/2020 18:00,43.33,403,8.25,96.3,11.89,0.2,0.2,0.4,1.6,29.6,57.2,326,19.5,,,,,,,,,,
4/18/2020 18:10,43.32,403,8.26,96.3,11.88,0.2,0.2,0.4,1.2,29.6,57.2,310,18.8,,,,,,,,,,
4/18/2020 18:20,43.33,403,8.25,96.3,11.88,0.2,0.2,0.4,1.5,29.6,56.3,308,21.9,,,,,,,,,,
4/18/2020 18:30,43.35,403,8.25,96.3,11.88,0.2,0.2,0.4,1.6,28.7,55.94,324,15,,,,,,,,,,
4/18/2020 18:40,43.35,403,8.25,96.3,11.88,0.2,0.2,0.5,1.7,29.6,55.22,327,19.7,,,,,,,,,,
4/18/2020 18:50,43.35,403,8.25,96.3,11.88,0.2,0.2,0.4,1.6,29.6,55.22,325,16.1,,,,,,,,,,
4/18/2020 19:00,43.37,403,8.25,96.3,11.88,0.3,0.2,0.5,1.8,29.2,55.4,331,18.3,,,,,,,,,,
4/18/2020 19:10,43.38,403,8.25,96.3,11.88,0.2,0.2,0.5,1.9,29.6,55.58,324,17,,,,,,,,,,
4/18/2020 19:20,43.38,403,8.25,96.3,11.88,0.2,0.2,0.5,1.8,29.4,54.14,336,13.9,,,,,,,,,,
4/18/2020 19:30,43.38,403,8.25,96.3,11.88,0.2,0.2,0.5,1.8,29.7,53.42,322,13,,,,,,,,,,
4/18/2020 19:40,43.38,403,8.25,96.3,11.87,0.2,0.2,0.5,1.7,29.7,53.24,319,12.5,,,,,,,,,,
4/18/2020 19:50,43.39,403,8.25,96.3,11.87,0.2,0.2,0.5,1.8,29.7,51.44,334,12.3,,,,,,,,,,
4/18/2020 20:00,43.39,403,8.25,96.2,11.87,0.2,0.2,0.5,2,29.7,50.36,334,12.3,,,,,,,,,,
4/18/2020 20:10,43.39,403,8.25,96.2,11.86,0.2,0.2,0.5,2,29.7,49.46,342,10.3,,,,,,,,,,
4/18/2020 20:20,43.39,403,8.25,96.2,11.86,0.2,0.2,0.5,1.9,29.6,48.38,337,8.9,,,,,,,,,,
4/18/2020 20:30,43.38,403,8.25,96.2,11.86,0.2,0.2,0.5,1.9,29.7,48.02,336,9.2,,,,,,,,,,
4/18/2020 20:40,43.37,403,8.26,96.1,11.86,0.2,0.2,0.5,2,29.7,48.2,341,13.6,,,,,,,,,,
4/18/2020 20:50,43.38,403,8.25,96.1,11.85,0.2,0.2,0.5,2.1,29.7,48.56,346,14.1,,,,,,,,,,
4/18/2020 21:00,43.38,403,8.25,96.1,11.85,0.2,0.2,0.5,2,29.5,48.56,344,14.3,,,,,,,,,,
4/18/2020 21:10,43.39,403,8.25,96,11.84,0.3,0.2,0.5,2.1,29.7,47.84,345,14.3,,,,,,,,,,
4/18/2020 21:20,43.38,403,8.25,96,11.84,0.2,0.2,0.5,2.1,29.7,47.3,342,11.6,,,,,,,,,,
4/18/2020 21:30,43.42,403,8.25,95.8,11.8,0.2,0.2,0.5,2,29.7,46.4,350,10.5,,,,,,,,,,
4/18/2020 21:40,43.43,403,8.25,95.8,11.81,0.3,0.2,0.5,2,29.8,46.04,353,10.7,,,,,,,,,,
4/18/2020 21:50,43.43,403,8.25,95.8,11.81,0.2,0.2,0.5,2.1,29.7,45.68,355,10.1,,,,,,,,,,
4/18/2020 22:00,43.42,403,8.25,95.8,11.81,0.2,0.2,0.5,2.1,29.8,45.32,344,9.4,,,,,,,,,,
4/18/2020 22:10,43.4,403,8.25,95.8,11.81,0.2,0.2,0.5,2,29.8,44.96,348,8.5,,,,,,,,,,
4/18/2020 22:20,43.48,403,8.26,96,11.82,0.2,0.2,0.5,2,29.8,44.42,343,6.9,,,,,,,,,,
4/18/2020 22:30,43.46,403,8.26,95.9,11.82,0.2,0.2,0.5,2.1,29.8,43.7,342,7.2,,,,,,,,,,
4/18/2020 22:40,43.49,403,8.26,96,11.82,0.2,0.2,0.5,2.1,29.8,44.06,343,9.6,,,,,,,,,,
4/18/2020 22:50,43.52,403,8.26,96.1,11.82,0.2,0.2,0.6,2.2,29.8,43.88,341,7.4,,,,,,,,,,
4/18/2020 23:00,43.53,403,8.27,96.1,11.83,0.2,0.2,0.6,2.2,29.8,42.98,339,6,,,,,,,,,,
4/18/2020 23:10,43.55,403,8.27,96.1,11.83,0.2,0.2,0.6,2.2,29.8,42.98,338,8.5,,,,,,,,,,
4/18/2020 23:20,43.56,403,8.27,96.2,11.83,0.2,0.2,0.5,2,29.8,42.8,335,7.2,,,,,,,,,,
4/18/2020 23:30,43.58,403,8.27,96.2,11.83,0.2,0.2,0.5,2,29.8,42.26,328,6.5,,,,,,,,,,
4/18/2020 23:40,43.58,403,8.27,96.2,11.83,0.2,0.2,0.6,2.2,29.8,42.08,310,6.9,,,,,,,,,,
4/18/2020 23:50,43.57,403,8.27,96.2,11.83,0.2,0.2,0.5,2.1,29.8,41.72,306,6.7,,,,,,,,,,
4/19/2020 0:00,43.6,403,8.27,96.2,11.83,0.2,0.2,0.6,2.2,29.8,41.36,311,5.8,,,,,,,,,,
4/19/2020 0:10,43.6,403,8.27,96.2,11.83,0.3,0.2,0.6,2.3,29.8,41.18,309,5.8,,,,,,,,,,
4/19/2020 0:20,43.6,403,8.27,96.2,11.82,0.2,0.2,0.5,2.1,29.8,41,330,6.7,,,,,,,,,,
4/19/2020 0:30,43.6,403,8.27,96.1,11.82,0.2,0.2,0.6,2.2,29.8,41,314,5.8,,,,,,,,,,
4/19/2020 0:40,43.64,403,8.27,96.2,11.82,0.2,0.2,0.6,2.2,29.8,40.82,308,5.6,,,,,,,,,,
4/19/2020 0:50,43.64,403,8.27,96.1,11.81,0.2,0.2,0.6,2.3,29.8,40.82,301,7.6,,,,,,,,,,
4/19/2020 1:00,43.67,403,8.27,96.1,11.81,0.2,0.2,0.6,2.3,29.8,41,309,7.2,,,,,,,,,,
4/19/2020 1:10,43.75,403,8.26,96,11.78,0.2,0.2,0.5,2.1,29.8,40.64,310,7.6,,,,,,,,,,
4/19/2020 1:20,43.76,403,8.26,96,11.77,0.2,0.2,0.6,2.3,29.8,40.28,309,7.8,,,,,,,,,,
4/19/2020 1:30,43.75,403,8.26,95.9,11.76,0.3,0.2,0.6,2.2,29.8,39.92,304,6.9,,,,,,,,,,
4/19/2020 1:40,43.75,403,8.26,95.9,11.76,0.2,0.2,0.6,2.2,29.8,39.92,302,7.6,,,,,,,,,,
4/19/2020 1:50,43.75,403,8.26,95.8,11.75,0.2,0.2,0.5,2.1,29.8,39.56,305,7.8,,,,,,,,,,
4/19/2020 2:00,43.77,403,8.26,95.7,11.74,0.2,0.2,0.6,2.2,29.8,39.38,304,7.8,,,,,,,,,,
4/19/2020 2:10,43.76,403,8.26,95.7,11.74,0.2,0.2,0.6,2.3,29.8,39.56,303,9.6,,,,,,,,,,
4/19/2020 2:20,43.74,403,8.26,95.7,11.74,0.2,0.2,0.6,2.2,29.8,39.92,307,12.3,,,,,,,,,,
4/19/2020 2:30,43.73,403,8.26,95.6,11.74,0.2,0.2,0.5,2,29.8,39.92,306,10.5,,,,,,,,,,
4/19/2020 2:40,43.72,403,8.26,95.6,11.73,0.3,0.2,0.6,2.2,29.8,39.56,300,9.2,,,,,,,,,,
4/19/2020 2:50,43.72,403,8.26,95.6,11.73,0.2,0.2,0.6,2.2,29.8,39.2,304,7.8,,,,,,,,,,
4/19/2020 3:00,43.7,403,8.26,95.5,11.73,0.2,0.2,0.5,2,29.8,39.02,316,10.1,,,,,,,,,,
4/19/2020 3:10,43.71,403,8.26,95.5,11.73,0.3,0.2,0.5,2,29.8,38.48,317,10.7,,,,,,,,,,
4/19/2020 3:20,43.69,403,8.26,95.5,11.73,0.3,0.2,0.5,2,29.8,38.12,319,10.7,,,,,,,,,,
4/19/2020 3:30,43.66,403,8.26,95.4,11.72,0.2,0.2,0.5,2.1,29.8,38.12,325,12.5,,,,,,,,,,
4/19/2020 3:40,43.66,403,8.25,95.5,11.72,0.2,0.2,0.5,2,29.8,38.66,331,10.5,,,,,,,,,,
4/19/2020 3:50,43.65,403,8.24,95.4,11.72,0.2,0.2,0.5,2.1,28.4,38.84,,,,,,,,,,,,
4/19/2020 4:00,43.63,403,8.23,95.5,11.73,0.2,0.2,0.5,2.1,28.4,38.66,,,,,,,,,,,,
4/19/2020 4:10,43.62,403,8.23,95.5,11.73,0.2,0.2,0.5,1.9,29.8,38.66,340,16.8,,,,,,,,,,
4/19/2020 4:20,43.6,403,8.22,95.4,11.73,0.2,0.2,0.5,2,28.4,38.48,,,,,,,,,,,,
4/19/2020 4:30,43.6,403,8.22,95.4,11.72,0.2,0.2,0.5,2.1,28.4,38.3,,,,,,,,,,,,
4/19/2020 4:40,43.57,403,8.22,95.3,11.73,0.2,0.2,0.5,2.1,28.4,37.94,,,,,,,,,,,,
4/19/2020 4:50,43.56,403,8.23,95.3,11.72,0.2,0.2,0.5,2.1,28.4,37.94,,,,,,,,,,,,
4/19/2020 5:00,43.54,403,8.23,95.3,11.73,0.2,0.2,0.5,2,29,37.94,356,20.4,,,,,,,,,,
4/19/2020 5:10,43.53,403,8.23,95.2,11.72,0.2,0.2,0.5,1.9,28.4,37.76,,,,,,,,,,,,
4/19/2020 5:20,43.51,403,8.23,95.2,11.72,0.3,0.2,0.5,2,28.4,37.22,,,,,,,,,,,,
4/19/2020 5:30,43.48,403,8.22,95.1,11.72,0.2,0.2,0.5,2,28.4,36.86,,,,,,,,,,,,
4/19/2020 5:40,43.48,403,8.23,95.1,11.72,0.2,0.2,0.5,2,28.4,36.5,,,,,,,,,,,,
4/19/2020 5:50,43.48,403,8.22,95.1,11.72,0.2,0.2,0.5,2,28.4,35.96,,,,,,,,,,,,
4/19/2020 6:00,43.46,403,8.22,95.1,11.71,0.3,0.2,0.5,2.1,29.9,35.78,359,15.7,,,,,,,,,,
4/19/2020 6:10,43.44,403,8.23,95.1,11.72,0.2,0.2,0.5,2,28.4,35.24,,,,,,,,,,,,
4/19/2020 6:20,43.43,403,8.23,95.1,11.71,0.2,0.2,0.5,2.1,28.4,34.88,,,,,,,,,,,,
4/19/2020 6:30,43.41,403,8.22,95,11.71,0.2,0.2,0.5,2,28.4,35.06,,,,,,,,,,,,
4/19/2020 6:40,43.42,403,8.22,95,11.71,0.2,0.2,0.5,2,29.9,34.88,347,13.9,,,,,,,,,,
4/19/2020 6:50,43.41,403,8.21,95,11.71,0.2,0.2,0.5,2,29.9,35.06,348,14.3,,,,,,,,,,
4/19/2020 7:00,43.4,403,8.22,95,11.71,0.2,0.2,0.5,1.9,29.9,34.88,346,16.8,,,,,,,,,,
4/19/2020 7:10,43.38,403,8.22,95,11.71,0.2,0.2,0.5,1.9,29.9,34.88,350,16.1,,,,,,,,,,
4/19/2020 7:20,43.38,403,8.22,95,11.71,0.2,0.2,0.5,1.9,29.9,34.88,345,17.4,,,,,,,,,,
4/19/2020 7:30,43.37,403,8.22,94.9,11.71,0.2,0.2,0.5,2,29.9,35.06,349,19.9,,,,,,,,,,
4/19/2020 7:40,43.37,403,8.21,94.9,11.71,0.2,0.2,0.5,1.9,29.9,34.88,346,21,,,,,,,,,,
4/19/2020 7:50,43.37,403,8.21,94.9,11.71,0.2,0.2,0.4,1.7,29.9,35.06,348,21.3,,,,,,,,,,
4/19/2020 8:00,43.36,403,8.22,94.9,11.71,0.2,0.2,0.5,1.9,29.9,34.7,353,21.5,,,,,,,,,,
4/19/2020 8:10,43.36,403,8.21,94.9,11.71,0.2,0.2,0.5,1.7,29.9,34.88,1,13.9,,,,,,,,,,
4/19/2020 8:20,43.36,403,8.22,94.9,11.71,0.2,0.2,0.4,1.6,29.9,35.06,7,16.3,,,,,,,,,,
4/19/2020 8:30,43.36,403,8.22,94.9,11.7,0.2,0.2,0.4,1.4,30,35.06,355,17.2,,,,,,,,,,
4/19/2020 8:40,43.36,403,8.22,94.9,11.7,0.2,0.2,0.5,1.7,30,35.24,22,18.8,,,,,,,,,,
4/19/2020 8:50,43.37,403,8.22,94.9,11.7,0.2,0.2,0.4,1.3,29.6,35.6,351,19.2,,,,,,,,,,
4/19/2020 9:00,43.37,403,8.22,94.9,11.7,0.2,0.2,0.4,1.3,30,35.6,10,19.9,,,,,,,,,,
4/19/2020 9:10,43.36,403,8.22,94.8,11.69,0.2,0.2,0.5,1.7,30,35.42,19,20.4,,,,,,,,,,
4/19/2020 9:20,43.37,403,8.22,94.7,11.68,0.2,0.2,0.3,1.2,30,35.6,358,20.1,,,,,,,,,,
4/19/2020 9:30,43.39,403,8.22,94.7,11.68,0.2,0.2,0.4,1.5,30,35.78,3,17.4,,,,,,,,,,
4/19/2020 9:40,43.4,403,8.22,94.8,11.68,0.2,0.2,0.4,1.5,30,36.14,33,16.8,,,,,,,,,,
4/19/2020 9:50,43.41,403,8.23,94.8,11.68,0.2,0.2,0.4,1.3,30,36.32,28,17.2,,,,,,,,,,
4/19/2020 10:00,43.42,403,8.22,94.9,11.69,0.2,0.2,0.4,1.4,30,36.5,13,14.3,,,,,,,,,,
4/19/2020 10:10,43.44,403,8.23,94.8,11.69,0.2,0.2,0.4,1.4,28.7,36.86,230,26.4,,,,,,,,,,
4/19/2020 10:20,43.46,403,8.23,94.9,11.69,0.2,0.2,0.4,1.5,28.9,36.86,194,27.1,,,,,,,,,,
4/19/2020 10:30,43.46,403,8.23,94.9,11.69,0.2,0.2,0.4,1.4,30,37.22,14,15.7,,,,,,,,,,
4/19/2020 10:40,43.49,403,8.23,94.9,11.69,0.2,0.2,0.4,1.6,30,37.4,12,14.5,,,,,,,,,,
4/19/2020 10:50,43.54,403,8.23,95,11.69,0.2,0.2,0.4,1.4,30,37.58,347,13.4,,,,,,,,,,
4/19/2020 11:00,43.58,403,8.23,95.1,11.69,0.2,0.2,0.4,1.4,30,37.76,346,11.6,,,,,,,,,,
4/19/2020 11:10,43.62,403,8.24,95.1,11.69,0.2,0.2,0.4,1.5,30,38.12,344,11.4,,,,,,,,,,
4/19/2020 11:20,43.63,403,8.24,95.2,11.69,0.2,0.2,0.4,1.4,30,38.48,356,11.9,,,,,,,,,,
4/19/2020 11:30,43.63,403,8.24,95.2,11.7,0.3,0.2,0.4,1.5,30,38.84,352,14.1,,,,,,,,,,
4/19/2020 11:40,43.65,403,8.24,95.2,11.7,0.2,0.2,0.4,1.6,30,39.02,348,13,,,,,,,,,,
4/19/2020 11:50,43.73,403,8.24,95.3,11.7,0.3,0.2,0.4,1.6,30,39.74,347,7.4,,,,,,,,,,
4/19/2020 12:00,43.75,403,8.24,95.4,11.7,0.2,0.2,0.4,1.4,30,39.92,349,10.5,,,,,,,,,,
4/19/2020 12:10,43.82,403,8.24,95.4,11.7,0.2,0.2,0.4,1.5,30,40.28,348,11.6,,,,,,,,,,
4/19/2020 12:20,43.81,403,8.24,95.4,11.7,0.2,0.2,0.4,1.5,30,41,339,6.9,,,,,,,,,,
4/19/2020 12:30,43.89,403,8.24,95.5,11.7,0.2,0.2,0.4,1.5,30,41.36,350,11,,,,,,,,,,
4/19/2020 12:40,44.01,403,8.25,95.7,11.7,0.2,0.2,0.4,1.3,30,41.36,4,5.1,,,,,,,,,,
4/19/2020 12:50,44.03,403,8.25,95.7,11.7,0.2,0.2,0.4,1.4,30,41.9,0,5.6,,,,,,,,,,
4/19/2020 13:00,44.09,403,8.25,95.8,11.7,0.2,0.2,0.4,1.5,30,42.98,28,5.4,,,,,,,,,,
4/19/2020 13:10,44.12,403,8.25,95.9,11.7,0.2,0.2,0.4,1.3,30,42.98,15,8.3,,,,,,,,,,
4/19/2020 13:20,44.22,403,8.25,96,11.71,0.2,0.2,0.4,1.3,30,43.52,7,4.7,,,,,,,,,,
4/19/2020 13:30,44.29,403,8.25,96.1,11.7,0.2,0.2,0.4,1.5,29.9,44.42,311,3.1,,,,,,,,,,
4/19/2020 13:40,44.35,403,8.25,96.2,11.7,0.2,0.2,0.4,1.3,29.9,44.96,285,0.9,,,,,,,,,,
4/19/2020 13:50,44.41,403,8.26,96.3,11.7,0.2,0.2,0.4,1.4,29.9,47.3,348,1.1,,,,,,,,,,
4/19/2020 14:00,44.38,403,8.26,96.3,11.71,0.2,0.2,0.4,1.5,29.9,48.2,3,1.3,,,,,,,,,,
4/19/2020 14:10,44.41,403,8.26,96.3,11.71,0.2,0.2,0.4,1.3,29.9,46.4,120,0.4,,,,,,,,,,
4/19/2020 14:20,44.38,403,8.26,96.3,11.71,0.2,0.2,0.4,1.5,29.9,48.02,8,0.4,,,,,,,,,,
4/19/2020 14:30,44.47,403,8.26,96.4,11.71,0.2,0.2,0.4,1.4,29.9,47.66,318,6.7,,,,,,,,,,
4/19/2020 14:40,45.01,403,8.26,97.1,11.71,0.2,0.1,0.3,1.2,29.9,46.04,332,8.3,,,,,,,,,,
4/19/2020 14:50,45.1,403,8.26,97.4,11.72,0.2,0.2,0.3,1.1,29.9,46.58,339,4.5,,,,,,,,,,
4/19/2020 15:00,45.13,403,8.26,97.5,11.74,0.2,0.2,0.3,1,29.9,46.4,343,6.9,,,,,,,,,,
4/19/2020 15:10,45.02,403,8.26,97.4,11.73,0.2,0.1,0.3,1,29.9,47.66,353,5.1,,,,,,,,,,
4/19/2020 15:20,45.11,403,8.26,97.5,11.74,0.2,0.2,0.4,1.3,29.9,48.02,352,5.8,,,,,,,,,,
4/19/2020 15:30,45.07,403,8.26,97.5,11.74,0.2,0.2,0.3,1.2,29.9,48.02,358,7.6,,,,,,,,,,
4/19/2020 15:40,45.35,403,8.26,97.9,11.75,0.2,0.2,0.3,1,29.9,47.66,26,7.2,,,,,,,,,,
4/19/2020 15:50,45.29,403,8.26,97.8,11.75,0.2,0.2,0.3,0.9,29.9,49.28,32,5.4,,,,,,,,,,
4/19/2020 16:00,45.45,403,8.26,98,11.75,0.2,0.2,0.3,1,29.9,50,65,2,,,,,,,,,,
4/19/2020 16:10,45.52,403,8.26,98.2,11.75,0.2,0.2,0.3,1.2,29.9,50.36,87,2,,,,,,,,,,
4/19/2020 16:20,45.55,403,8.26,98.2,11.75,0.2,0.2,0.3,1.2,29.9,50,75,2,,,,,,,,,,
4/19/2020 16:30,45.64,404,8.26,98.3,11.74,0.2,0.2,0.3,1.2,29.9,51.62,351,2.5,,,,,,,,,,
4/19/2020 16:40,45.72,403,8.26,98.3,11.74,0.2,0.2,0.3,1.2,29.9,53.24,46,0.7,,,,,,,,,,
4/19/2020 16:50,45.63,403,8.26,98.3,11.75,0.2,0.2,0.4,1.3,29.9,54.32,223,0.7,,,,,,,,,,
4/19/2020 17:00,45.59,403,8.26,98.2,11.75,0.2,0.2,0.4,1.4,29.9,53.06,298,2.9,,,,,,,,,,
4/19/2020 17:10,45.54,403,8.26,98.2,11.75,0.2,0.1,0.4,1.5,29.9,49.46,261,11,,,,,,,,,,
4/19/2020 17:20,45.67,403,8.26,98.4,11.75,0.2,0.2,0.4,1.4,29.9,50,353,6.5,,,,,,,,,,
4/19/2020 17:30,45.79,403,8.26,98.5,11.74,0.2,0.2,0.4,1.4,29.9,50.9,350,3.1,,,,,,,,,,
4/19/2020 17:40,46.25,403,8.26,98.9,11.72,0.2,0.2,0.4,1.3,29.9,51.44,317,2.2,,,,,,,,,,
4/19/2020 17:50,45.55,403,8.26,98.2,11.76,0.2,0.1,0.4,1.5,29.9,50.9,339,12.1,,,,,,,,,,
4/19/2020 18:00,46.07,403,8.26,98.7,11.73,0.2,0.2,0.4,1.3,29.9,49.46,307,7.4,,,,,,,,,,
4/19/2020 18:10,46.57,403,8.26,99.3,11.72,0.2,0.1,0.4,1.3,29.9,48.92,298,8.5,,,,,,,,,,
4/19/2020 18:20,46.53,403,8.26,99.3,11.73,0.2,0.2,0.4,1.3,29.8,48.38,348,9.2,,,,,,,,,,
4/19/2020 18:30,46.31,403,8.26,99,11.73,0.2,0.1,0.4,1.4,29.8,48.38,345,4.7,,,,,,,,,,
4/19/2020 18:40,46.25,403,8.26,99.1,11.74,0.2,0.1,0.4,1.4,29.8,48.74,342,6.3,,,,,,,,,,
4/19/2020 18:50,46.34,403,8.26,99.3,11.75,0.2,0.2,0.4,1.5,29.8,48.2,341,4.3,,,,,,,,,,
4/19/2020 19:00,46.2,403,8.26,99.1,11.76,0.2,0.2,0.4,1.6,29.8,48.02,340,6.9,,,,,,,,,,
4/19/2020 19:10,46.11,403,8.26,99.1,11.76,0.2,0.2,0.4,1.6,29.8,47.66,330,8.1,,,,,,,,,,
4/19/2020 19:20,46.02,403,8.26,98.9,11.76,0.2,0.1,0.5,1.7,29.8,48.02,327,6.5,,,,,,,,,,
4/19/2020 19:30,46.05,403,8.26,99,11.77,0.2,0.2,0.4,1.6,29.8,47.12,338,6.9,,,,,,,,,,
4/19/2020 19:40,45.92,403,8.26,98.9,11.77,0.2,0.2,0.4,1.6,29.8,46.22,318,7.4,,,,,,,,,,
4/19/2020 19:50,45.89,403,8.26,98.8,11.77,0.2,0.2,0.4,1.7,29.8,45.5,317,6.9,,,,,,,,,,
4/19/2020 20:00,45.74,403,8.26,98.6,11.77,0.2,0.2,0.4,1.6,29.8,45.32,319,6.7,,,,,,,,,,
4/19/2020 20:10,45.77,403,8.26,98.6,11.77,0.2,0.2,0.5,1.7,29.8,44.6,316,5.4,,,,,,,,,,
4/19/2020 20:20,45.7,403,8.26,98.6,11.77,0.2,0.1,0.5,1.8,29.8,44.42,308,6.9,,,,,,,,,,
4/19/2020 20:30,45.63,403,8.26,98.5,11.77,0.2,0.1,0.5,1.8,29.8,44.06,310,7.2,,,,,,,,,,
4/19/2020 20:40,45.54,403,8.26,98.4,11.78,0.2,0.2,0.5,2,29.8,43.88,314,6.9,,,,,,,,,,
4/19/2020 20:50,45.53,403,8.26,98.3,11.77,0.2,0.2,0.5,1.9,29.8,43.34,315,5.6,,,,,,,,,,
4/19/2020 21:00,45.47,403,8.26,98.3,11.77,0.2,0.2,0.5,2,29.8,42.8,305,4.7,,,,,,,,,,
4/19/2020 21:10,45.46,403,8.26,98.2,11.77,0.2,0.2,0.5,2.1,29.8,42.44,303,5.4,,,,,,,,,,
4/19/2020 21:20,45.4,403,8.26,98.2,11.77,0.2,0.2,0.5,2.1,29.8,42.26,299,6,,,,,,,,,,
4/19/2020 21:30,45.33,403,8.26,98.1,11.77,0.3,0.2,1,4.1,29.9,42.08,296,4.9,,,,,,,,,,
4/19/2020 21:40,45.35,403,8.26,98.1,11.77,0.2,0.2,0.6,2.4,29.9,41.72,293,5.1,,,,,,,,,,
4/19/2020 21:50,45.29,403,8.26,98,11.77,0.2,0.2,0.6,2.4,29.9,41.72,297,5.8,,,,,,,,,,
4/19/2020 22:00,45.24,403,8.26,98,11.77,0.2,0.2,0.6,2.3,29.9,42.08,298,7.2,,,,,,,,,,
4/19/2020 22:10,45.19,403,8.26,97.9,11.77,0.2,0.2,0.6,2.5,29.9,41.72,285,6.9,,,,,,,,,,
4/19/2020 22:20,45.15,403,8.26,97.8,11.77,0.2,0.2,0.6,2.3,29.9,41.72,296,8.5,,,,,,,,,,
4/19/2020 22:30,45.06,403,8.26,97.7,11.78,0.2,0.2,0.6,2.2,29.9,41.72,281,11.2,,,,,,,,,,
4/19/2020 22:40,45.02,403,8.26,97.7,11.78,0.2,0.2,0.6,2.2,29.9,41.54,296,13.4,,,,,,,,,,
4/19/2020 22:50,44.89,403,8.26,97.6,11.78,0.2,0.2,0.5,2,29.9,41.36,297,12.3,,,,,,,,,,
4/19/2020 23:00,44.8,403,8.26,97.5,11.78,0.2,0.2,0.5,2,29.9,40.82,288,12.5,,,,,,,,,,
4/19/2020 23:10,44.68,403,8.26,97.4,11.79,0.2,0.2,0.5,1.9,29.9,40.46,298,9.2,,,,,,,,,,
4/19/2020 23:20,44.66,403,8.26,97.3,11.79,0.2,0.2,0.5,2,29.9,40.46,295,12.3,,,,,,,,,,
4/19/2020 23:30,44.6,403,8.26,97.3,11.8,0.2,0.2,0.5,2.1,29.9,40.1,280,8.1,,,,,,,,,,
4/19/2020 23:40,44.53,403,8.26,97.3,11.8,0.2,0.2,0.5,2.1,29.9,39.74,296,9.6,,,,,,,,,,
4/19/2020 23:50,44.52,403,8.26,97.2,11.8,0.2,0.2,0.5,2,29.9,39.38,297,8.7,,,,,,,,,,
4/20/2020 0:00,44.5,403,8.26,97.2,11.8,0.2,0.2,0.5,2,29.9,39.2,280,7.2,,,,,,,,,,
4/20/2020 0:10,44.48,403,8.26,97.2,11.81,0.2,0.2,0.6,2.2,29.9,38.12,258,6.3,,,,,,,,,,
4/20/2020 0:20,44.49,403,8.26,97.2,11.81,0.2,0.2,0.6,2.2,29.8,37.94,253,7.4,,,,,,,,,,
4/20/2020 0:30,44.47,403,8.26,97.2,11.81,0.2,0.2,0.5,2,29.9,37.76,251,7.8,,,,,,,,,,
4/20/2020 0:40,44.47,403,8.26,97.2,11.81,0.3,0.2,0.6,2.3,29.8,37.22,247,6,,,,,,,,,,
4/20/2020 0:50,44.46,403,8.26,97.2,11.81,0.2,0.2,0.6,2.2,29.8,37.58,266,7.4,,,,,,,,,,
4/20/2020 1:00,44.45,403,8.26,97.2,11.81,0.2,0.2,0.6,2.2,29.8,37.4,246,7.8,,,,,,,,,,
4/20/2020 1:10,44.4,403,8.26,97.2,11.81,0.2,0.2,0.6,2.3,29.8,36.86,242,8.7,,,,,,,,,,
4/20/2020 1:20,44.42,403,8.27,97.2,11.81,0.2,0.2,0.6,2.4,29.8,37.04,243,7.6,,,,,,,,,,
4/20/2020 1:30,44.41,403,8.27,97.2,11.81,0.2,0.2,0.6,2.2,28.4,36.86,,,,,,,,,,,,
4/20/2020 1:40,44.39,403,8.27,97.2,11.81,0.2,0.2,0.6,2.2,29.8,36.68,222,7.6,,,,,,,,,,
4/20/2020 1:50,44.38,403,8.27,97.1,11.81,0.2,0.2,0.6,2.5,29.8,36.68,236,8.7,,,,,,,,,,
4/20/2020 2:00,44.39,403,8.27,97.1,11.81,0.2,0.2,0.6,2.3,29.8,37.04,230,8.9,,,,,,,,,,
4/20/2020 2:10,44.36,403,8.27,97.1,11.82,0.2,0.2,0.6,2.3,29.8,37.04,216,7.6,,,,,,,,,,
4/20/2020 2:20,44.37,403,8.27,97.1,11.81,0.2,0.2,0.6,2.2,29.8,36.86,220,9.4,,,,,,,,,,
4/20/2020 2:30,44.35,403,8.27,97.1,11.81,0.2,0.2,0.6,2.2,29.8,36.86,235,9.6,,,,,,,,,,
4/20/2020 2:40,44.31,403,8.27,97.1,11.82,0.2,0.2,0.6,2.2,29.8,36.86,214,9.8,,,,,,,,,,
4/20/2020 2:50,44.35,403,8.27,97.1,11.81,0.2,0.2,0.5,2,28.3,36.86,,,,,,,,,,,,
4/20/2020 3:00,44.29,403,8.26,97.1,11.82,0.2,0.2,0.5,2,28.3,37.04,,,,,,,,,,,,
4/20/2020 3:10,44.28,403,8.26,97.1,11.82,0.2,0.2,0.5,2,29.8,36.86,240,12.5,,,,,,,,,,
4/20/2020 3:20,44.3,403,8.26,97.1,11.82,0.2,0.2,0.5,2,29.8,37.04,244,10.3,,,,,,,,,,
4/20/2020 3:30,44.29,403,8.25,97.1,11.82,0.2,0.2,0.5,2,29.8,36.68,235,12.5,,,,,,,,,,
4/20/2020 3:40,44.25,403,8.25,97,11.82,0.2,0.2,0.5,1.9,29.8,36.5,245,14.5,,,,,,,,,,
4/20/2020 3:50,44.26,403,8.25,97,11.82,0.2,0.2,0.5,1.9,29.8,36.32,248,15.9,,,,,,,,,,
4/20/2020 4:00,44.25,403,8.25,97,11.82,0.2,0.2,0.5,2,29.8,35.96,244,11.4,,,,,,,,,,
4/20/2020 4:10,44.22,403,8.25,97,11.82,0.2,0.2,0.5,1.9,28.3,35.96,,,,,,,,,,,,
4/20/2020 4:20,44.23,403,8.25,96.9,11.81,0.2,0.2,0.5,2.1,29.8,35.78,244,14.5,,,,,,,,,,
4/20/2020 4:30,44.21,403,8.25,96.9,11.81,0.2,0.2,0.5,2,28.3,35.6,,,,,,,,,,,,
4/20/2020 4:40,44.2,403,8.25,96.9,11.81,0.2,0.2,0.5,2.1,28.3,35.78,,,,,,,,,,,,
4/20/2020 4:50,44.19,403,8.25,96.8,11.8,0.2,0.2,0.5,2,28.3,35.78,,,,,,,,,,,,
4/20/2020 5:00,44.18,403,8.25,96.8,11.8,0.2,0.2,0.5,2,28.3,36.32,,,,,,,,,,,,
4/20/2020 5:10,44.14,403,8.25,96.7,11.8,0.2,0.2,0.5,1.9,28.3,37.04,,,,,,,,,,,,
4/20/2020 5:20,44.15,403,8.25,96.7,11.8,0.2,0.2,0.5,2,29.8,37.4,230,13.4,,,,,,,,,,
4/20/2020 5:30,44.15,403,8.24,96.7,11.79,0.2,0.2,0.6,2.2,28.3,37.58,,,,,,,,,,,,
4/20/2020 5:40,44.13,403,8.24,96.7,11.79,0.2,0.2,0.5,2.1,28.3,37.58,,,,,,,,,,,,
4/20/2020 5:50,44.14,403,8.25,96.5,11.78,0.2,0.2,0.5,2.1,29.8,37.4,234,13.6,,,,,,,,,,
4/20/2020 6:00,44.13,403,8.25,96.5,11.78,0.2,0.2,0.5,2.1,28.3,37.58,,,,,,,,,,,,
4/20/2020 6:10,44.12,403,8.24,96.4,11.77,0.2,0.2,0.5,2.1,28.3,37.22,,,,,,,,,,,,
4/20/2020 6:20,44.11,403,8.24,96.4,11.76,0.2,0.2,0.5,2.1,28.3,37.04,,,,,,,,,,,,
4/20/2020 6:30,44.08,403,8.24,96.3,11.76,0.2,0.2,0.5,2.1,28.3,37.04,,,,,,,,,,,,
4/20/2020 6:40,44.09,403,8.24,96.3,11.76,0.2,0.2,0.5,2,29.7,37.4,244,20.6,,,,,,,,,,
4/20/2020 6:50,44.09,403,8.24,96.3,11.76,0.2,0.2,0.5,2,29.7,37.76,241,17.4,,,,,,,,,,
4/20/2020 7:00,44.06,403,8.23,96.3,11.76,0.2,0.2,0.5,2,29.7,37.58,236,19.5,,,,,,,,,,
4/20/2020 7:10,44.07,403,8.23,96.3,11.76,0.2,0.2,0.5,2,29.7,37.94,233,17.4,,,,,,,,,,
4/20/2020 7:20,44.05,403,8.24,96.2,11.76,0.2,0.2,0.5,2,29.7,38.48,247,20.8,,,,,,,,,,
4/20/2020 7:30,44.06,403,8.23,96.2,11.75,0.2,0.2,0.5,2,29.7,39.02,255,19.7,,,,,,,,,,
4/20/2020 7:40,44.06,403,8.23,96.2,11.75,0.2,0.2,0.5,1.9,29.7,39.2,246,22.6,,,,,,,,,,
4/20/2020 7:50,44.07,403,8.24,96.2,11.75,0.2,0.2,0.5,2,29.8,39.38,254,23,,,,,,,,,,
4/20/2020 8:00,44.07,403,8.24,96.2,11.75,0.2,0.2,0.5,1.7,29.8,39.92,249,17.4,,,,,,,,,,
4/20/2020 8:10,44.07,403,8.24,96.2,11.75,0.2,0.2,0.5,1.7,29.7,40.64,260,21.9,,,,,,,,,,
4/20/2020 8:20,44.09,403,8.24,96.2,11.75,0.2,0.2,0.5,1.8,29.7,41.72,252,17.4,,,,,,,,,,
4/20/2020 8:30,44.09,403,8.23,96.2,11.75,0.2,0.2,0.4,1.5,29.7,42.8,261,20.8,,,,,,,,,,
4/20/2020 8:40,44.1,403,8.23,96.2,11.74,0.2,0.2,0.4,1.4,29.7,43.52,255,18.8,,,,,,,,,,
4/20/2020 8:50,44.1,403,8.23,96.2,11.74,0.2,0.2,0.4,1.4,29.7,44.06,250,26.6,,,,,,,,,,
4/20/2020 9:00,44.14,403,8.24,96.3,11.75,0.2,0.2,0.4,1.5,29.7,44.24,253,23.5,,,,,,,,,,
4/20/2020 9:10,44.14,403,8.24,96.3,11.75,0.2,0.2,0.4,1.4,29.7,44.78,260,24.8,,,,,,,,,,
4/20/2020 9:20,44.15,403,8.23,96.3,11.75,0.2,0.2,0.4,1.4,29.7,45.14,253,22.1,,,,,,,,,,
4/20/2020 9:30,44.17,403,8.24,96.3,11.75,0.2,0.2,0.4,1.5,29.7,45.5,254,30.4,,,,,,,,,,
4/20/2020 9:40,44.18,403,8.23,96.3,11.75,0.2,0.2,0.4,1.5,29.7,46.04,256,32.9,,,,,,,,,,
4/20/2020 9:50,44.2,403,8.24,96.4,11.75,0.2,0.2,0.4,1.4,29.3,46.22,241,21.9,,,,,,,,,,
4/20/2020 10:00,44.22,403,8.24,96.4,11.75,0.2,0.2,0.4,1.6,29.7,46.4,256,27.1,,,,,,,,,,
4/20/2020 10:10,44.23,403,8.23,96.4,11.75,0.2,0.2,0.4,1.7,29.7,47.3,257,24.4,,,,,,,,,,
4/20/2020 10:20,44.24,403,8.23,96.4,11.75,0.2,0.2,0.4,1.6,29.7,47.66,255,19,,,,,,,,,,
4/20/2020 10:30,44.29,403,8.23,96.5,11.75,0.2,0.2,0.4,1.4,29.7,48.2,253,28.2,,,,,,,,,,
4/20/2020 10:40,44.28,403,8.24,96.5,11.75,0.2,0.2,0.4,1.4,29.7,48.74,249,30.9,,,,,,,,,,
4/20/2020 10:50,44.33,403,8.24,96.6,11.75,0.2,0.2,0.4,1.4,29.7,49.28,259,22.4,,,,,,,,,,
4/20/2020 11:00,44.35,403,8.24,96.6,11.75,0.2,0.2,0.4,1.5,29.7,49.46,259,26.8,,,,,,,,,,
4/20/2020 11:10,44.44,403,8.24,96.8,11.76,0.2,0.1,0.4,1.4,29.7,50,263,23.5,,,,,,,,,,
4/20/2020 11:20,44.41,403,8.24,96.8,11.76,0.2,0.2,0.4,1.6,29.7,50,254,24.6,,,,,,,,,,
4/20/2020 11:30,44.39,403,8.24,96.7,11.76,0.2,0.2,0.5,1.7,29.7,48.74,237,21.5,,,,,,,,,,
4/20/2020 11:40,44.47,403,8.24,96.8,11.76,0.2,0.2,0.4,1.3,29.7,51.62,259,24.4,,,,,,,,,,
4/20/2020 11:50,44.5,403,8.24,96.9,11.77,0.2,0.2,0.4,1.4,29.6,52.52,283,21,,,,,,,,,,
4/20/2020 12:00,44.53,403,8.24,96.9,11.76,0.2,0.2,0.4,1.5,29.7,52.16,263,23.3,,,,,,,,,,
4/20/2020 12:10,44.53,403,8.24,97,11.77,0.2,0.2,0.4,1.5,29.7,52.7,284,25.3,,,,,,,,,,
4/20/2020 12:20,44.61,403,8.24,97.1,11.77,0.2,0.2,0.3,1.2,29.6,54.14,269,24.6,,,,,,,,,,
4/20/2020 12:30,44.63,403,8.23,97.1,11.77,0.2,0.2,0.4,1.3,29.6,54.14,265,20.8,,,,,,,,,,
4/20/2020 12:40,44.65,403,8.24,97.1,11.77,0.2,0.2,0.3,1.2,29.6,54.86,276,25.9,,,,,,,,,,
4/20/2020 12:50,44.69,403,8.24,97.2,11.77,0.2,0.2,0.3,1.2,29.6,54.68,269,20.6,,,,,,,,,,
4/20/2020 13:00,44.74,403,8.24,97.3,11.77,0.2,0.2,0.4,1.3,29.6,55.4,272,21,,,,,,,,,,
4/20/2020 13:10,44.75,403,8.24,97.3,11.77,0.2,0.2,0.4,1.4,28.6,55.4,264,21.9,,,,,,,,,,
4/20/2020 13:20,44.75,403,8.25,97.3,11.77,0.2,0.2,0.4,1.4,29.6,55.94,256,26.8,,,,,,,,,,
4/20/2020 13:30,44.77,403,8.25,97.3,11.77,0.2,0.2,0.4,1.4,29.6,55.94,272,21.3,,,,,,,,,,
4/20/2020 13:40,44.81,403,8.24,97.4,11.77,0.2,0.2,0.4,1.3,29.6,56.84,293,25.1,,,,,,,,,,
4/20/2020 13:50,44.83,403,8.25,97.4,11.77,0.2,0.1,0.3,1.1,29.6,56.84,281,29.8,,,,,,,,,,
4/20/2020 14:00,44.87,403,8.24,97.5,11.77,0.2,0.1,0.3,0.9,29.6,57.2,289,25.9,,,,,,,,,,
4/20/2020 14:10,44.86,403,8.25,97.5,11.77,0.2,0.2,0.4,1.3,29.6,57.2,278,38,,,,,,,,,,
4/20/2020 14:20,44.89,403,8.25,97.5,11.77,0.2,0.2,0.3,1.1,29.6,57.38,306,24.4,,,,,,,,,,
4/20/2020 14:30,44.92,403,8.25,97.5,11.77,0.2,0.2,0.4,1.4,29.5,57.2,293,23,,,,,,,,,,
4/20/2020 14:40,44.92,403,8.24,97.5,11.77,0.2,0.2,0.4,1.6,29.6,57.02,286,21.9,,,,,,,,,,
4/20/2020 14:50,44.94,403,8.24,97.5,11.77,0.2,0.2,0.4,1.7,29.6,57.38,296,29.3,,,,,,,,,,
4/20/2020 15:00,44.95,403,8.24,97.5,11.77,0.2,0.2,0.3,1.1,29.6,57.2,291,20.6,,,,,,,,,,
4/20/2020 15:10,44.98,403,8.24,97.6,11.77,0.2,0.2,0.5,1.9,29.6,56.48,288,24.2,,,,,,,,,,
4/20/2020 15:20,45.01,403,8.25,97.6,11.77,0.2,0.2,0.3,1,29.6,57.2,303,32.2,,,,,,,,,,
4/20/2020 15:30,45.03,403,8.24,97.6,11.77,0.2,0.2,0.4,1.5,29.6,57.2,294,27.5,,,,,,,,,,
4/20/2020 15:40,45.03,403,8.25,97.6,11.76,0.2,0.2,0.4,1.6,29.6,56.12,329,30.9,,,,,,,,,,
4/20/2020 15:50,45.04,403,8.24,97.6,11.77,0.2,0.2,0.3,1.1,29.6,56.48,313,28.4,,,,,,,,,,
4/20/2020 16:00,45.07,403,8.25,97.7,11.77,0.2,0.2,0.3,1.2,29.6,56.66,300,25.7,,,,,,,,,,
4/20/2020 16:10,45.06,403,8.25,97.7,11.77,0.2,0.2,0.3,1.1,29.6,56.84,302,34.4,,,,,,,,,,
4/20/2020 16:20,45.08,403,8.24,97.7,11.77,0.2,0.2,0.4,1.5,29.6,55.94,304,31.5,,,,,,,,,,
4/20/2020 16:30,45.08,403,8.25,97.7,11.77,0.2,0.2,0.4,1.4,29.1,54.68,158,29.5,,,,,,,,,,
4/20/2020 16:40,45.11,403,8.24,97.8,11.77,0.2,0.2,0.3,1,29.6,55.22,315,19.7,,,,,,,,,,
4/20/2020 16:50,45.12,403,8.25,97.8,11.77,0.2,0.2,0.5,1.7,29.7,55.58,327,17.7,,,,,,,,,,
4/20/2020 17:00,45.13,403,8.25,97.8,11.77,0.2,0.2,0.4,1.4,29.6,55.22,326,25.9,,,,,,,,,,
4/20/2020 17:10,45.15,403,8.25,97.8,11.77,0.2,0.2,0.3,1.2,29.5,54.86,314,20.4,,,,,,,,,,
4/20/2020 17:20,45.15,403,8.25,97.8,11.77,0.2,0.1,0.3,1.2,29.7,55.22,302,26.4,,,,,,,,,,
4/20/2020 17:30,45.16,403,8.25,97.8,11.77,0.2,0.2,0.5,1.7,29.6,54.68,332,20.1,,,,,,,,,,
4/20/2020 17:40,45.17,403,8.25,97.8,11.76,0.2,0.1,0.4,1.3,29.6,54.5,334,28.9,,,,,,,,,,
4/20/2020 17:50,45.19,403,8.25,97.8,11.77,0.2,0.2,0.4,1.4,29.6,54.68,321,22.6,,,,,,,,,,
4/20/2020 18:00,45.19,403,8.25,97.8,11.77,0.2,0.2,0.5,1.7,29.7,53.78,312,28.6,,,,,,,,,,
4/20/2020 18:10,45.19,403,8.25,97.8,11.76,0.2,0.2,0.5,1.9,29.7,53.06,324,18.8,,,,,,,,,,
4/20/2020 18:20,45.18,403,8.25,97.9,11.77,0.2,0.2,0.5,2,29.6,52.88,331,27.5,,,,,,,,,,
4/20/2020 18:30,45.19,403,8.26,97.8,11.76,0.2,0.2,0.5,2.1,29.7,52.52,316,22.8,,,,,,,,,,
4/20/2020 18:40,45.19,403,8.26,97.8,11.77,0.2,0.2,0.5,2,29.7,52.7,308,28.2,,,,,,,,,,
4/20/2020 18:50,45.18,403,8.25,97.8,11.77,0.2,0.2,0.5,2,29.7,52.7,307,22.8,,,,,,,,,,
4/20/2020 19:00,45.18,403,8.25,97.8,11.77,0.2,0.2,0.5,2,29.7,51.98,315,21.5,,,,,,,,,,
4/20/2020 19:10,45.18,403,8.25,97.8,11.76,0.2,0.2,0.5,2,29.6,52.7,315,25.7,,,,,,,,,,
4/20/2020 19:20,45.18,403,8.25,97.8,11.76,0.2,0.2,0.6,2.2,29.7,52.34,320,24.8,,,,,,,,,,
4/20/2020 19:30,45.18,403,8.25,97.7,11.76,0.2,0.2,0.5,2,29.7,51.44,348,22.8,,,,,,,,,,
4/20/2020 19:40,45.18,403,8.26,97.7,11.75,0.2,0.2,0.5,2,29.7,50.72,343,13.6,,,,,,,,,,
4/20/2020 19:50,45.17,403,8.26,97.7,11.75,0.2,0.2,0.5,1.9,29.7,50,351,17.9,,,,,,,,,,
4/20/2020 20:00,45.16,403,8.26,97.7,11.76,0.2,0.2,0.5,2.1,29.7,49.64,340,15.4,,,,,,,,,,
4/20/2020 20:10,45.17,403,8.26,97.7,11.75,0.2,0.2,0.5,2.1,29.7,49.1,349,16.3,,,,,,,,,,
4/20/2020 20:20,45.15,403,8.26,97.7,11.76,0.2,0.2,0.5,2,29.7,48.92,343,18.3,,,,,,,,,,
4/20/2020 20:30,45.16,403,8.26,97.7,11.76,0.2,0.2,0.5,2.1,29.7,48.38,351,13.2,,,,,,,,,,
4/20/2020 20:40,45.16,403,8.25,97.7,11.75,0.2,0.2,0.6,2.2,29.7,48.02,344,16.6,,,,,,,,,,
4/20/2020 20:50,45.15,403,8.26,97.7,11.75,0.2,0.2,0.6,2.3,29.7,47.66,354,12.1,,,,,,,,,,
4/20/2020 21:00,45.15,403,8.25,97.6,11.75,0.2,0.2,0.6,2.3,104.1,46.94,,,,,,,,,,,,
4/20/2020 21:10,45.15,403,8.26,97.6,11.74,0.2,0.2,0.6,2.3,29.7,46.58,354,14.8,,,,,,,,,,
4/20/2020 21:20,45.14,403,8.26,97.6,11.74,0.2,0.2,0.6,2.3,29.8,46.58,346,22.4,,,,,,,,,,
4/20/2020 21:30,45.14,403,8.26,97.6,11.74,0.2,0.2,0.6,2.3,29.8,46.22,344,23.9,,,,,,,,,,
4/20/2020 21:40,45.13,403,8.25,97.6,11.74,0.2,0.2,0.6,2.3,29.8,45.68,347,19,,,,,,,,,,
4/20/2020 21:50,45.12,403,8.25,97.5,11.74,0.2,0.2,0.6,2.3,29.8,45.32,355,24.2,,,,,,,,,,
4/20/2020 22:00,45.13,403,8.25,97.5,11.73,0.3,0.2,0.6,2.2,29.8,44.6,352,17,,,,,,,,,,
4/20/2020 22:10,45.13,403,8.25,97.4,11.73,0.2,0.2,0.6,2.3,29.8,44.06,347,13.4,,,,,,,,,,
4/20/2020 22:20,45.11,403,8.25,97.4,11.73,0.3,0.2,0.6,2.3,29.8,44.06,350,20.6,,,,,,,,,,
4/20/2020 22:30,45.1,403,8.25,97.4,11.72,0.2,0.2,0.6,2.3,29.8,43.7,350,19.7,,,,,,,,,,
4/20/2020 22:40,45.09,403,8.25,97.4,11.73,0.2,0.2,0.6,2.3,29.8,43.34,352,18.8,,,,,,,,,,
4/20/2020 22:50,45.09,403,8.25,97.3,11.72,0.2,0.2,0.6,2.2,29.8,42.98,350,19,,,,,,,,,,
4/20/2020 23:00,45.08,403,8.25,97.3,11.72,0.2,0.2,0.6,2.2,29.8,42.26,6,14.1,,,,,,,,,,
4/20/2020 23:10,45.06,403,8.25,97.3,11.72,0.2,0.2,0.6,2.3,29.8,41.9,1,13.2,,,,,,,,,,
4/20/2020 23:20,45.06,403,8.26,97.3,11.72,0.2,0.2,0.6,2.3,29.8,41.36,348,15,,,,,,,,,,
4/20/2020 23:30,45.05,403,8.26,97.3,11.72,0.2,0.2,0.6,2.3,29.8,41.18,358,13.2,,,,,,,,,,
4/20/2020 23:40,45.06,403,8.26,97.3,11.72,0.2,0.2,0.6,2.3,29.8,40.82,357,13.9,,,,,,,,,,
4/20/2020 23:50,45.04,403,8.26,97.2,11.72,0.2,0.2,0.6,2.4,29.9,40.46,352,14.3,,,,,,,,,,
4/21/2020 0:00,45.06,403,8.25,97.2,11.71,0.2,0.2,0.6,2.3,29.9,40.28,353,17.4,,,,,,,,,,
4/21/2020 0:10,45.05,403,8.25,97.2,11.71,0.2,0.2,0.6,2.3,29.9,39.56,341,15.2,,,,,,,,,,
4/21/2020 0:20,45.03,403,8.25,97.2,11.71,0.2,0.2,0.6,2.3,29.9,39.02,348,16.3,,,,,,,,,,
4/21/2020 0:30,45.02,403,8.25,97.1,11.71,0.2,0.2,0.6,2.3,29.9,38.84,351,16.1,,,,,,,,,,
4/21/2020 0:40,45.01,403,8.26,97.1,11.71,0.2,0.2,0.6,2.2,29.9,38.48,349,14.5,,,,,,,,,,
4/21/2020 0:50,44.99,403,8.25,97.1,11.7,0.2,0.2,0.6,2.3,29.9,38.3,346,16.3,,,,,,,,,,
4/21/2020 1:00,44.99,403,8.25,97,11.7,0.2,0.2,0.6,2.3,29.8,38.12,343,12.3,,,,,,,,,,
4/21/2020 1:10,44.99,403,8.25,97,11.69,0.2,0.2,0.6,2.2,29.8,37.76,348,14.3,,,,,,,,,,
4/21/2020 1:20,44.97,403,8.25,96.9,11.69,0.2,0.2,0.6,2.4,29.8,37.58,342,12.1,,,,,,,,,,
4/21/2020 1:30,44.94,403,8.26,96.9,11.69,0.2,0.2,0.6,2.3,29.9,37.22,349,10.7,,,,,,,,,,
4/21/2020 1:40,45.01,403,8.25,96.8,11.67,0.2,0.2,0.6,2.4,29.4,37.04,340,9.8,,,,,,,,,,
4/21/2020 1:50,44.97,403,8.26,96.8,11.68,0.2,0.2,0.6,2.5,28,36.86,346,11.4,,,,,,,,,,
4/21/2020 2:00,44.96,403,8.26,96.8,11.68,0.2,0.2,0.6,2.3,29.9,36.14,308,9.2,,,,,,,,,,
4/21/2020 2:10,44.98,403,8.26,96.8,11.68,0.2,0.2,0.6,2.3,29.9,35.78,320,9.8,,,,,,,,,,
4/21/2020 2:20,44.92,403,8.26,96.7,11.67,0.2,0.2,0.6,2.3,29.9,35.24,312,8.5,,,,,,,,,,
4/21/2020 2:30,44.94,403,8.26,96.7,11.67,0.2,0.2,0.6,2.3,29.9,34.88,320,12.1,,,,,,,,,,
4/21/2020 2:40,44.9,403,8.26,96.6,11.66,0.2,0.2,0.6,2.3,29.9,34.7,308,10.3,,,,,,,,,,
4/21/2020 2:50,44.96,403,8.25,96.6,11.65,0.2,0.2,0.6,2.3,29.9,34.52,301,13.6,,,,,,,,,,
4/21/2020 3:00,44.92,403,8.25,96.6,11.66,0.2,0.2,0.6,2.4,28.4,34.34,,,,,,,,,,,,
4/21/2020 3:10,44.91,403,8.25,96.5,11.65,0.2,0.2,0.6,2.4,28.4,33.8,,,,,,,,,,,,
4/21/2020 3:20,44.92,403,8.25,96.5,11.65,0.2,0.2,0.6,2.3,28.4,33.62,,,,,,,,,,,,
4/21/2020 3:30,44.89,403,8.25,96.4,11.64,0.2,0.2,0.6,2.4,28.4,33.44,,,,,,,,,,,,
4/21/2020 3:40,44.88,403,8.25,96.4,11.64,0.2,0.2,0.6,2.3,28.4,33.44,,,,,,,,,,,,
4/21/2020 3:50,44.87,403,8.25,96.5,11.65,0.2,0.2,0.6,2.2,28.4,33.08,,,,,,,,,,,,
4/21/2020 4:00,44.87,403,8.25,96.4,11.64,0.2,0.2,0.6,2.3,28.4,32.54,,,,,,,,,,,,
4/21/2020 4:10,44.85,403,8.25,96.3,11.64,0.2,0.2,0.6,2.3,28.4,32.36,,,,,,,,,,,,
4/21/2020 4:20,44.86,403,8.25,96.2,11.63,0.2,0.2,0.6,2.5,28.4,32.18,,,,,,,,,,,,
4/21/2020 4:30,44.85,403,8.25,96.2,11.62,0.2,0.2,0.6,2.4,28.4,32,,,,,,,,,,,,
4/21/2020 4:40,44.8,403,8.25,96.2,11.63,0.2,0.2,0.6,2.3,28.4,32,,,,,,,,,,,,
4/21/2020 4:50,44.77,403,8.25,96.1,11.63,0.2,0.2,0.6,2.3,28.4,32,,,,,,,,,,,,
4/21/2020 5:00,44.81,403,8.25,96.1,11.62,0.2,0.2,0.6,2.4,28.5,31.64,,,,,,,,,,,,
4/21/2020 5:10,44.83,403,8.25,96,11.61,0.2,0.2,0.6,2.4,28.5,31.28,,,,,,,,,,,,
4/21/2020 5:20,44.83,403,8.25,95.9,11.6,0.2,0.2,0.6,2.2,28.5,31.28,,,,,,,,,,,,
4/21/2020 5:30,44.81,403,8.25,96,11.6,0.2,0.2,0.6,2.3,28.5,30.92,,,,,,,,,,,,
4/21/2020 5:40,44.82,403,8.25,95.9,11.59,0.2,0.2,0.6,2.4,28.5,30.74,,,,,,,,,,,,
4/21/2020 5:50,44.75,403,8.25,95.9,11.6,0.2,0.2,0.6,2.3,28.5,30.92,,,,,,,,,,,,
4/21/2020 6:00,44.75,403,8.25,95.8,11.59,0.2,0.2,0.6,2.4,28.5,30.92,,,,,,,,,,,,
4/21/2020 6:10,44.77,403,8.25,95.9,11.6,0.2,0.2,0.6,2.3,28.5,30.92,,,,,,,,,,,,
4/21/2020 6:20,44.75,403,8.25,95.9,11.6,0.2,0.2,0.6,2.3,28.5,30.92,,,,,,,,,,,,
4/21/2020 6:30,44.71,403,8.25,95.9,11.61,0.2,0.2,0.6,2.3,28.5,30.92,,,,,,,,,,,,
4/21/2020 6:40,44.71,403,8.25,95.9,11.6,0.2,0.2,0.5,2.1,30,30.74,297,13.9,,,,,,,,,,
4/21/2020 6:50,44.73,403,8.25,95.8,11.6,0.2,0.2,0.5,2.1,30,30.74,299,7.8,,,,,,,,,,
4/21/2020 7:00,44.7,403,8.25,95.8,11.6,0.2,0.2,0.6,2.2,30,30.74,304,8.5,,,,,,,,,,
4/21/2020 7:10,44.72,403,8.25,95.8,11.59,0.2,0.2,0.6,2.3,30,30.92,338,11,,,,,,,,,,
4/21/2020 7:20,44.72,403,8.25,95.7,11.59,0.2,0.2,0.6,2.3,30,30.92,309,14.8,,,,,,,,,,
4/21/2020 7:30,44.72,403,8.25,95.7,11.59,0.2,0.2,0.6,2.3,30,30.74,330,11.6,,,,,,,,,,
4/21/2020 7:40,44.69,403,8.25,95.8,11.6,0.2,0.2,0.6,2.4,30,31.1,315,10.3,,,,,,,,,,
4/21/2020 7:50,44.7,403,8.25,95.8,11.6,0.2,0.2,0.6,2.2,30,31.1,340,14.1,,,,,,,,,,
4/21/2020 8:00,44.68,403,8.25,95.8,11.6,0.2,0.2,0.5,1.9,30,31.64,333,8.9,,,,,,,,,,
4/21/2020 8:10,44.69,403,8.25,95.8,11.6,0.2,0.2,0.5,2,30,32,341,12.1,,,,,,,,,,
4/21/2020 8:20,44.69,403,8.25,95.9,11.61,0.2,0.2,0.5,1.7,30,32.18,340,8.7,,,,,,,,,,
4/21/2020 8:30,44.68,403,8.25,96,11.62,0.2,0.2,0.5,1.7,30,32.54,347,15,,,,,,,,,,
4/21/2020 8:40,44.69,403,8.25,96,11.63,0.2,0.2,0.5,1.9,30,33.26,357,9.2,,,,,,,,,,
4/21/2020 8:50,44.7,403,8.25,96,11.62,0.2,0.2,0.5,1.7,30,33.8,347,9.8,,,,,,,,,,
4/21/2020 9:00,44.73,403,8.25,96.1,11.63,0.2,0.2,0.4,1.5,30,34.34,2,6.7,,,,,,,,,,
4/21/2020 9:10,44.76,403,8.25,96.1,11.62,0.2,0.2,0.4,1.7,30,35.06,31,5.4,,,,,,,,,,
4/21/2020 9:20,44.74,403,8.26,96.1,11.63,0.2,0.2,0.5,1.8,30.1,35.78,342,7.2,,,,,,,,,,
4/21/2020 9:30,44.79,403,8.26,96.1,11.62,0.2,0.2,0.4,1.6,30,36.32,347,9.4,,,,,,,,,,
4/21/2020 9:40,44.8,403,8.26,96.2,11.63,0.2,0.2,0.5,1.7,30,36.68,300,3.1,,,,,,,,,,
4/21/2020 9:50,44.81,403,8.26,96.2,11.63,0.2,0.2,0.5,1.8,30.1,37.76,4,1.6,,,,,,,,,,
4/21/2020 10:00,44.88,403,8.26,96.3,11.63,0.2,0.2,0.5,1.8,30,38.48,352,6.7,,,,,,,,,,
4/21/2020 10:10,44.92,403,8.27,96.4,11.64,0.2,0.2,0.5,1.9,30,38.66,338,3.6,,,,,,,,,,
4/21/2020 10:20,45.01,403,8.27,96.6,11.64,0.2,0.2,0.5,1.7,30,39.2,341,3.6,,,,,,,,,,
4/21/2020 10:30,45.01,403,8.27,96.6,11.65,0.2,0.2,0.5,2,30,40.46,350,2.2,,,,,,,,,,
4/21/2020 10:40,45.08,403,8.27,96.7,11.65,0.2,0.2,0.5,1.8,30,41.18,18,3.8,,,,,,,,,,
4/21/2020 10:50,45.15,403,8.27,96.9,11.66,0.2,0.2,0.5,1.7,30,41.36,345,2.9,,,,,,,,,,
4/21/2020 11:00,45.22,403,8.27,97,11.66,0.2,0.2,0.5,1.9,30.1,42.26,164,1.3,,,,,,,,,,
4/21/2020 11:10,45.27,403,8.27,97.1,11.66,0.2,0.2,0.5,1.9,30.1,43.16,264,2,,,,,,,,,,
4/21/2020 11:20,45.41,403,8.27,97.2,11.66,0.2,0.2,0.5,1.7,30,44.06,76,0.4,,,,,,,,,,
4/21/2020 11:30,45.46,403,8.27,97.3,11.66,0.2,0.2,0.4,1.7,30.1,44.42,113,2,,,,,,,,,,
4/21/2020 11:40,45.51,403,8.28,97.4,11.66,0.2,0.2,0.5,1.9,30.1,43.52,148,4,,,,,,,,,,
4/21/2020 11:50,45.43,403,8.28,97.3,11.66,0.2,0.2,0.5,1.8,30.1,42.8,120,2.9,,,,,,,,,,
4/21/2020 12:00,45.4,403,8.28,97.3,11.67,0.2,0.2,0.5,2,30.1,43.7,86,3.8,,,,,,,,,,
4/21/2020 12:10,45.54,403,8.28,97.6,11.68,0.2,0.2,0.5,1.8,30,43.7,106,4.5,,,,,,,,,,
4/21/2020 12:20,45.65,403,8.28,97.7,11.68,0.2,0.2,0.5,1.7,30,44.06,177,1.8,,,,,,,,,,
4/21/2020 12:30,45.69,403,8.28,97.6,11.66,0.2,0.2,0.5,1.8,30,44.42,145,2,,,,,,,,,,
4/21/2020 12:40,45.64,403,8.28,97.6,11.66,0.2,0.2,0.5,1.9,30,45.86,115,4,,,,,,,,,,
4/21/2020 12:50,45.93,403,8.28,97.8,11.64,0.2,0.2,0.4,1.6,30,45.5,112,4.3,,,,,,,,,,
4/21/2020 13:00,45.77,403,8.28,97.7,11.65,0.2,0.2,0.5,1.8,30,46.4,70,4.3,,,,,,,,,,
4/21/2020 13:10,45.77,403,8.28,97.7,11.66,0.2,0.2,0.5,1.8,30,46.76,77,4.7,,,,,,,,,,
4/21/2020 13:20,46.25,403,8.28,98,11.62,0.2,0.2,0.4,1.6,30,46.22,114,6,,,,,,,,,,
4/21/2020 13:30,46.25,403,8.28,98.1,11.63,0.2,0.2,0.5,1.8,30,46.58,119,6.3,,,,,,,,,,
4/21/2020 13:40,46.23,403,8.28,98,11.62,0.2,0.2,0.4,1.7,30,46.94,121,5.1,,,,,,,,,,
4/21/2020 13:50,46.63,403,8.27,98.3,11.59,0.2,0.2,0.4,1.6,30,47.3,114,5.8,,,,,,,,,,
4/21/2020 14:00,46.56,403,8.27,98.4,11.61,0.2,0.1,0.4,1.6,30,49.28,93,3.1,,,,,,,,,,
4/21/2020 14:10,46.59,403,8.27,98.4,11.61,0.2,0.1,0.4,1.6,30,50.36,88,2.9,,,,,,,,,,
4/21/2020 14:20,46.68,403,8.27,98.3,11.59,0.2,0.1,0.4,1.6,30,50.54,73,5.6,,,,,,,,,,
4/21/2020 14:30,46.92,403,8.27,98.7,11.6,0.2,0.1,0.4,1.4,30,49.82,74,4.9,,,,,,,,,,
4/21/2020 14:40,46.82,403,8.27,98.7,11.6,0.2,0.2,0.4,1.4,30,50.9,64,6.3,,,,,,,,,,
4/21/2020 14:50,47.02,403,8.27,98.8,11.58,0.2,0.2,0.4,1.4,30,51.62,43,4.7,,,,,,,,,,
4/21/2020 15:00,47.02,403,8.27,98.7,11.58,0.2,0.2,0.4,1.5,30,51.8,28,4.3,,,,,,,,,,
4/21/2020 15:10,47.83,403,8.27,99.5,11.54,0.2,0.1,0.4,1.2,30,53.06,57,4.3,,,,,,,,,,
4/21/2020 15:20,47.5,403,8.27,99.2,11.57,0.2,0.1,0.4,1.3,30,52.16,64,4.3,,,,,,,,,,
4/21/2020 15:30,47.36,403,8.27,99.1,11.57,0.2,0.2,0.4,1.3,29.9,53.24,48,4.9,,,,,,,,,,
4/21/2020 15:40,48.54,404,8.26,100.3,11.53,0.2,0.1,0.3,1.2,30,53.42,25,6.3,,,,,,,,,,
4/21/2020 15:50,48.04,404,8.27,99.9,11.56,0.2,0.1,0.3,1.2,30,53.42,27,6.5,,,,,,,,,,
4/21/2020 16:00,47.29,403,8.27,99.1,11.59,0.2,0.2,0.4,1.4,30,55.76,46,2.2,,,,,,,,,,
4/21/2020 16:10,46.7,403,8.27,98.7,11.63,0.2,0.2,0.4,1.5,29.9,56.12,32,5.6,,,,,,,,,,
4/21/2020 16:20,47.4,403,8.27,99.4,11.6,0.2,0.2,0.4,1.4,29.9,56.12,53,1.8,,,,,,,,,,
4/21/2020 16:30,48.04,403,8.27,99.9,11.56,0.2,0.1,0.4,1.4,29.9,55.22,140,3.6,,,,,,,,,,
4/21/2020 16:40,48.34,403,8.27,100.2,11.55,0.2,0.1,0.4,1.4,29.9,55.04,141,2.9,,,,,,,,,,
4/21/2020 16:50,48.14,403,8.26,99.8,11.54,0.2,0.1,0.4,1.4,29.9,54.5,151,3.6,,,,,,,,,,
4/21/2020 17:00,47.62,403,8.27,99.8,11.62,0.2,0.1,0.4,1.2,29.9,56.12,154,4.7,,,,,,,,,,
4/21/2020 17:10,48.14,403,8.27,99.7,11.52,0.2,0.2,0.4,1.5,29.9,55.94,131,7.8,,,,,,,,,,
4/21/2020 17:20,48.56,402,8.27,100.4,11.54,0.2,0.1,0.4,1.3,29.9,56.48,136,11,,,,,,,,,,
4/21/2020 17:30,48.54,402,8.27,100.7,11.57,0.2,0.1,0.4,1.3,29.9,58.1,135,4.3,,,,,,,,,,
4/21/2020 17:40,48.59,402,8.28,100.9,11.58,0.2,0.1,0.4,1.4,29.9,57.38,203,6.5,,,,,,,,,,
4/21/2020 17:50,48.39,403,8.28,100.8,11.61,0.2,0.2,0.4,1.4,29.9,57.38,204,5.6,,,,,,,,,,
4/21/2020 18:00,48.06,403,8.28,100.6,11.63,0.2,0.1,0.4,1.4,29.9,56.3,180,5.6,,,,,,,,,,
4/21/2020 18:10,48.22,403,8.28,100.8,11.63,0.2,0.2,0.4,1.4,29.9,56.84,206,7.2,,,,,,,,,,
4/21/2020 18:20,48.45,403,8.28,101.1,11.63,0.2,0.1,0.4,1.5,29.9,56.3,211,6.5,,,,,,,,,,
4/21/2020 18:30,47.77,402,8.28,100.3,11.65,0.2,0.1,0.4,1.5,29.9,56.3,190,6.3,,,,,,,,,,
4/21/2020 18:40,47.55,403,8.28,100.3,11.68,0.2,0.2,0.4,1.6,29.9,55.94,178,4.7,,,,,,,,,,
4/21/2020 18:50,47.49,403,8.28,100.2,11.68,0.2,0.2,0.5,1.7,29.8,55.94,163,6.7,,,,,,,,,,
4/21/2020 19:00,47.32,403,8.28,100,11.69,0.2,0.2,0.5,1.7,29.8,55.4,164,8.7,,,,,,,,,,
4/21/2020 19:10,47.18,403,8.28,99.9,11.69,0.2,0.2,0.5,1.8,29.9,56.12,161,8.3,,,,,,,,,,
4/21/2020 19:20,47.16,403,8.28,99.9,11.7,0.2,0.2,0.4,1.7,29.8,56.48,154,6.9,,,,,,,,,,
4/21/2020 19:30,47.1,403,8.28,99.9,11.71,0.2,0.2,0.5,1.8,29.8,55.76,150,8.3,,,,,,,,,,
4/21/2020 19:40,47,403,8.28,99.8,11.7,0.2,0.2,0.4,1.6,29.8,55.22,147,7.6,,,,,,,,,,
4/21/2020 19:50,46.98,403,8.28,99.7,11.7,0.2,0.2,0.4,1.6,29.8,54.5,159,9.4,,,,,,,,,,
4/21/2020 20:00,46.82,403,8.28,99.5,11.71,0.2,0.2,0.4,1.6,29.8,53.06,155,6.3,,,,,,,,,,
4/21/2020 20:10,46.77,403,8.28,99.5,11.7,0.2,0.1,0.4,1.7,29.8,52.34,155,7.6,,,,,,,,,,
4/21/2020 20:20,46.68,403,8.28,99.3,11.71,0.2,0.1,0.5,2.1,29.8,51.8,156,6.7,,,,,,,,,,
4/21/2020 20:30,46.63,403,8.28,99.3,11.7,0.2,0.2,0.6,2.1,29.8,51.08,164,5.4,,,,,,,,,,
4/21/2020 20:40,46.59,403,8.28,99.2,11.7,0.2,0.2,0.6,2.2,29.8,51.08,157,8.1,,,,,,,,,,
4/21/2020 20:50,46.84,403,8.28,99.3,11.67,0.2,0.2,0.6,2.2,29.8,51.98,173,6.9,,,,,,,,,,
4/21/2020 21:00,46.92,403,8.28,99.3,11.66,0.2,0.2,0.5,2.1,29.8,51.62,168,8.7,,,,,,,,,,
4/21/2020 21:10,46.93,403,8.28,99.3,11.66,0.2,0.1,0.5,1.9,29.8,52.16,181,8.5,,,,,,,,,,
4/21/2020 21:20,46.92,403,8.27,99.2,11.65,0.2,0.1,0.5,1.7,29.8,51.98,193,11,,,,,,,,,,
4/21/2020 21:30,46.92,403,8.27,99.2,11.65,0.2,0.2,0.5,1.7,29.8,51.98,185,10.7,,,,,,,,,,
4/21/2020 21:40,46.82,403,8.27,99.1,11.65,0.2,0.2,0.5,1.8,29.8,51.98,185,12.1,,,,,,,,,,
4/21/2020 21:50,46.68,403,8.27,98.9,11.65,0.2,0.2,0.5,1.9,29.8,52.7,184,13,,,,,,,,,,
4/21/2020 22:00,46.66,403,8.27,98.8,11.65,0.2,0.2,0.5,1.9,29.8,52.34,193,13,,,,,,,,,,
4/21/2020 22:10,46.51,403,8.27,98.7,11.66,0.2,0.2,0.5,1.9,29.8,52.34,194,14.1,,,,,,,,,,
4/21/2020 22:20,46.39,403,8.26,98.6,11.66,0.2,0.2,0.5,2,29.8,52.16,193,11,,,,,,,,,,
4/21/2020 22:30,46.19,403,8.25,98.4,11.67,0.2,0.2,0.5,2,29.8,52.16,188,11.9,,,,,,,,,,
4/21/2020 22:40,46.09,403,8.25,98.3,11.67,0.2,0.2,0.5,1.9,29.8,51.98,194,12.8,,,,,,,,,,
4/21/2020 22:50,46.12,403,8.25,98.2,11.66,0.2,0.2,0.5,2,29.8,52.16,196,15,,,,,,,,,,
4/21/2020 23:00,46.14,403,8.25,98.2,11.66,0.2,0.2,0.5,1.9,29.8,52.52,187,15.7,,,,,,,,,,
4/21/2020 23:10,46.05,403,8.25,98.1,11.66,0.2,0.2,0.5,2.1,29.8,52.7,189,17.4,,,,,,,,,,
4/21/2020 23:20,46.12,403,8.25,98.2,11.66,0.2,0.2,0.5,2.1,29.8,52.34,198,15.2,,,,,,,,,,
4/21/2020 23:30,46.04,403,8.25,98.1,11.66,0.2,0.2,0.5,2,29.8,52.34,187,17.4,,,,,,,,,,
4/21/2020 23:40,46.08,403,8.25,98.1,11.66,0.2,0.2,0.5,2.1,29.8,51.98,205,14.8,,,,,,,,,,
4/21/2020 23:50,46.06,403,8.25,98.1,11.66,0.2,0.2,0.5,2,29.8,51.8,207,15.4,,,,,,,,,,
4/22/2020 0:00,46.02,403,8.25,98.1,11.66,0.2,0.2,0.5,2.1,29.8,51.62,196,15.4,,,,,,,,,,
4/22/2020 0:10,45.95,403,8.25,98.1,11.67,0.2,0.2,0.5,2,29.8,51.62,200,16.3,,,,,,,,,,
4/22/2020 0:20,45.95,403,8.25,98,11.67,0.2,0.2,0.5,2,29.8,51.62,204,16.6,,,,,,,,,,
4/22/2020 0:30,45.98,403,8.25,98,11.66,0.2,0.2,0.6,2.2,29.8,51.62,191,15,,,,,,,,,,
4/22/2020 0:40,45.89,403,8.25,97.9,11.67,0.2,0.2,0.6,2.2,29.8,52.34,200,15.2,,,,,,,,,,
4/22/2020 0:50,45.93,403,8.25,97.9,11.66,0.2,0.2,0.6,2.3,103.6,52.52,,,,,,,,,,,,
4/22/2020 1:00,45.98,403,8.25,98,11.65,0.2,0.2,0.5,2.1,29.8,52.16,205,22.1,,,,,,,,,,
4/22/2020 1:10,45.93,403,8.24,97.9,11.65,0.2,0.2,0.5,2.1,29.9,52.34,97,14.3,,,,,,,,,,
4/22/2020 1:20,45.93,403,8.25,97.9,11.65,0.2,0.2,0.6,2.2,29.8,52.52,212,20.1,,,,,,,,,,
4/22/2020 1:30,45.91,403,8.25,97.8,11.65,0.2,0.2,0.6,2.1,29.8,52.34,204,15.7,,,,,,,,,,
4/22/2020 1:40,45.9,403,8.25,97.8,11.64,0.2,0.2,0.5,2.1,29.8,52.34,206,16.1,,,,,,,,,,
4/22/2020 1:50,45.89,403,8.25,97.7,11.64,0.2,0.2,0.6,2.2,29.7,52.7,216,19,,,,,,,,,,
4/22/2020 2:00,45.87,403,8.24,97.7,11.64,0.2,0.2,0.6,2.2,29.8,52.88,209,16.8,,,,,,,,,,
4/22/2020 2:10,45.86,403,8.25,97.6,11.63,0.2,0.2,0.6,2.2,29.8,52.52,203,20.6,,,,,,,,,,
4/22/2020 2:20,45.84,403,8.25,97.6,11.63,0.2,0.2,0.6,2.2,29.7,52.16,197,20.4,,,,,,,,,,
4/22/2020 2:30,45.83,403,8.24,97.6,11.63,0.2,0.2,0.6,2.3,29.6,52.52,212,18.3,,,,,,,,,,
4/22/2020 2:40,45.83,403,8.25,97.6,11.63,0.2,0.2,0.6,2.2,29.7,52.34,207,18.1,,,,,,,,,,
4/22/2020 2:50,45.78,403,8.25,97.5,11.63,0.2,0.2,0.6,2.3,29.7,51.98,207,16.3,,,,,,,,,,
4/22/2020 3:00,45.78,403,8.25,97.5,11.63,0.2,0.2,0.6,2.3,29.7,51.62,202,15.7,,,,,,,,,,
4/22/2020 3:10,45.76,403,8.25,97.4,11.62,0.2,0.2,0.6,2.2,29.7,51.62,194,14.1,,,,,,,,,,
4/22/2020 3:20,45.75,403,8.25,97.4,11.62,0.2,0.2,0.6,2.3,29.7,51.62,201,17.9,,,,,,,,,,
4/22/2020 3:30,45.74,403,8.25,97.4,11.62,0.2,0.2,0.6,2.2,29.7,51.62,201,16.3,,,,,,,,,,
4/22/2020 3:40,45.72,403,8.25,97.3,11.62,0.2,0.2,0.6,2.2,29.7,51.26,196,17.2,,,,,,,,,,
4/22/2020 3:50,45.72,403,8.25,97.3,11.61,0.2,0.2,0.6,2.3,29.7,50.72,195,14.5,,,,,,,,,,
4/22/2020 4:00,45.71,403,8.24,97.3,11.61,0.2,0.2,0.6,2.2,29.7,51.08,204,15,,,,,,,,,,
4/22/2020 4:10,45.7,403,8.25,97.2,11.61,0.2,0.2,0.6,2.3,29.7,51.62,201,19.2,,,,,,,,,,
4/22/2020 4:20,45.69,403,8.24,97.2,11.61,0.2,0.2,0.6,2.2,29.7,51.44,206,16.3,,,,,,,,,,
4/22/2020 4:30,45.69,403,8.24,97.1,11.6,0.2,0.2,0.6,2.2,29.7,51.62,202,18.3,,,,,,,,,,
4/22/2020 4:40,45.68,403,8.24,97.1,11.59,0.2,0.2,0.6,2.3,29.7,51.44,207,20.1,,,,,,,,,,
4/22/2020 4:50,45.68,403,8.24,97,11.59,0.2,0.2,0.6,2.2,29,51.26,204,21,,,,,,,,,,
4/22/2020 5:00,45.68,403,8.24,96.9,11.58,0.2,0.2,0.6,2.3,29.5,51.44,207,17.2,,,,,,,,,,
4/22/2020 5:10,45.69,403,8.24,96.9,11.57,0.2,0.2,0.6,2.2,29.7,51.08,204,18.3,,,,,,,,,,
4/22/2020 5:20,45.68,403,8.24,96.9,11.57,0.2,0.2,0.6,2.2,28.3,51.62,211,19.5,,,,,,,,,,
4/22/2020 5:30,45.69,403,8.24,96.9,11.57,0.2,0.2,0.6,2.2,29.7,51.26,210,19.5,,,,,,,,,,
4/22/2020 5:40,45.69,403,8.24,96.8,11.57,0.2,0.2,0.6,2.2,29.7,50.9,212,17.7,,,,,,,,,,
4/22/2020 5:50,45.69,403,8.24,96.8,11.56,0.2,0.2,0.6,2.2,29.7,50.9,207,21.7,,,,,,,,,,
4/22/2020 6:00,45.69,403,8.24,96.8,11.56,0.2,0.2,0.6,2.2,29.7,51.26,221,21.9,,,,,,,,,,
4/22/2020 6:10,45.69,403,8.24,96.7,11.55,0.2,0.2,0.5,2.1,28.2,50.72,,,,,,,,,,,,
4/22/2020 6:20,45.7,403,8.24,96.7,11.55,0.2,0.2,0.6,2.2,29.7,50.54,210,17.4,,,,,,,,,,
4/22/2020 6:30,45.7,403,8.24,96.6,11.54,0.2,0.2,0.5,2.1,29.7,50.54,210,19,,,,,,,,,,
4/22/2020 6:40,45.7,403,8.24,96.6,11.54,0.2,0.2,0.5,2,29.7,50.36,218,18.1,,,,,,,,,,
4/22/2020 6:50,45.7,403,8.24,96.6,11.53,0.2,0.2,0.5,2,29.6,50.36,214,20.1,,,,,,,,,,
4/22/2020 7:00,45.71,403,8.24,96.6,11.53,0.2,0.1,0.5,2.1,29.7,51.08,219,19.2,,,,,,,,,,
4/22/2020 7:10,45.7,403,8.23,96.5,11.53,0.2,0.2,0.5,2,29.7,51.08,228,17,,,,,,,,,,
4/22/2020 7:20,45.7,403,8.24,96.5,11.53,0.2,0.2,0.5,2,29.7,51.26,231,21.5,,,,,,,,,,
