Time America/Chicago UTC-05:00,Roll_deg,Pitch_deg,Wind Speed_knots,Wind Direction_deg,Wind Speed_mph,Magnetic Wind Direction_deg,Wind Direction_deg,Dewpoint_f,Relative Humidity_%,Air Temperature_c,Rel. Barometric Pressure_inHg,HeadingT_deg,Heading_deg,COG_Mdeg,COG_Tdeg,Altitude_m,Longitude_deg,Latitude_deg,UTC Time,ODO at surface_mg/L,ODOSat at surface_%,pH at surface,Sp Cond at surface_uS/cm,Temperature at surface_F,Temperature_f,Carbon Dioxide_ppm,DOSat at 10 ft,Temperature at 10 ft,DO at 10 ft,DOSat at 16 ft,Temperature at 16 ft,DO at 16 ft,DOSat at 23 ft,Temperature at 23 ft,DO at 23 ft,DOSat at 30 ft,Temperature at 30 ft,DO at 30 ft,DOSat at 36 ft,Temperature at 36 ft,DO at 36 ft,DOSat at 43 ft,Temperature at 43 ft,DO at 43 ft,DOSat at 49 ft,Temperature at 49 ft,DO at 49 ft,DOSat at 56 ft,Temperature at 56 ft,DO at 56 ft,DOSat at 62 ft,Temperature at 62 ft,DO at 62 ft,DOSat at 69 ft,Temperature at 69 ft,DO at 69 ft,DOSat at 75 ft,Temperature at 75 ft,DO at 75 ft,DOSat at 82 ft,Temperature at 82 ft,DO at 82 ft
8/31/2021 0:00,,,,,,,,,,,,,,,,,,,,0,0,9.01,418,75.25,60.81,337.5,92.2,75.28,7.76,77,75.01,6.5,,,,90.1,74.74,7.62,82.5,74.39,7,19.7,67.11,1.81,11.6,58.11,1.18,12.9,54.69,1.37,6.2,53.36,0.67,-0.2,52.08,-0.02,-0.5,51.3,-0.06,-0.4,50.99,-0.05
8/31/2021 0:10,,,,,,,,,,,,,,,,,,,,0,0,8.98,418,75.24,60.82,177.6,90.9,75.22,7.65,82.1,75.02,6.92,,,,90.1,74.74,7.62,82.9,74.47,7.03,21.5,67.67,1.97,10.8,58.02,1.1,14.4,54.75,1.53,7,53.41,0.75,-0.2,52.13,-0.02,-0.5,51.39,-0.06,-0.4,50.99,-0.05
8/31/2021 0:20,,,,,,,,,,,,,,,,,,,,0,0,8.97,418,75.2,59.17,261.6,89.2,75.25,7.5,77,75.02,6.5,,,,90.1,74.74,7.62,83.3,74.47,7.07,22.3,67.87,2.03,9.9,58.32,1.01,16.6,54.84,1.76,7.5,53.45,0.81,-0.2,52.08,-0.02,-0.5,51.29,-0.06,-0.4,50.99,-0.05
8/31/2021 0:30,,,,,,,,,,,,,,,,,,,,0,0,8.94,418,75.16,60.74,262,88.4,75.24,7.43,75.6,75.01,6.38,,,,89.5,74.74,7.57,84.1,74.58,7.13,23.9,68.31,2.16,11.6,57.82,1.18,18.3,54.9,1.94,12.4,53.62,1.33,1.1,52.5,0.12,-0.5,51.38,-0.06,-0.4,51,-0.05
8/31/2021 0:40,,,,,,,,,,,,,,,,,,,,0,0,8.95,418,75.13,59.88,242.3,87.3,75.21,7.35,74.4,75.02,6.27,,,,89.8,74.74,7.59,83.3,74.58,7.06,23.8,68.23,2.16,13.8,57.32,1.42,19.1,54.94,2.02,12.2,53.69,1.31,0.6,52.46,0.07,-0.5,51.43,-0.06,-0.4,51.03,-0.05
8/31/2021 0:50,,,,,,,,,,,,,,,,,,,,0,0,8.98,419,75.11,60.71,240.3,86.7,75.2,7.3,71.5,75.02,6.03,,,,89.9,74.74,7.6,82.1,74.4,6.97,23.8,68.06,2.16,14.5,57.2,1.49,19.2,54.92,2.04,10.9,53.57,1.18,-0.2,52.33,-0.02,-0.5,51.42,-0.06,-0.4,51.03,-0.05
8/31/2021 1:00,,,,,,,,,,,,,,,,,,,,0,0,8.97,418,75.07,58.16,211.6,86,75.2,7.24,72.2,75.02,6.09,,,,90.2,74.74,7.63,82.3,74.39,6.99,20.2,67.44,1.84,15.1,56.95,1.56,17.4,54.84,1.84,7.7,53.44,0.83,0,52.34,0,-0.5,51.42,-0.06,-0.4,51.03,-0.05
8/31/2021 1:10,,,,,,,,,,,,,,,,,,,,0,0,8.96,419,75.06,58.87,247.4,86.1,75.15,7.25,70.2,74.97,5.92,,,,90,74.74,7.61,80.9,74.35,6.87,18.5,66.88,1.7,15,56.65,1.55,13.7,54.77,1.46,6.2,53.37,0.67,-0.2,52.26,-0.02,-0.5,51.42,-0.06,-0.4,51.03,-0.05
8/31/2021 1:20,,,,,,,,,,,,,,,,,,,,0,0,8.95,419,75.04,58.1,248.7,86.4,75.13,7.28,62.8,74.97,5.3,,,,90.3,74.77,7.63,79.9,74.36,6.78,19.7,67.27,1.8,15.4,56.38,1.6,13.7,54.65,1.46,7.6,53.42,0.82,-0.2,52.25,-0.02,-0.5,51.43,-0.06,-0.4,51.02,-0.05
8/31/2021 1:30,,,,,,,,,,,,,,,,,,,,0,0,8.95,419,75.02,58.85,239.7,85.1,75.09,7.18,66.1,74.99,5.58,,,,90.2,74.77,7.63,79.9,74.35,6.79,17.8,66.75,1.64,15.1,56.71,1.56,13.8,54.63,1.47,5.6,53.27,0.61,-0.2,52.13,-0.02,-0.5,51.41,-0.06,-0.4,51.01,-0.05
8/31/2021 1:40,,,,,,,,,,,,,,,,,,,,0,0,8.96,421,74.98,58.83,248.7,82.5,75.09,6.95,76.3,75.01,6.43,,,,90.5,74.78,7.66,80.5,74.34,6.84,20.5,67.76,1.87,13.5,57.34,1.39,14.4,54.74,1.53,5.7,53.32,0.62,-0.2,52.13,-0.02,-0.5,51.43,-0.06,-0.4,51.03,-0.05
8/31/2021 1:50,,,,,,,,,,,,,,,,,,,,0,0,8.94,421,74.97,59.77,243.6,79.7,75.08,6.72,70.8,74.97,5.97,,,,91.1,74.8,7.7,82.4,74.47,6.99,22.1,67.93,2.01,13.1,57.52,1.34,17.8,54.82,1.89,6.2,53.41,0.67,-0.2,52.13,-0.02,-0.5,51.43,-0.06,-0.4,51.03,-0.05
8/31/2021 2:00,,,,,,,,,,,,,,,,,,,,0,0,8.96,421,74.95,58.07,259.5,81.5,75.07,6.87,79.7,75.01,6.72,,,,91.2,74.78,7.71,82.3,74.47,6.98,20.9,67.79,1.9,11.3,57.57,1.15,18.7,54.9,1.99,6.7,53.44,0.72,-0.2,52.05,-0.02,-0.5,51.37,-0.06,-0.4,51.03,-0.05
8/31/2021 2:10,,,,,,,,,,,,,,,,,,,,0,0,8.94,421,74.93,58.06,235,80.9,75.04,6.82,76.2,75.05,6.43,,,,89.9,74.77,7.6,80.6,74.39,6.84,21.9,67.91,1.99,14.5,57.2,1.49,17.4,54.81,1.85,7,53.41,0.76,-0.2,52.04,-0.02,-0.5,51.33,-0.06,-0.4,51.04,-0.05
8/31/2021 2:20,,,,,,,,,,,,,,,,,,,,0,0,8.93,421,74.89,58.07,237.8,77.7,75.03,6.55,68.8,75.05,5.8,,,,89.8,74.76,7.6,78.7,74.27,6.69,21.9,67.99,1.99,14.9,57.2,1.53,14.9,54.74,1.59,5.9,53.37,0.64,-0.2,52.07,-0.02,-0.5,51.33,-0.06,-0.4,51.05,-0.05
8/31/2021 2:30,,,,,,,,,,,,,,,,,,,,0,0,8.93,421,74.88,59.76,240.1,81.7,75,6.89,61.1,75.06,5.15,,,,91.1,74.78,7.7,77.4,74.24,6.58,20.6,67.76,1.88,14.5,57.24,1.5,11.7,54.68,1.24,5.3,53.13,0.57,-0.2,52.04,-0.02,-0.5,51.37,-0.06,-0.4,51.07,-0.05
8/31/2021 2:40,,,,,,,,,,,,,,,,,,,,0,0,8.93,421,74.88,58.81,241.5,83.6,75.03,7.05,64.1,75.05,5.41,,,,88.2,74.71,7.46,75.5,74.07,6.43,18.5,67.58,1.69,14.2,57.32,1.46,13.5,54.77,1.43,4.2,52.93,0.46,-0.2,51.94,-0.02,-0.5,51.33,-0.06,-0.4,51.07,-0.05
8/31/2021 2:50,,,,,,,,,,,,,,,,,,,,0,0,8.93,420,74.86,58.85,238.9,83,75,7,66.9,75.02,5.64,,,,89,74.73,7.53,75.9,74.11,6.46,18.5,67.03,1.7,13.3,57.48,1.36,12.5,54.77,1.33,3.3,52.78,0.36,-0.2,51.91,-0.02,-0.5,51.29,-0.06,-0.4,51.07,-0.05
8/31/2021 3:00,,,,,,,,,,,,,,,,,,,,0,0,8.94,420,74.86,57.23,234.4,82.2,75,6.93,74,75.01,6.24,,,,88.9,74.74,7.52,77.1,74.15,6.56,18.5,67.03,1.7,12.8,57.7,1.31,11.7,54.65,1.25,3.2,52.73,0.35,-0.2,51.92,-0.02,-0.5,51.28,-0.06,-0.4,51.07,-0.05
8/31/2021 3:10,,,,,,,,,,,,,,,,,,,,0,0,8.91,420,74.84,59.68,242.5,82.9,74.99,6.99,67.3,75.01,5.68,,,,90.2,74.78,7.63,78.8,74.3,6.7,20.4,67.58,1.86,9.8,58.46,1,14.7,54.77,1.56,3,52.7,0.33,-0.2,51.92,-0.02,-0.5,51.29,-0.06,-0.4,51.07,-0.05
8/31/2021 3:20,,,,,,,,,,,,,,,,,,,,0,0,8.93,420,74.82,58.03,229.9,80.9,74.99,6.83,65.1,75.01,5.49,,,,88.9,74.71,7.53,77.5,74.22,6.59,16.9,67.08,1.55,10,58.52,1.02,16.7,54.85,1.78,3.8,52.78,0.41,-0.2,51.96,-0.02,-0.5,51.46,-0.06,-0.4,51.11,-0.05
8/31/2021 3:30,,,,,,,,,,,,,,,,,,,,0,0,8.93,420,74.82,57.16,229.2,81,74.97,6.83,71.3,75,6.02,,,,89,74.7,7.53,76.4,74.15,6.51,18.1,67.19,1.66,11,58.37,1.12,11.2,54.61,1.19,3,52.7,0.32,-0.2,51.96,-0.02,-0.5,51.51,-0.06,-0.4,51.16,-0.05
8/31/2021 3:40,,,,,,,,,,,,,,,,,,,,0,0,8.91,421,74.79,58.8,242.3,81.2,74.97,6.85,75.8,74.99,6.4,,,,88.8,74.7,7.51,74.9,73.99,6.38,21.2,67.71,1.94,10.4,58.39,1.06,11.5,54.56,1.22,3.9,52.82,0.43,-0.2,51.96,-0.02,-0.5,51.47,-0.06,-0.4,51.15,-0.05
8/31/2021 3:50,,,,,,,,,,,,,,,,,,,,0,0,8.91,421,74.79,58.06,225.5,80.7,74.96,6.81,74,74.98,6.25,,,,88.3,74.66,7.48,74.6,73.98,6.36,16.2,66.67,1.5,11.1,58.13,1.13,10.5,54.44,1.12,4.2,52.91,0.45,-0.2,52,-0.02,-0.5,51.53,-0.06,-0.4,51.19,-0.05
8/31/2021 4:00,,,,,,,,,,,,,,,,,,,,0,0,8.92,421,74.79,58.82,235.9,82.1,74.93,6.93,68.8,74.96,5.81,,,,88.4,74.67,7.48,74.4,73.97,6.34,17.8,66.58,1.65,14.7,57.12,1.51,11.1,54.42,1.19,4.7,52.95,0.51,-0.2,52.05,-0.02,-0.5,51.54,-0.06,-0.4,51.19,-0.05
8/31/2021 4:10,,,,,,,,,,,,,,,,,,,,0,0,8.91,421,74.79,58.11,223.8,84.2,74.92,7.11,64.6,74.96,5.45,,,,88.3,74.65,7.47,74.3,74.01,6.34,18,66.55,1.66,13.7,57.22,1.41,13.5,54.61,1.44,4.6,52.94,0.5,-0.2,52,-0.02,-0.5,51.5,-0.06,-0.4,51.13,-0.05
8/31/2021 4:20,,,,,,,,,,,,,,,,,,,,0,0,8.9,421,74.77,58.03,240.1,84.9,74.92,7.17,69.8,74.93,5.89,,,,88.2,74.68,7.46,74.3,73.92,6.34,18.7,66.86,1.72,14.5,57.32,1.49,16.9,54.78,1.8,5.6,53.2,0.6,-0.2,52,-0.02,-0.5,51.49,-0.06,-0.4,51.08,-0.05
8/31/2021 4:30,,,,,,,,,,,,,,,,,,,,0,0,8.93,421,74.77,59.74,236.8,86.6,74.92,7.31,74.4,74.94,6.28,,,,88.2,74.66,7.47,75.4,74.06,6.42,18.6,66.75,1.71,14.9,57.16,1.54,16.5,54.78,1.75,5.8,53.16,0.63,-0.2,51.98,-0.02,-0.5,51.5,-0.06,-0.4,51.07,-0.05
8/31/2021 4:40,,,,,,,,,,,,,,,,,,,,0,0,8.91,421,74.77,59.76,207,86.6,74.91,7.31,79,74.94,6.67,,,,89,74.7,7.53,77.5,74.15,6.6,17.1,66.35,1.58,13.6,57.55,1.39,16.9,54.9,1.79,5.9,53.39,0.63,-0.2,52.03,-0.02,-0.5,51.5,-0.06,-0.4,51.07,-0.05
8/31/2021 4:50,,,,,,,,,,,,,,,,,,,,0,0,8.91,421,74.75,59.77,294.5,86.4,74.91,7.29,76.2,74.93,6.44,,,,89.2,74.7,7.55,79.2,74.19,6.73,17.7,66.51,1.64,12.8,57.73,1.31,17.3,54.93,1.84,5.9,53.31,0.64,-0.2,52.04,-0.02,-0.5,51.5,-0.06,-0.4,51.07,-0.05
8/31/2021 5:00,,,,,,,,,,,,,,,,,,,,0,0,8.91,421,74.75,58.16,215.9,86.1,74.88,7.27,74.9,74.92,6.32,,,,89.2,74.7,7.55,78.4,74.2,6.67,22.4,67.45,2.05,12.2,57.93,1.24,17.8,54.93,1.88,5.8,53.23,0.62,-0.2,52.02,-0.02,-0.5,51.59,-0.06,-0.4,51.1,-0.05
8/31/2021 5:10,,,,,,,,,,,,,,,,,,,,0,0,8.89,421,74.71,57.43,271,86,74.88,7.26,75.1,74.91,6.34,,,,87.6,74.67,7.41,75.8,74.07,6.45,23.7,67.64,2.16,12.8,57.91,1.31,18.1,55.09,1.91,5.7,53.34,0.62,-0.2,52.13,-0.02,-0.5,51.65,-0.06,-0.4,51.2,-0.05
8/31/2021 5:20,,,,,,,,,,,,,,,,,,,,0,0,8.9,421,74.71,58.87,219.5,86.9,74.85,7.34,71.1,74.9,6,,,,89.1,74.72,7.54,78.6,74.16,6.69,20.8,67.19,1.91,12,57.73,1.22,18,54.98,1.9,5.2,53.07,0.56,-0.2,52.12,-0.02,-0.5,51.7,-0.06,-0.4,51.18,-0.05
8/31/2021 5:30,,,,,,,,,,,,,,,,,,,,0,0,8.9,420,74.71,58.82,267.1,86,74.84,7.26,76.3,74.89,6.45,,,,88.9,74.7,7.52,78,74.19,6.63,17.9,66.51,1.65,12.9,57.7,1.32,17.2,54.94,1.82,5.8,53.4,0.63,-0.2,52.16,-0.02,-0.5,51.71,-0.06,-0.4,51.21,-0.05
8/31/2021 5:40,,,,,,,,,,,,,,,,,,,,0,0,8.88,420,74.7,59.77,253.4,86.1,74.84,7.27,73.8,74.87,6.24,,,,88.9,74.7,7.52,78.4,74.23,6.66,19.7,66.91,1.81,12.6,57.82,1.29,17.1,54.86,1.81,5.7,53.45,0.62,-0.2,52.17,-0.02,-0.5,51.72,-0.06,-0.4,51.24,-0.05
8/31/2021 5:50,,,,,,,,,,,,,,,,,,,,0,0,8.84,419,74.7,58.04,238.5,85.2,74.84,7.2,81,74.86,6.84,,,,87.9,74.69,7.44,77.3,74.19,6.57,19.8,66.93,1.82,12.6,57.71,1.29,17.9,54.93,1.9,5.9,53.36,0.64,-0.2,52.12,-0.02,-0.5,51.68,-0.06,-0.4,51.25,-0.05
8/31/2021 6:00,,,,,,,,,,,,,,,,,,,,0,0,8.86,420,74.68,57.96,240.7,82.9,74.84,7.01,69.8,74.87,5.9,,,,88.8,74.7,7.52,78,74.27,6.63,17.8,66.59,1.64,12.7,57.77,1.3,17.5,54.95,1.86,5.7,53.36,0.62,-0.2,52.13,-0.02,-0.5,51.68,-0.06,-0.4,51.27,-0.05
8/31/2021 6:10,,,,,,,,,,,,,,,,,,,,0,0,8.86,420,74.66,58.04,235.8,80.6,74.84,6.81,66.5,74.86,5.62,,,,88.7,74.71,7.5,76.7,74.15,6.53,19.8,66.69,1.83,11.3,58.02,1.16,18.5,55.02,1.96,5.8,53.48,0.63,-0.2,52.11,-0.02,-0.5,51.62,-0.06,-0.4,51.29,-0.05
8/31/2021 6:20,,,,,,,,,,,,,,,,,,,,0,0,8.86,420,74.66,57.98,237.9,80.2,74.83,6.78,65.3,74.85,5.52,,,,89.2,74.74,7.55,78.1,74.26,6.64,20.3,66.97,1.87,12.3,57.83,1.25,19.1,55.22,2.02,5.8,53.41,0.63,-0.2,52.08,-0.02,-0.5,51.64,-0.06,-0.4,51.32,-0.05
8/31/2021 6:30,,,,,,,,,,,,,,,,,,,,0,0,8.85,421,74.64,58.8,245.7,80.2,74.83,6.78,66.5,74.85,5.62,,,,88.9,74.74,7.52,77.1,74.22,6.55,18.9,67.12,1.73,12.9,57.76,1.33,19.4,55.11,2.06,5.4,53.23,0.58,-0.2,52.09,-0.02,-0.5,51.69,-0.06,-0.4,51.33,-0.05
8/31/2021 6:40,,,,,,,,,,,,,,,,,,,,0,0,8.88,421,74.64,58.82,248.4,78.7,74.83,6.65,70.3,74.85,5.94,,,,88,74.7,7.45,77.8,74.24,6.62,18.4,67.15,1.69,11.8,57.9,1.2,19.2,55.02,2.03,4.3,52.96,0.47,-0.2,52.08,-0.02,-0.5,51.67,-0.06,-0.4,51.34,-0.05
8/31/2021 6:50,,,,,,,,,,,,,,,,,,,,0,0,8.9,421,74.64,57.96,243.3,80.5,74.81,6.8,68.8,74.85,5.81,,,,88.4,74.7,7.48,77.5,74.19,6.59,18.5,66.86,1.71,12.6,57.81,1.29,14.8,54.8,1.57,4.5,52.99,0.48,-0.2,52.08,-0.02,-0.5,51.68,-0.06,-0.4,51.37,-0.05
8/31/2021 7:00,,,,,,,,,,,,,,,,,,,,0,0,8.89,421,74.64,59.73,248.7,80.7,74.8,6.82,68.7,74.83,5.8,,,,88.5,74.72,7.49,78.5,74.27,6.67,18.9,67.15,1.73,13.3,57.53,1.37,11.4,54.73,1.21,3.8,52.91,0.41,-0.2,52.05,-0.02,-0.5,51.67,-0.06,-0.4,51.38,-0.05
8/31/2021 7:10,,,,,,,,,,,,,,,,,,,,0,0,8.9,421,74.64,57.94,217,83.8,74.79,7.09,72.6,74.81,6.13,,,,91,74.73,7.69,77.6,74.18,6.6,19.6,67.24,1.8,13.7,57.52,1.41,8.8,54.51,0.94,4.1,52.98,0.44,-0.2,52.08,-0.02,-0.5,51.63,-0.06,-0.4,51.4,-0.05
8/31/2021 7:20,,,,,,,,,,,,,,,,,,,,0,0,8.95,421,74.68,57.88,286.7,86.9,74.79,7.35,81.3,74.81,6.87,,,,89.9,74.72,7.61,78.5,74.15,6.68,20.2,67.51,1.84,14.4,57.41,1.48,10.3,54.42,1.1,4.2,52.94,0.46,-0.2,52.15,-0.02,-0.5,51.64,-0.06,-0.4,51.41,-0.05
8/31/2021 7:30,,,,,,,,,,,,,,,,,,,,0,0,9.02,421,74.71,58.79,242.9,87,74.76,7.36,81.2,74.81,6.86,,,,90,74.7,7.62,78.7,74.19,6.69,20.6,67.67,1.88,14.5,57.04,1.5,9.5,54.44,1.01,4.3,53.01,0.47,-0.2,52.22,-0.02,-0.5,51.7,-0.06,-0.4,51.41,-0.05
8/31/2021 7:40,,,,,,,,,,,,,,,,,,,,0,0,8.95,420,74.7,57.19,224.8,86.3,74.76,7.3,77.6,74.8,6.56,,,,92.1,74.7,7.8,80.4,74.27,6.84,21.5,67.87,1.96,14.9,56.82,1.54,9.6,54.56,1.02,4.1,53.02,0.45,-0.2,52.25,-0.02,-0.5,51.64,-0.06,-0.4,51.41,-0.05
8/31/2021 7:50,,,,,,,,,,,,,,,,,,,,0,0,8.98,420,74.68,57.23,273.5,88.4,74.75,7.48,84.7,74.77,7.16,,,,91.7,74.7,7.76,81.2,74.31,6.89,24.1,68.09,2.18,14.9,56.8,1.54,10,54.57,1.07,3.9,52.98,0.42,-0.2,52.22,-0.02,-0.5,51.62,-0.06,-0.4,51.43,-0.05
8/31/2021 8:00,,,,,,,,,,,,,,,,,,,,,,,,,58.82,246.6,87.1,74.73,7.37,84,74.78,7.1,,,,93,74.72,7.87,81.1,74.3,6.89,24.8,68.23,2.25,14.7,56.92,1.52,10.2,54.61,1.09,3.8,52.99,0.41,-0.2,52.22,-0.02,-0.5,51.64,-0.06,-0.4,51.45,-0.05
8/31/2021 8:10,,,,,,,,,,,,,,,,,,,,,,,,,58.65,337.8,88.1,74.75,7.45,83,74.77,7.02,,,,92.5,74.7,7.83,80.9,74.31,6.87,26.2,68.55,2.37,14.8,57.05,1.53,11,54.65,1.17,3.9,53,0.42,-0.2,52.25,-0.02,-0.5,51.72,-0.06,-0.4,51.45,
8/31/2021 8:20,,,,,,,,,,,,,,,,,,,,,,,,,59.05,207.8,89.8,74.75,7.59,88,74.77,7.44,,,,92.4,74.7,7.82,80,74.26,6.8,25.1,68.35,2.28,14.9,56.63,1.55,10.2,54.57,1.08,3.8,52.97,0.41,-0.2,52.17,-0.02,-0.5,51.62,-0.06,-0.4,51.45,-0.05
8/31/2021 8:30,,,,,,,,,,,,,,,,,,,,,,,,,59.54,229.5,89.8,74.75,7.6,88.8,74.77,7.51,,,,91.6,74.7,7.75,80.8,74.27,6.87,25.7,68.37,2.33,14.8,56.72,1.53,9.8,54.53,1.05,3.7,52.95,0.41,-0.2,52.15,-0.02,-0.5,51.58,-0.06,-0.4,51.45,
8/31/2021 8:40,,,,,,,,,,,,,,,,,,,,,,,,,59.98,247.3,88.9,74.75,7.51,82.7,74.77,6.99,,,,92.7,74.7,7.85,79.9,74.23,6.8,26.1,68.55,2.36,14.7,56.59,1.53,11.3,54.38,1.2,5.9,53.21,0.64,-0.2,52.19,-0.02,-0.5,51.59,-0.06,-0.4,51.4,
8/31/2021 8:50,,,,,,,,,,,,,,,,,,,,,,,,,60.71,214.6,88,74.74,7.44,80.2,74.77,6.78,,,,92.8,74.7,7.86,78.5,74.19,6.68,25.4,68.51,2.3,14.9,56.67,1.55,11.4,54.23,1.22,5.8,53.21,0.63,-0.2,52.2,-0.02,-0.5,51.59,-0.06,-0.4,51.32,-0.05
8/31/2021 9:00,,,,,,,,,,,,,,,,,,,,,,,,,60.99,288.4,88.4,74.75,7.48,81.3,74.77,6.88,,,,92.6,74.69,7.84,76.8,74.08,6.54,25.1,68.44,2.27,13.6,57.41,1.4,10.8,54.38,1.15,6.3,53.29,0.68,-0.2,52.26,-0.02,-0.5,51.64,-0.06,-0.4,51.28,
8/31/2021 9:10,,,,,,,,,,,,,,,,,,,,,,,,,61.26,453.6,89.9,74.74,7.61,82.9,74.77,7.01,,,,92.4,74.69,7.82,78.8,74.17,6.7,26.3,68.66,2.37,14.7,57.07,1.52,10.2,54.4,1.08,5.9,53.28,0.63,-0.2,52.21,-0.02,-0.5,51.59,-0.06,-0.4,51.27,
8/31/2021 9:20,,,,,,,,,,,,,,,,,,,,,,,,,62.23,275.2,88.8,74.75,7.51,83.5,74.77,7.06,,,,92.7,74.7,7.84,77.2,74.07,6.57,27,68.67,2.43,14.7,56.91,1.53,10.4,54.36,1.11,4.3,53.12,0.47,-0.2,52.2,-0.02,-0.5,51.59,-0.06,-0.4,51.23,
8/31/2021 9:30,,,,,,,,,,,,,,,,,,,,,,,,,63.12,207.4,89.2,74.73,7.55,83.7,74.77,7.08,,,,92.5,74.67,7.83,76,73.88,6.48,28.8,68.86,2.6,14.1,57.16,1.46,10.1,54.42,1.08,4.7,53.16,0.5,-0.2,52.21,-0.02,-0.5,51.57,-0.06,-0.4,51.16,
8/31/2021 9:40,,,,,,,,,,,,,,,,,,,,,,,,,62.57,285.7,90.6,74.74,7.67,89.5,74.77,7.57,,,,93.2,74.69,7.89,76.8,73.87,6.55,27.2,68.52,2.46,14.1,57.16,1.46,9.8,54.44,1.04,4.8,53.2,0.52,-0.2,52.24,-0.02,-0.5,51.55,-0.06,-0.4,51.11,
8/31/2021 9:50,,,,,,,,,,,,,,,,,,,,,,,,,62.16,294.6,90.5,74.74,7.66,87.1,74.77,7.36,,,,93.2,74.69,7.89,72.6,73.5,6.22,30.6,69.07,2.75,14.4,57.19,1.48,9.6,54.48,1.03,5.2,53.22,0.57,-0.2,52.21,-0.02,-0.5,51.54,-0.06,-0.4,51.07,
8/31/2021 10:00,,,,,,,,,,,,,,,,,,,,,,,,,62.33,343.2,90.6,74.75,7.67,82.4,74.77,6.97,,,,93.4,74.7,7.9,78,73.97,6.65,29.1,68.9,2.62,14.4,57.15,1.48,10.2,54.53,1.09,4.9,53.17,0.53,-0.2,52.25,-0.02,-0.5,51.51,-0.06,-0.4,51.06,
8/31/2021 10:10,,,,,,,,,,,,,,,,,,,,,,,,,63.91,344.1,90.8,74.73,7.68,89.3,74.77,7.55,,,,93.4,74.7,7.9,74.8,73.82,6.39,25.2,68.32,2.28,14.7,56.99,1.52,9.9,54.46,1.06,4.4,53.13,0.48,-0.2,52.22,-0.02,-0.5,51.54,-0.06,-0.4,51.03,
8/31/2021 10:20,,,,,,,,,,,,,,,,,,,,,,,,,65.01,273.5,89.6,74.75,7.58,87.3,74.77,7.38,,,,93.5,74.69,7.91,71,73.47,6.08,24.6,68.26,2.23,14.2,57.2,1.47,10.4,54.44,1.11,4.4,53.15,0.47,-0.2,52.22,-0.02,-0.5,51.54,-0.06,-0.4,51.01,
8/31/2021 10:30,,,,,,,,,,,,,,,,,,,,,,,,,66.07,257.7,89.9,74.75,7.6,86.1,74.77,7.28,,,,92.8,74.69,7.85,72.2,73.51,6.19,23.3,67.86,2.12,13.3,57.44,1.36,10.4,54.57,1.11,4.1,53.11,0.45,-0.2,52.16,-0.02,-0.5,51.41,-0.06,-0.4,50.99,
8/31/2021 10:40,,,,,,,,,,,,,,,,,,,,,,,,,67.2,236.9,90.6,74.76,7.66,88.4,74.77,7.47,,,,92.8,74.7,7.85,73.2,73.64,6.26,23.2,67.85,2.11,13.9,57.43,1.43,12.3,54.69,1.31,5.2,53.21,0.56,-0.2,52.2,-0.02,-0.5,51.46,-0.06,-0.4,50.99,
8/31/2021 10:50,,,,,,,,,,,,,,,,,,,,,,,,,68.62,255,91,74.79,7.69,86.8,74.78,7.34,,,,92.7,74.69,7.84,72.2,73.44,6.19,24.6,67.94,2.23,13,57.53,1.34,15.1,54.74,1.6,6.4,53.32,0.69,-0.2,52.22,-0.02,-0.5,51.51,-0.06,-0.4,50.94,
8/31/2021 11:00,,,,,,,,,,,,,,,,,,,,,,,,,68.82,303.6,92,74.79,7.78,88.2,74.77,7.45,,,,92.5,74.69,7.83,67.2,73.06,5.79,23.4,67.91,2.13,12,58.22,1.22,15.6,54.78,1.66,8.9,53.44,0.96,-0.2,52.33,-0.02,-0.5,51.54,-0.06,-0.4,50.98,
8/31/2021 11:10,,,,,,,,,,,,,,,,,,,,,,,,,69.47,213.5,91.7,74.8,7.75,87.7,74.8,7.41,,,,92.5,74.69,7.83,70.8,73.22,6.08,25.5,68.23,2.31,13,57.76,1.33,18,54.86,1.91,9.6,53.57,1.03,0.1,52.42,0.02,-0.5,51.55,-0.06,-0.4,50.94,
8/31/2021 11:20,,,,,,,,,,,,,,,,,,,,,,,,,69.16,238.2,92.2,74.82,7.79,89.7,74.78,7.59,,,,92.9,74.7,7.86,71.3,73.34,6.12,25.7,68.27,2.33,13.6,57.35,1.4,19.7,54.98,2.09,10,53.62,1.07,-0.1,52.32,-0.02,-0.5,51.48,-0.06,-0.4,50.95,
8/31/2021 11:30,,,,,,,,,,,,,,,,,,,,,,,,,69.5,306.8,91.8,74.82,7.76,86.6,74.8,7.32,,,,92.7,74.7,7.84,72.2,73.4,6.19,25.5,68.14,2.32,14.6,56.95,1.51,19.7,55.06,2.08,11.2,53.82,1.2,0.7,52.54,0.08,-0.5,51.46,-0.06,-0.4,50.92,-0.05
8/31/2021 11:40,,,,,,,,,,,,,,,,,,,,,,,,,70.23,249.9,92,74.83,7.77,86.2,74.81,7.28,,,,92.4,74.69,7.82,71.7,73.37,6.16,25.7,68.15,2.33,13.8,57.41,1.41,19.7,55.02,2.09,10,53.68,1.08,-0.1,52.38,-0.02,-0.5,51.51,-0.06,-0.4,50.98,-0.05
8/31/2021 11:50,,,,,,,,,,,,,,,,,,,,,,,,,70.71,320.2,92.4,74.86,7.8,86.8,74.81,7.34,,,,92.6,74.7,7.84,72.7,73.5,6.23,24.3,67.99,2.21,13.6,57.73,1.39,19,54.94,2.01,10.2,53.7,1.09,-0.2,52.2,-0.02,-0.5,51.5,-0.06,-0.4,50.98,
8/31/2021 12:00,,,,,,,,,,,,,,,,,,,,,,,,,70.76,166.7,92.3,74.83,7.8,86.8,74.81,7.34,,,,92.7,74.7,7.85,72.3,73.43,6.2,26.4,68.19,2.4,12.9,58.03,1.32,17.1,54.77,1.81,9.1,53.47,0.99,-0.2,52.13,-0.02,-0.5,51.46,-0.06,-0.4,51.03,
8/31/2021 12:10,,,,,,,,,,,,,,,,,,,,,,,,,71.14,331.2,92.2,74.84,7.79,84.3,74.81,7.13,,,,92,74.7,7.79,72.1,73.43,6.18,25.4,68.07,2.31,12.5,57.93,1.28,16.8,54.89,1.78,6.8,53.36,0.74,-0.2,52.09,-0.02,-0.5,51.42,-0.06,-0.4,50.99,
8/31/2021 12:20,,,,,,,,,,,,,,,,,,,,,,,,,71.55,234.7,92.7,74.91,7.83,84.7,74.81,7.16,,,,92.6,74.7,7.83,72.9,73.47,6.25,25.6,68.1,2.32,12.2,58.13,1.24,15.3,54.86,1.63,9.2,53.45,1,-0.2,52.04,-0.02,-0.5,51.37,-0.06,-0.4,50.97,
8/31/2021 12:30,,,,,,,,,,,,,,,,,,,,,,,,,71.48,305.2,92.5,74.88,7.82,82.3,74.81,6.96,,,,92.5,74.7,7.83,74.3,73.61,6.36,26.3,68.12,2.39,11.8,58.15,1.2,16.2,54.87,1.72,5.2,53.16,0.56,-0.2,52.09,-0.02,-0.5,51.41,-0.06,-0.4,50.99,
8/31/2021 12:40,,,,,,,,,,,,,,,,,,,,,,,,,71.36,267.8,91.8,74.83,7.75,80.9,74.81,6.84,,,,92.9,74.71,7.86,74.9,73.66,6.41,27,68.27,2.45,12.8,57.98,1.3,16.2,54.86,1.71,7,53.36,0.76,-0.2,52,-0.02,-0.5,51.46,-0.06,-0.4,51.06,
8/31/2021 12:50,,,,,,,,,,,,,,,,,,,,,,,,,71.4,276.3,91.6,74.83,7.74,84.8,74.81,7.17,,,,92.9,74.7,7.86,75,73.67,6.41,26.6,68.27,2.41,13.1,57.77,1.34,15.6,54.81,1.66,6.2,53.21,0.67,-0.2,51.96,-0.02,-0.5,51.43,-0.06,-0.4,51.07,
8/31/2021 13:00,,,,,,,,,,,,,,,,,,,,,,,,,71.84,254.5,92.1,74.84,7.78,84.9,74.82,7.17,,,,92.2,74.7,7.8,74.9,73.67,6.41,25.6,68.14,2.32,13.6,57.6,1.4,12.1,54.73,1.28,5.5,53.2,0.59,-0.2,52.01,-0.02,-0.5,51.42,-0.06,-0.4,51.13,
8/31/2021 13:10,,,,,,,,,,,,,,,,,,,,,,,,,72.37,269.3,92.1,74.86,7.78,88.1,74.83,7.44,,,,91.8,74.7,7.77,75.8,73.74,6.48,27.3,68.35,2.48,13.7,57.49,1.41,11.5,54.73,1.22,5.6,53.12,0.61,-0.2,52.03,-0.02,-0.5,51.41,-0.06,-0.4,51.13,
8/31/2021 13:20,,,,,,,,,,,,,,,,,,,,,,,,,72.33,132.4,90.6,74.87,7.66,89,74.83,7.52,,,,91.7,74.7,7.76,76.2,73.62,6.53,28.7,68.55,2.59,14,57.3,1.44,12.7,54.71,1.35,4.9,53.07,0.53,-0.2,52.04,-0.02,-0.5,51.4,-0.06,-0.4,51.16,-0.05
8/31/2021 13:30,,,,,,,,,,,,,,,,,,,,,,,,,72.38,294.5,89,74.87,7.52,87.6,74.85,7.4,,,,92.3,74.7,7.81,76.9,73.74,6.57,26.3,68.18,2.39,13.8,57.32,1.42,12.3,54.73,1.3,3.7,52.84,0.4,-0.2,51.92,-0.02,-0.5,51.38,-0.06,-0.4,51.16,-0.05
8/31/2021 13:40,,,,,,,,,,,,,,,,,,,,7.73,92.1,9.11,425,75.31,73.37,254.4,88.4,74.87,7.47,84.4,74.85,7.13,,,,89.7,74.66,7.6,77.5,73.55,6.64,29.5,68.67,2.67,13.1,57.73,1.34,11.9,54.69,1.27,3.9,52.9,0.43,-0.2,51.83,-0.02,-0.5,51.31,-0.06,-0.4,51.05,-0.05
8/31/2021 13:50,,,,,,,,,,,,,,,,,,,,8.33,99.1,9.1,425,75.27,74.33,212.6,91.8,74.87,7.75,90.8,74.84,7.67,,,,91.7,74.7,7.76,77.7,73.75,6.64,28.2,68.55,2.55,13.6,57.61,1.4,13.7,54.61,1.46,4.2,52.96,0.46,-0.2,51.83,-0.02,-0.5,51.3,-0.06,-0.4,51.04,-0.05
8/31/2021 14:00,,,,,,,,,,,,,,,,,,,,7.7,91.7,9.12,425,75.31,74.36,201.6,91.3,74.88,7.71,89.6,74.85,7.57,,,,88.3,74.65,7.47,78.3,73.75,6.69,28.3,68.63,2.55,13.6,57.47,1.4,15.4,54.81,1.64,5,53.11,0.54,-0.2,51.83,-0.02,-0.5,51.38,-0.06,-0.4,51.02,-0.05
8/31/2021 14:10,,,,,,,,,,,,,,,,,,,,7.74,92.1,9.12,425,75.34,74.42,167.9,91.7,74.89,7.74,87.2,74.85,7.36,,,,86.8,74.58,7.36,78.3,73.82,6.69,31.2,68.87,2.81,13.7,57.61,1.4,13.9,54.77,1.47,4.6,53.03,0.5,-0.2,51.79,-0.02,-0.5,51.34,-0.06,-0.4,51,-0.05
8/31/2021 14:20,,,,,,,,,,,,,,,,,,,,8.55,101.9,9.12,425,75.36,75.3,175.1,92.4,74.88,7.8,91.2,74.85,7.71,,,,87,74.58,7.37,79,73.87,6.74,32,68.99,2.88,13.1,57.77,1.34,16.2,54.87,1.72,5.1,53.1,0.55,-0.2,51.81,-0.02,-0.5,51.34,-0.06,-0.4,51.03,-0.05
8/31/2021 14:30,,,,,,,,,,,,,,,,,,,,8.56,101.8,9.12,424,75.16,72.61,276.5,91.8,74.87,7.75,89.4,74.85,7.55,,,,83.6,74.44,7.1,79.1,73.94,6.74,32.6,69.13,2.93,14.3,57.16,1.47,16.7,54.94,1.77,4.2,52.99,0.46,-0.2,51.82,-0.02,-0.5,51.37,-0.06,-0.4,51.04,-0.05
8/31/2021 14:40,,,,,,,,,,,,,,,,,,,,8.51,101.2,9.12,424,75.24,73.37,252.4,91.6,74.88,7.74,88.3,74.85,7.46,,,,86.2,74.55,7.31,79,74,6.74,31.8,69.05,2.86,14.4,56.95,1.49,16.3,54.81,1.73,3.2,52.8,0.35,-0.2,51.84,-0.02,-0.5,51.38,-0.06,-0.4,51.05,-0.05
8/31/2021 14:50,,,,,,,,,,,,,,,,,,,,7.73,92.1,9.12,424,75.33,73.64,149.2,92.3,74.9,7.79,89,74.86,7.52,,,,86.1,74.54,7.3,78.8,73.85,6.73,33,69.19,2.96,14.3,57.07,1.48,15.4,54.81,1.63,3,52.73,0.33,-0.2,51.83,-0.02,-0.5,51.38,-0.06,-0.4,51.07,-0.05
8/31/2021 15:00,,,,,,,,,,,,,,,,,,,,8.6,102.4,9.12,424,75.29,75.29,246.6,91.5,74.88,7.73,83.7,74.86,7.07,,,,87,74.58,7.37,77.2,73.77,6.6,25.8,68.47,2.33,14.3,57.03,1.47,13.2,54.73,1.4,2.9,52.7,0.31,-0.2,51.84,-0.02,-0.5,51.37,-0.06,-0.4,51.07,-0.05
8/31/2021 15:10,,,,,,,,,,,,,,,,,,,,7.83,93.2,9.13,424,75.33,73.65,211.6,91.7,74.91,7.74,83.8,74.86,7.08,,,,87.7,74.6,7.43,75.6,73.58,6.47,29.9,68.83,2.7,14.6,56.96,1.51,13.5,54.59,1.44,3.2,52.74,0.35,-0.2,51.87,-0.02,-0.5,51.36,-0.06,-0.4,51.11,-0.05
8/31/2021 15:20,,,,,,,,,,,,,,,,,,,,8.52,101.5,9.15,424,75.38,74.52,158.8,92.2,74.9,7.79,90.5,74.89,7.64,,,,87.4,74.61,7.41,78.4,73.55,6.72,32.4,69.07,2.91,14.7,56.75,1.52,14.3,54.55,1.52,3.4,52.78,0.37,-0.2,51.87,-0.02,-0.5,51.35,-0.06,-0.4,51.14,-0.05
8/31/2021 15:30,,,,,,,,,,,,,,,,,,,,0,0,9.13,424,75.4,75.35,224.8,92.2,74.91,7.79,89.1,74.89,7.53,,,,85.7,74.56,7.27,73.4,73.36,6.3,32.1,69.11,2.88,14.5,56.87,1.5,13.8,54.61,1.47,3.3,52.82,0.36,-0.2,51.88,-0.02,-0.5,51.35,-0.06,-0.4,51.13,-0.05
8/31/2021 15:40,,,,,,,,,,,,,,,,,,,,8.59,102.3,9.11,424,75.33,74.51,270.2,91.6,74.95,7.73,84.5,74.9,7.14,,,,85.2,74.53,7.22,77.5,73.63,6.63,33.8,69.27,3.03,14.8,56.75,1.53,14.2,54.56,1.52,4.3,52.95,0.47,-0.2,51.92,-0.02,-0.5,51.39,-0.06,-0.4,51.13,-0.05
8/31/2021 15:50,,,,,,,,,,,,,,,,,,,,8.53,101.7,9.12,424,75.49,76.3,349.4,92.1,74.96,7.77,85.4,74.88,7.22,,,,85.4,74.53,7.24,72,73.29,6.18,34,69.29,3.05,14.5,56.55,1.5,14.1,54.58,1.5,5,53.12,0.54,-0.2,52,-0.02,-0.5,51.4,-0.06,-0.4,51.09,-0.05
8/31/2021 16:00,,,,,,,,,,,,,,,,,,,,0,0,9.13,424,75.49,76.27,348.4,92.4,74.98,7.79,82.1,74.9,6.94,,,,85.2,74.5,7.22,71.4,73.21,6.14,34.5,69.39,3.09,14.5,56.39,1.51,13.2,54.73,1.41,5.4,53.2,0.59,-0.2,52,-0.02,-0.5,51.4,-0.06,-0.4,51.11,-0.05
8/31/2021 16:10,,,,,,,,,,,,,,,,,,,,0,0,9.12,424,75.43,75.29,287.5,92.6,75.04,7.81,89.5,74.91,7.56,,,,85.7,74.54,7.26,72.9,73.37,6.25,33.8,69.36,3.03,15,56.31,1.56,13.1,54.82,1.39,5,53.11,0.54,-0.2,52.05,-0.02,-0.5,51.42,-0.06,-0.4,51.08,-0.05
8/31/2021 16:20,,,,,,,,,,,,,,,,,,,,0,0,9.11,424,75.34,74.38,514.7,92.4,75.12,7.79,87.1,74.93,7.35,,,,86.3,74.54,7.32,70.6,73.18,6.07,32.6,69.32,2.92,15.4,56.1,1.61,13.6,54.69,1.44,4.7,53.09,0.51,-0.2,52.11,-0.02,-0.5,51.43,-0.06,-0.4,51.07,-0.05
8/31/2021 16:30,,,,,,,,,,,,,,,,,,,,0,0,9.11,424,75.33,76.25,259.2,93.6,75.2,7.88,83.1,74.94,7.01,,,,82.9,74.41,7.04,69,73.14,5.94,25.2,68.39,2.28,15.2,56.2,1.58,13.7,54.69,1.45,4.6,53.11,0.49,-0.2,52.17,-0.02,-0.5,51.46,-0.06,-0.4,51.09,-0.05
8/31/2021 16:40,,,,,,,,,,,,,,,,,,,,0,0,9.14,424,75.33,75.33,220,94.9,75.21,7.99,82.2,74.95,6.94,,,,83.4,74.41,7.08,70.6,73.23,6.06,22.4,67.75,2.05,15.2,55.93,1.59,13.7,54.6,1.46,5,53.16,0.54,-0.2,52.2,-0.02,-0.5,51.55,-0.06,-0.4,51.16,-0.05
8/31/2021 16:50,,,,,,,,,,,,,,,,,,,,0,0,9.11,424,75.38,76.26,192,93.3,75.23,7.85,86.4,74.97,7.29,,,,84.5,74.46,7.17,71.1,73.38,6.1,24.3,67.76,2.21,15.4,56.18,1.61,13.7,54.67,1.46,5.2,53.21,0.56,-0.2,52.17,-0.02,-0.5,51.65,-0.06,-0.4,51.24,-0.05
8/31/2021 17:00,,,,,,,,,,,,,,,,,,,,0,0,9.13,424,75.4,77.21,430.7,93.8,75.28,7.89,91.3,74.99,7.7,,,,83,74.41,7.05,73.8,73.5,6.33,27.8,68.42,2.51,14.5,56.45,1.51,13.6,54.73,1.44,4.9,53.16,0.54,-0.2,52.2,-0.02,-0.5,51.63,-0.06,-0.4,51.24,-0.05
8/31/2021 17:10,,,,,,,,,,,,,,,,,,,,0,0,9.13,424,75.43,75.45,186.8,94.3,75.28,7.93,88.4,74.96,7.46,,,,83.2,74.4,7.06,69.6,73.25,5.98,31,68.93,2.79,14.9,56.69,1.55,13.4,54.81,1.42,5.3,53.21,0.58,-0.2,52.21,-0.02,-0.5,51.58,-0.06,-0.4,51.25,-0.05
8/31/2021 17:20,,,,,,,,,,,,,,,,,,,,0,0,9.15,424,75.33,73.49,306.9,95.3,75.26,8.01,87.7,74.97,7.4,,,,84.9,74.49,7.2,71.9,73.28,6.17,28.7,68.51,2.6,15.1,56.67,1.57,13,54.81,1.38,7.4,53.37,0.8,-0.2,52.25,-0.02,-0.5,51.58,-0.06,-0.4,51.28,-0.05
8/31/2021 17:30,,,,,,,,,,,,,,,,,,,,0,0,9.12,424,75.36,73.54,253.2,94,75.27,7.9,82.5,74.97,6.96,,,,84,74.46,7.13,72.5,73.2,6.24,29.1,68.55,2.63,14.8,56.96,1.53,13.6,54.71,1.44,5.5,53.26,0.6,-0.2,52.21,-0.02,-0.5,51.59,-0.06,-0.4,51.29,-0.05
8/31/2021 17:40,,,,,,,,,,,,,,,,,,,,0,0,9.13,424,75.42,74.45,229.1,94.2,75.28,7.92,83.3,74.97,7.03,,,,82.8,74.41,7.03,74.7,73.42,6.41,29.4,68.59,2.65,14.7,56.59,1.52,13.7,54.73,1.46,7.2,53.32,0.77,-0.2,52.28,-0.02,-0.5,51.59,-0.06,-0.4,51.32,-0.05
8/31/2021 17:50,,,,,,,,,,,,,,,,,,,,0,0,9.11,424,75.38,75.43,180.5,93.5,75.28,7.87,86.4,74.97,7.29,,,,85.2,74.49,7.22,71.1,73.07,6.12,29.6,68.6,2.67,14.5,56.48,1.5,13.8,54.79,1.47,7.9,53.42,0.86,-0.2,52.26,-0.02,-0.5,51.63,-0.06,-0.4,51.32,-0.05
8/31/2021 18:00,,,,,,,,,,,,,,,,,,,,7.91,94.2,9.13,424,75.34,74.67,257,94.6,75.29,7.95,85.8,74.96,7.24,,,,84.8,74.5,7.19,74.9,73.42,6.43,29.9,68.63,2.7,14.6,56.68,1.51,13.4,54.75,1.43,7.4,53.42,0.79,-0.2,52.35,-0.02,-0.5,51.72,-0.06,-0.4,51.36,-0.05
8/31/2021 18:10,,,,,,,,,,,,,,,,,,,,9.12,108.6,9.13,424,75.31,74.67,328.9,94.3,75.32,7.93,85.4,74.98,7.2,,,,85.8,74.51,7.27,73.3,73.3,6.29,31.3,68.84,2.82,13.8,57.04,1.42,12.7,54.81,1.35,5,53.28,0.54,-0.2,52.29,-0.02,-0.5,51.67,-0.06,-0.4,51.36,-0.05
8/31/2021 18:20,,,,,,,,,,,,,,,,,,,,8.4,100,9.11,424,75.27,75.32,382.1,93.6,75.32,7.87,84.7,74.97,7.14,,,,85.6,74.53,7.26,74.5,73.43,6.39,30.8,68.87,2.77,12.8,57.48,1.32,15.2,54.94,1.61,9.1,53.41,0.98,-0.2,52.39,-0.02,-0.5,51.71,-0.06,-0.4,51.36,-0.05
8/31/2021 18:30,,,,,,,,,,,,,,,,,,,,8.97,106.8,9.1,424,75.25,76.26,167.9,93.4,75.29,7.85,81.5,75.01,6.87,,,,85.7,74.55,7.26,72.6,73.34,6.23,31.1,68.93,2.8,12.5,57.89,1.28,12.5,54.86,1.33,9.6,53.44,1.04,-0.2,52.35,-0.02,-0.5,51.64,-0.06,-0.4,51.35,-0.05
8/31/2021 18:40,,,,,,,,,,,,,,,,,,,,7.97,94.9,9.13,424,75.22,77.17,315.1,94.5,75.29,7.95,83.2,75.11,7.01,,,,86.5,74.5,7.33,77.9,73.62,6.66,31.6,68.97,2.85,12.1,57.89,1.24,12.4,54.81,1.31,9.9,53.42,1.07,-0.2,52.41,-0.02,-0.5,51.68,-0.06,-0.4,51.3,-0.05
8/31/2021 18:50,,,,,,,,,,,,,,,,,,,,8.04,95.7,9.13,424,75.22,74.77,202.8,94.7,75.28,7.97,84.8,75.21,7.14,,,,87.5,74.47,7.42,72.6,73.46,6.22,31.7,68.95,2.86,12.1,57.81,1.24,12.1,54.73,1.29,4.6,53.24,0.49,-0.2,52.34,-0.02,-0.5,51.63,-0.06,-0.4,51.2,-0.05
8/31/2021 19:00,,,,,,,,,,,,,,,,,,,,10.62,126.3,9.13,424,75.22,75.48,338.4,94.3,75.28,7.93,85.3,75.17,7.19,,,,88.9,74.5,7.54,68.3,73.06,5.88,31.9,69,2.87,12.7,57.65,1.3,12.4,54.69,1.32,6.4,53.36,0.7,-0.2,52.37,-0.02,-0.5,51.63,-0.06,-0.4,51.23,-0.05
8/31/2021 19:10,,,,,,,,,,,,,,,,,,,,0,0,9.14,424,75.2,75.32,482.1,95.4,75.28,8.02,88.3,75.21,7.43,,,,89.5,74.5,7.59,68.9,73.09,5.93,31.4,68.95,2.83,12.2,58.18,1.24,12.3,54.73,1.3,4.6,53.2,0.5,-0.2,52.25,-0.02,-0.5,51.59,-0.06,-0.4,51.11,-0.05
8/31/2021 19:20,,,,,,,,,,,,,,,,,,,,0,0,9.12,424,75.2,75.31,182.4,93.5,75.28,7.86,82.5,75.28,6.94,,,,90.7,74.58,7.69,68.1,72.99,5.87,30.3,68.8,2.73,11.7,58.42,1.19,14.7,54.46,1.57,3.7,53.03,0.41,-0.2,52.25,-0.02,-0.5,51.6,-0.06,-0.4,51.2,-0.05
8/31/2021 19:30,,,,,,,,,,,,,,,,,,,,0,0,9.09,424,75.18,72.79,205.4,93.3,75.24,7.85,81.4,75.3,6.85,,,,90.5,74.58,7.67,66.9,72.95,5.77,30,68.77,2.7,12.9,57.77,1.32,14.3,54.48,1.53,3.3,52.94,0.36,-0.2,52.24,-0.02,-0.5,51.59,-0.06,-0.4,51.15,-0.05
8/31/2021 19:40,,,,,,,,,,,,,,,,,,,,0,0,9.13,424,75.16,73.34,279.3,93.9,75.25,7.9,83.8,75.27,7.05,,,,91.5,74.62,7.75,67.4,73.06,5.8,30.7,68.87,2.76,12.3,57.85,1.26,13,54.69,1.38,3.3,52.9,0.36,-0.2,52.25,-0.02,-0.5,51.6,-0.06,-0.4,51.18,-0.05
8/31/2021 19:50,,,,,,,,,,,,,,,,,,,,0,0,9.12,424,75.16,71.45,223.2,93.8,75.24,7.89,85.2,75.25,7.16,,,,91.2,74.62,7.72,68.1,73.1,5.86,31,68.88,2.79,12.1,57.89,1.24,13.6,54.5,1.45,3.2,52.88,0.35,-0.2,52.25,-0.02,-0.5,51.63,-0.06,-0.4,51.32,-0.05
8/31/2021 20:00,,,,,,,,,,,,,,,,,,,,9.8,116.4,9.11,423,75.15,68.74,232.6,93.7,75.24,7.88,81.4,75.26,6.85,,,,91.7,74.65,7.76,72.3,73.3,6.21,31.7,69.03,2.85,12.1,57.93,1.24,14.2,54.41,1.52,3.1,52.86,0.33,-0.2,52.26,-0.02,-0.5,51.68,-0.06,-0.4,51.33,-0.05
8/31/2021 20:10,,,,,,,,,,,,,,,,,,,,0,0,9.13,424,75.13,68.53,434.8,94.7,75.22,7.97,90.4,75.26,7.61,,,,91.2,74.62,7.72,68.9,73.1,5.93,32,69.11,2.88,12.3,57.69,1.26,13.8,54.39,1.48,3,52.86,0.33,-0.2,52.29,-0.02,-0.5,51.76,-0.06,-0.4,51.36,-0.05
8/31/2021 20:20,,,,,,,,,,,,,,,,,,,,7.88,93.6,9.14,424,75.15,67.52,318.2,94,75.2,7.91,87.8,75.22,7.39,,,,92.7,74.7,7.84,70.4,73.19,6.05,32.8,69.17,2.95,12.3,57.72,1.26,10.4,54.27,1.11,3,52.82,0.33,-0.2,52.26,-0.02,-0.5,51.73,-0.06,-0.4,51.36,-0.05
8/31/2021 20:30,,,,,,,,,,,,,,,,,,,,0,0,9.08,424,75.11,65.69,227.5,92.5,75.2,7.78,88.8,75.22,7.48,,,,92.5,74.7,7.82,73.5,73.46,6.3,32.2,69.15,2.89,12.8,57.61,1.31,14.1,54.4,1.5,3.1,52.86,0.33,-0.2,52.25,-0.02,-0.5,51.75,-0.06,-0.4,51.32,-0.05
8/31/2021 20:40,,,,,,,,,,,,,,,,,,,,0,0,9.11,424,75.09,66.52,214.3,93.7,75.16,7.89,81.9,75.21,6.89,,,,92.1,74.7,7.79,73.7,73.39,6.32,34,69.31,3.05,13.4,57.36,1.38,12.2,54.32,1.31,3.3,52.91,0.36,-0.2,52.24,-0.02,-0.5,51.77,-0.06,-0.4,51.33,-0.05
8/31/2021 20:50,,,,,,,,,,,,,,,,,,,,0,0,9.1,424,75.09,63.79,281.8,92.9,75.18,7.82,92.1,75.21,7.76,,,,91.4,74.7,7.74,72.9,73.39,6.26,32.6,69.18,2.93,14,56.97,1.45,13.2,54.2,1.42,3.4,52.95,0.37,-0.2,52.25,-0.02,-0.5,51.79,-0.06,-0.4,51.36,-0.05
8/31/2021 21:00,,,,,,,,,,,,,,,,,,,,7.32,86.9,9.03,423,75.09,65.58,273.3,91.2,75.16,7.68,87,75.2,7.32,,,,91.9,74.74,7.77,77.4,73.81,6.61,34.5,69.35,3.09,14,56.96,1.44,9.5,54.14,1.02,3.6,53.03,0.39,-0.2,52.28,-0.02,-0.5,51.8,-0.06,-0.4,51.43,-0.05
8/31/2021 21:10,,,,,,,,,,,,,,,,,,,,0,0,9,423,75.09,64.61,255.1,90.3,75.16,7.6,83,75.17,6.99,,,,92.2,74.74,7.8,76.2,73.79,6.51,34.9,69.47,3.12,14,57.2,1.44,10.8,54.19,1.15,3.8,52.95,0.42,-0.2,52.25,-0.02,-0.5,51.8,-0.06,-0.4,51.45,-0.05
8/31/2021 21:20,,,,,,,,,,,,,,,,,,,,8.16,96.9,9.11,424,75.06,62.87,221.6,91.9,75.13,7.74,84.9,75.18,7.15,,,,92.1,74.76,7.79,75.6,73.67,6.47,35.2,69.47,3.15,13.9,56.96,1.44,13.6,54.28,1.46,4,53.03,0.44,-0.2,52.29,-0.02,-0.5,51.8,-0.06,-0.4,51.45,-0.05
8/31/2021 21:30,,,,,,,,,,,,,,,,,,,,9.52,113.1,9.03,423,75.02,63.64,277.4,90,75.12,7.58,81.8,75.17,6.89,,,,92.6,74.78,7.83,75.5,73.7,6.46,35.9,69.63,3.2,14.5,56.71,1.5,9.5,54.23,1.01,4.1,53.11,0.44,-0.2,52.33,-0.02,-0.5,51.8,-0.06,-0.4,51.42,-0.05
8/31/2021 21:40,,,,,,,,,,,,,,,,,,,,7.39,87.7,9,423,75,62.73,230.4,88.3,75.12,7.44,83.2,75.15,7.01,,,,93.1,74.78,7.87,74.8,73.65,6.4,35.6,69.64,3.18,14.5,56.59,1.51,13.8,54.35,1.47,4,53.12,0.43,-0.2,52.33,-0.02,-0.5,51.76,-0.06,-0.4,51.4,-0.05
8/31/2021 21:50,,,,,,,,,,,,,,,,,,,,8.9,105.6,9,423,74.97,62.75,216.9,87.4,75.11,7.36,74,75.14,6.23,,,,92.6,74.78,7.83,75.2,73.78,6.42,36.3,69.76,3.23,14.7,56.38,1.53,13.4,54.36,1.43,6.9,53.16,0.75,-0.2,52.37,-0.02,-0.5,51.76,-0.06,-0.4,51.37,-0.05
8/31/2021 22:00,,,,,,,,,,,,,,,,,,,,9.14,108.5,9.11,424,75.02,61.98,221.8,91.7,75.11,7.72,84.8,75.14,7.14,,,,91.2,74.78,7.71,76.4,73.78,6.53,37.1,69.83,3.31,14.6,56.63,1.51,11.3,54.36,1.2,10.4,53.2,1.12,-0.2,52.37,-0.02,-0.5,51.75,-0.06,-0.4,51.33,-0.05
8/31/2021 22:10,,,,,,,,,,,,,,,,,,,,9.07,107.6,9.02,424,74.95,61.11,238.8,88.9,75.09,7.5,84.1,75.13,7.08,,,,86.6,74.49,7.35,75.7,73.78,6.46,37.5,69.91,3.34,13.7,56.79,1.41,12.4,54.42,1.33,10.8,53.19,1.17,-0.2,52.36,-0.02,-0.5,51.76,-0.06,-0.4,51.28,-0.05
8/31/2021 22:20,,,,,,,,,,,,,,,,,,,,9.59,113.7,8.99,423,74.95,61.79,245.8,87,75.08,7.33,88,75.1,7.42,,,,86.1,74.46,7.3,74.6,73.78,6.37,38.7,70.06,3.44,13.9,56.68,1.44,12,54.44,1.28,10.8,53.19,1.17,-0.2,52.33,-0.02,-0.5,51.72,-0.06,-0.4,51.21,-0.05
8/31/2021 22:30,,,,,,,,,,,,,,,,,,,,8.53,101.2,9,423,74.91,61,241.9,84.7,75.08,7.14,85.2,75.09,7.18,,,,86.2,74.5,7.31,73.1,73.63,6.25,39.8,70.19,3.53,14,56.63,1.46,10.7,54.38,1.14,11,53.2,1.2,-0.2,52.37,-0.02,-0.5,51.73,-0.06,-0.4,51.15,-0.05
8/31/2021 22:40,,,,,,,,,,,,,,,,,,,,7.05,83.5,8.99,424,74.89,60.95,240.4,85.2,75.07,7.18,84.3,75.1,7.1,,,,86.2,74.5,7.31,72.8,73.55,6.24,40.9,70.35,3.63,14.3,56.58,1.48,11.7,54.48,1.24,11.3,53.26,1.23,-0.2,52.42,-0.02,-0.5,51.72,-0.06,-0.4,51.15,-0.05
8/31/2021 22:50,,,,,,,,,,,,,,,,,,,,8.54,101.2,9.01,424,74.91,61.78,247.6,86.5,75.07,7.29,86.1,75.09,7.25,,,,86,74.45,7.3,73.4,73.59,6.28,42.7,70.51,3.78,14.6,56.52,1.52,12.2,54.56,1.3,10.3,53.31,1.11,-0.2,52.46,-0.02,-0.5,51.72,-0.06,-0.4,51.2,-0.05
8/31/2021 23:00,,,,,,,,,,,,,,,,,,,,8.71,103.3,9.04,424,74.93,61.72,257.5,86.9,75.03,7.32,79.9,75.08,6.73,,,,85.8,74.42,7.28,73.4,73.59,6.28,43.8,70.64,3.87,14.9,56.42,1.55,13.6,54.65,1.44,10.3,53.32,1.12,-0.2,52.44,-0.02,-0.5,51.68,-0.06,-0.4,51.12,-0.05
8/31/2021 23:10,,,,,,,,,,,,,,,,,,,,9.41,111.5,8.97,424,74.86,61.72,255.9,85.6,75.04,7.21,85.7,75.08,7.22,,,,85.6,74.42,7.26,71.4,73.5,6.12,45.1,70.82,3.97,14.8,56.46,1.54,13.4,54.65,1.42,10.3,53.38,1.11,-0.2,52.44,-0.02,-0.5,51.64,-0.06,-0.4,51.03,-0.05
8/31/2021 23:20,,,,,,,,,,,,,,,,,,,,9.15,108.5,8.95,424,74.84,60.91,265.9,83.7,75.03,7.06,78.1,75.06,6.58,,,,85.3,74.38,7.25,70.6,73.37,6.05,45.7,70.92,4.03,14.9,56.37,1.55,13,54.63,1.39,11.1,53.36,1.2,-0.2,52.35,-0.02,-0.5,51.59,-0.06,-0.4,50.95,-0.05
8/31/2021 23:30,,,,,,,,,,,,,,,,,,,,9.08,107.5,8.99,424,74.84,60.76,240.4,86.2,75.03,7.27,74.8,75.06,6.31,,,,85.5,74.38,7.26,70.3,73.34,6.03,46.6,71.04,4.1,15.3,56.31,1.59,11.9,54.61,1.27,11.7,53.44,1.26,-0.2,52.33,-0.02,-0.5,51.59,-0.06,-0.4,50.9,-0.05
8/31/2021 23:40,,,,,,,,,,,,,,,,,,,,7.75,91.9,9.04,424,74.91,60.84,268.6,88.2,75.03,7.44,82,75.06,6.92,,,,84.9,74.37,7.21,70.2,73.29,6.03,47.2,71.16,4.15,15,56.36,1.56,13.8,54.72,1.46,11.7,53.45,1.26,-0.2,52.35,-0.02,-0.5,51.59,-0.06,-0.4,50.9,-0.05
8/31/2021 23:50,,,,,,,,,,,,,,,,,,,,8.83,104.6,8.99,424,74.84,60.75,237.8,85.8,75,7.24,81.3,75.05,6.85,,,,84.8,74.37,7.2,71,73.32,6.09,47.3,71.2,4.15,14.6,56.5,1.52,13.5,54.72,1.44,11.4,53.44,1.23,-0.2,52.34,-0.02,-0.5,51.59,-0.06,-0.4,50.9,-0.05
9/1/2021 0:00,,,,,,,,,,,,,,,,,,,,9.63,114.1,9.01,424,74.86,60.79,257.5,88.3,74.99,7.45,80.5,75.02,6.79,,,,85.1,74.37,7.22,71.4,73.34,6.13,46.6,71.2,4.09,14.1,56.5,1.46,13.6,54.85,1.44,11.1,53.45,1.19,-0.2,52.25,-0.02,-0.5,51.6,-0.06,-0.4,50.83,-0.05
9/1/2021 0:10,,,,,,,,,,,,,,,,,,,,9.55,113.2,9.01,423,74.86,59.13,233.2,89.2,74.98,7.52,81.1,75.01,6.84,,,,86,74.4,7.3,70.8,73.42,6.07,47.9,71.32,4.2,13.3,56.62,1.38,13.1,54.91,1.38,11.6,53.57,1.25,-0.2,52.3,-0.02,-0.5,51.62,-0.06,-0.4,50.81,-0.05
9/1/2021 0:20,,,,,,,,,,,,,,,,,,,,9.6,113.8,8.99,424,74.82,60.73,229.5,87.3,75,7.36,83.5,75.01,7.04,,,,85.6,74.41,7.27,71,73.46,6.09,50.4,71.52,4.41,12.8,56.78,1.33,13.3,54.98,1.41,10.6,53.67,1.14,-0.2,52.34,-0.02,-0.5,51.6,-0.06,-0.4,50.82,-0.05
9/1/2021 0:30,,,,,,,,,,,,,,,,,,,,7.98,94.5,8.98,424,74.79,59.8,281.9,85.2,74.96,7.19,78.1,75.01,6.59,,,,85.6,74.42,7.27,69.8,73.41,5.98,51,71.56,4.47,11.6,57.08,1.2,15.2,55.06,1.61,10.5,53.69,1.13,-0.2,52.32,-0.02,-0.5,51.61,-0.06,-0.4,50.82,-0.05
9/1/2021 0:40,,,,,,,,,,,,,,,,,,,,9.47,112.1,8.98,424,74.77,60.75,245.9,85.8,74.96,7.24,72.5,75,6.12,,,,85.7,74.41,7.27,70.2,73.55,6.01,49.1,71.43,4.3,12.2,57.25,1.26,18.5,55.14,1.96,9.7,53.53,1.04,-0.2,52.29,-0.02,-0.5,51.67,-0.06,-0.4,50.82,-0.05
9/1/2021 0:50,,,,,,,,,,,,,,,,,,,,9.64,114.1,8.99,424,74.77,59.83,249.1,83.8,74.95,7.07,76.2,74.98,6.43,,,,85.6,74.42,7.26,70.7,73.6,6.05,44.8,71.2,3.94,12.4,57.36,1.27,16.4,55.06,1.74,8.1,53.46,0.87,-0.2,52.29,-0.02,-0.5,51.73,-0.06,-0.4,50.87,-0.05
9/1/2021 1:00,,,,,,,,,,,,,,,,,,,,9.93,117.6,9.01,424,74.77,60.74,249.7,79.6,74.95,6.72,77.1,74.98,6.5,,,,85.8,74.45,7.28,71.1,73.63,6.08,40,70.6,3.54,12.5,57.37,1.28,12.3,54.89,1.3,8.8,53.47,0.96,-0.2,52.26,-0.02,-0.5,51.71,-0.06,-0.4,50.95,-0.05
9/1/2021 1:10,,,,,,,,,,,,,,,,,,,,9.55,113,9.01,424,74.73,59.04,251.4,82.4,74.94,6.95,80.5,74.97,6.8,,,,85.4,74.45,7.25,71.1,73.63,6.09,38.1,70.73,3.36,12.8,57.29,1.32,12.2,54.89,1.29,8.7,53.45,0.93,-0.2,52.19,-0.02,-0.5,51.67,-0.06,-0.4,50.92,-0.05
9/1/2021 1:20,,,,,,,,,,,,,,,,,,,,9.58,113.4,9,425,74.7,59.78,263.4,84.9,74.92,7.17,79.7,74.94,6.72,,,,84.9,74.45,7.2,71.4,73.65,6.11,37.2,70.78,3.28,11.4,57.1,1.18,12.7,54.9,1.34,5.5,53.45,0.59,-0.2,52.1,-0.02,-0.5,51.63,-0.06,-0.4,50.94,-0.05
9/1/2021 1:30,,,,,,,,,,,,,,,,,,,,9.61,113.7,8.99,424,74.71,59.75,246.7,85.3,74.89,7.2,75.1,74.93,6.34,,,,85.8,74.5,7.27,71.6,73.66,6.13,37.4,70.83,3.3,11.3,57.14,1.17,11.8,54.83,1.25,5.4,53.45,0.59,-0.2,52.12,-0.02,-0.5,51.59,-0.06,-0.4,50.96,-0.05
9/1/2021 1:40,,,,,,,,,,,,,,,,,,,,9.42,111.5,8.98,424,74.7,59.75,258.4,83.4,74.92,7.04,69.1,74.93,5.83,,,,87,74.54,7.37,71.9,73.75,6.14,33.7,70,3,11.7,57.12,1.21,11.9,54.79,1.26,5.4,53.41,0.58,-0.2,52.08,-0.02,-0.5,51.58,-0.06,-0.4,51.02,-0.05
9/1/2021 1:50,,,,,,,,,,,,,,,,,,,,9.34,110.5,8.98,424,74.68,58.81,255.3,84.6,74.9,7.14,71.6,74.93,6.04,,,,86.5,74.51,7.33,72,73.71,6.16,31.3,69.77,2.79,12.2,57.28,1.26,11.9,54.79,1.27,4.8,53.3,0.52,-0.2,52.08,-0.02,-0.5,51.57,-0.06,-0.4,51.17,-0.05
9/1/2021 2:00,,,,,,,,,,,,,,,,,,,,9.29,109.8,8.99,424,74.66,58.81,242.1,84.6,74.87,7.15,76.3,74.91,6.44,,,,86.7,74.54,7.35,72.3,73.76,6.18,28.5,69.19,2.56,12.3,57.2,1.27,12.2,54.74,1.3,5.2,53.28,0.56,-0.2,52.07,-0.02,-0.5,51.56,-0.06,-0.4,51.32,-0.05
9/1/2021 2:10,,,,,,,,,,,,,,,,,,,,9.06,107.2,8.98,424,74.66,57.08,239.4,85.5,74.88,7.22,87.8,74.92,7.41,,,,87.2,74.58,7.39,73.2,73.81,6.25,29.1,68.97,2.62,12.4,57.02,1.28,12.6,54.69,1.34,5,53.23,0.54,-0.2,52.09,-0.02,-0.5,51.59,-0.06,-0.4,51.41,-0.05
9/1/2021 2:20,,,,,,,,,,,,,,,,,,,,9.99,118.1,8.98,424,74.66,57.91,249,85.9,74.88,7.26,80.4,74.9,6.79,,,,86.3,74.54,7.31,73.7,73.84,6.29,28.3,69.07,2.54,12.8,56.95,1.33,11.8,54.59,1.25,4.5,53.19,0.48,-0.2,52.13,-0.02,-0.5,51.67,-0.06,-0.4,51.44,-0.05
9/1/2021 2:30,,,,,,,,,,,,,,,,,,,,8.69,102.8,8.96,424,74.64,57.87,244.4,85.1,74.86,7.19,80.9,74.89,6.83,,,,87.4,74.61,7.4,74.1,73.91,6.33,24.6,68.57,2.22,13,56.91,1.34,11.4,54.52,1.21,4,53.06,0.43,-0.2,52.13,-0.02,-0.5,51.65,-0.06,-0.4,51.43,-0.05
9/1/2021 2:40,,,,,,,,,,,,,,,,,,,,8.59,101.6,8.96,424,74.62,57.86,231.1,84.4,74.85,7.13,73.7,74.89,6.23,,,,86.8,74.58,7.35,74.5,73.94,6.35,26.8,68.99,2.41,13.1,56.9,1.36,11.4,54.49,1.21,4,53.02,0.43,-0.2,52.14,-0.02,-0.5,51.63,-0.06,-0.4,51.41,-0.05
9/1/2021 2:50,,,,,,,,,,,,,,,,,,,,9.32,110.1,8.95,425,74.61,55.6,234,83.7,74.84,7.07,77.2,74.89,6.52,,,,87.6,74.62,7.42,74.6,73.95,6.36,26.2,68.63,2.37,13.1,56.79,1.35,10,54.51,1.06,4.1,53.07,0.44,-0.2,52.12,-0.02,-0.5,51.6,-0.06,-0.4,51.41,-0.05
9/1/2021 3:00,,,,,,,,,,,,,,,,,,,,8.37,98.9,8.95,425,74.61,56.2,218.8,83.1,74.84,7.02,72.7,74.89,6.14,,,,86.9,74.6,7.36,74.9,73.97,6.39,26.6,68.63,2.4,13,56.77,1.35,11,54.57,1.17,4.6,53.18,0.5,-0.2,52.12,-0.02,-0.5,51.59,-0.06,-0.4,51.37,-0.05
9/1/2021 3:10,,,,,,,,,,,,,,,,,,,,7.57,89.5,8.95,424,74.59,55.38,221.5,82.5,74.83,6.97,74.8,74.88,6.32,,,,87.2,74.59,7.39,74.9,73.98,6.38,23.3,68.31,2.11,13,56.75,1.35,11,54.56,1.17,4.2,53.12,0.45,-0.2,52.06,-0.02,-0.5,51.58,-0.06,-0.4,51.35,-0.05
9/1/2021 3:20,,,,,,,,,,,,,,,,,,,,9.39,111,8.96,425,74.59,57.81,217.5,82.5,74.84,6.97,75.1,74.86,6.34,,,,86.8,74.61,7.35,74.6,73.97,6.36,22.3,68.23,2.02,12.8,56.95,1.33,13.2,54.69,1.41,4.1,53.07,0.44,-0.2,52,-0.02,-0.5,51.59,-0.06,-0.4,51.24,-0.05
9/1/2021 3:30,,,,,,,,,,,,,,,,,,,,7.04,83.2,9,424,74.61,56,221.3,82.9,74.83,7.01,73.4,74.85,6.2,,,,89,74.66,7.53,75,74,6.39,24.1,68.44,2.18,13,57.01,1.35,13.2,54.71,1.41,4.2,53.07,0.45,-0.2,52,-0.02,-0.5,51.59,-0.06,-0.4,51.17,-0.05
9/1/2021 3:40,,,,,,,,,,,,,,,,,,,,9.56,113,8.99,424,74.61,56.96,220.2,80.2,74.83,6.77,79.3,74.86,6.7,,,,86.3,74.66,7.3,75,74,6.39,27.3,69.05,2.45,12.7,57.03,1.32,13.9,54.78,1.47,4.6,53.16,0.5,-0.2,52.08,-0.02,-0.5,51.59,-0.06,-0.4,51.07,-0.05
9/1/2021 3:50,,,,,,,,,,,,,,,,,,,,9.67,114.2,8.99,424,74.59,56.88,214.7,82.3,74.8,6.96,81.4,74.85,6.88,,,,89,74.67,7.54,75.3,74,6.42,24.7,68.6,2.24,12.7,57.1,1.31,13.7,54.74,1.46,4.6,53.16,0.5,-0.2,52.12,-0.02,-0.5,51.6,-0.06,-0.4,51.05,-0.05
9/1/2021 4:00,,,,,,,,,,,,,,,,,,,,9.21,108.8,8.99,424,74.59,56.1,204.7,82.4,74.8,6.96,83,74.85,7.01,,,,86.5,74.66,7.32,75.3,74.03,6.42,24.8,68.47,2.25,12.7,57.02,1.31,11.7,54.7,1.25,4.5,53.23,0.48,-0.2,52.13,-0.02,-0.5,51.59,-0.06,-0.4,51.03,-0.05
9/1/2021 4:10,,,,,,,,,,,,,,,,,,,,9.49,112.1,8.98,424,74.57,56.92,211.2,83.8,74.79,7.09,84.3,74.81,7.13,,,,90.3,74.7,7.64,75.5,74.03,6.43,26.9,68.83,2.43,12.5,57.16,1.28,12.1,54.73,1.28,5,53.28,0.54,-0.2,52.1,-0.02,-0.5,51.59,-0.06,-0.4,50.95,-0.05
9/1/2021 4:20,,,,,,,,,,,,,,,,,,,,9.58,113.2,9,424,74.55,56.86,226.9,85.4,74.8,7.22,78.4,74.81,6.62,,,,89.6,74.7,7.58,76.1,74.03,6.48,26.8,68.88,2.41,12.9,57.2,1.33,12.4,54.73,1.32,5,53.28,0.54,-0.2,52.04,-0.02,-0.5,51.57,-0.06,-0.4,50.95,-0.05
9/1/2021 4:30,,,,,,,,,,,,,,,,,,,,9.45,111.6,8.98,424,74.55,56.89,213.9,82.5,74.76,6.98,74.1,74.81,6.26,,,,89.9,74.69,7.61,75.9,74.07,6.46,26.6,68.66,2.4,12.8,57.2,1.32,12.8,54.73,1.36,5.5,53.34,0.59,-0.2,52.07,-0.02,-0.5,51.51,-0.06,-0.4,50.94,-0.05
9/1/2021 4:40,,,,,,,,,,,,,,,,,,,,9.31,109.9,8.98,424,74.53,55.98,216.4,81.8,74.75,6.92,72.6,74.8,6.14,,,,91.7,74.7,7.76,75.5,74.02,6.43,23.4,68.51,2.11,12.5,57.54,1.28,12.5,54.73,1.33,5.4,53.39,0.58,-0.2,52.04,-0.02,-0.5,51.49,-0.06,-0.4,50.94,-0.05
9/1/2021 4:50,,,,,,,,,,,,,,,,,,,,9.42,111.2,8.96,424,74.53,55.97,211.3,81.8,74.75,6.92,71.8,74.77,6.07,,,,89.8,74.65,7.6,75.5,74.02,6.44,18.6,67.5,1.7,11.2,58.18,1.14,13.4,54.81,1.42,9,53.49,0.97,-0.2,52.02,-0.02,-0.5,51.46,-0.06,-0.4,50.91,-0.05
9/1/2021 5:00,,,,,,,,,,,,,,,,,,,,8.5,100.4,8.95,424,74.53,55.29,202.5,83.9,74.75,7.1,74.9,74.77,6.33,,,,90.8,74.68,7.68,75.6,74,6.44,18.5,67.68,1.69,10.4,58.38,1.06,11.8,54.77,1.25,9.1,53.49,0.99,-0.2,52.07,-0.02,-0.5,51.46,-0.06,-0.4,50.9,-0.05
9/1/2021 5:10,,,,,,,,,,,,,,,,,,,,9.39,110.9,8.94,424,74.5,55.91,200.9,83.1,74.75,7.03,77.1,74.77,6.52,,,,90.3,74.67,7.65,76.2,74.02,6.49,18.9,67.91,1.72,11.2,58.19,1.14,10.1,54.76,1.07,5.6,53.44,0.6,-0.2,52.04,-0.02,-0.5,51.4,-0.06,-0.4,50.86,-0.05
9/1/2021 5:20,,,,,,,,,,,,,,,,,,,,9.31,109.9,8.95,424,74.52,56.86,204.1,83,74.71,7.02,74.8,74.77,6.32,,,,91.7,74.66,7.76,76.1,73.99,6.49,18.4,67.65,1.68,10.7,58.58,1.09,12.2,54.8,1.29,5.4,53.36,0.58,-0.2,51.97,-0.02,-0.5,51.26,-0.06,-0.4,50.82,-0.05
9/1/2021 5:30,,,,,,,,,,,,,,,,,,,,9.19,108.4,8.96,424,74.48,57.79,198.1,83.9,74.69,7.1,75,74.74,6.34,,,,92.3,74.66,7.81,75.7,73.99,6.46,18.5,67.31,1.7,10.6,58.45,1.07,13.2,54.83,1.4,5.7,53.32,0.62,-0.2,51.96,-0.02,-0.5,51.22,-0.06,-0.4,50.78,-0.05
9/1/2021 5:40,,,,,,,,,,,,,,,,,,,,8.45,99.7,8.94,424,74.48,55.92,193.8,76.3,74.68,6.46,65.8,74.73,5.57,,,,92.6,74.65,7.84,74.4,73.91,6.35,21.1,67.75,1.92,12,57.91,1.23,11,54.77,1.17,5.4,53.41,0.58,-0.2,52.1,-0.02,-0.5,51.33,-0.06,-0.4,50.77,-0.05
9/1/2021 5:50,,,,,,,,,,,,,,,,,,,,9.11,107.5,8.93,424,74.44,56.02,194.9,78.2,74.68,6.61,62.4,74.73,5.28,,,,92.4,74.65,7.82,72.7,73.79,6.21,24.4,68.19,2.21,12.8,57.33,1.32,12.6,54.82,1.34,5.3,53.49,0.57,-0.2,52.17,-0.02,-0.5,51.34,-0.06,-0.4,50.73,-0.05
9/1/2021 6:00,,,,,,,,,,,,,,,,,,,,9.08,107.2,8.95,424,74.44,57.74,204.2,81.2,74.67,6.88,66.9,74.69,5.66,,,,92.3,74.62,7.81,72.7,73.78,6.21,20.8,67.95,1.89,12.8,57.23,1.32,12.3,54.76,1.31,5.4,53.42,0.58,-0.2,52,-0.02,-0.5,51.11,-0.06,-0.4,50.69,-0.05
9/1/2021 6:10,,,,,,,,,,,,,,,,,,,,9.2,108.5,8.96,424,74.44,56.03,201.5,81.2,74.67,6.87,72.1,74.69,6.1,,,,90.6,74.6,7.68,71.1,73.62,6.08,22.7,67.74,2.07,13,57.34,1.34,13.8,54.94,1.47,5.7,53.45,0.61,-0.2,51.88,-0.02,-0.5,51.01,-0.06,-0.4,50.69,-0.05
9/1/2021 6:20,,,,,,,,,,,,,,,,,,,,9.96,117.4,8.96,424,74.41,55.95,208.8,81.7,74.66,6.92,76,74.68,6.43,,,,92.3,74.62,7.82,70.4,73.74,6.01,22.1,67.8,2.01,12.9,57.2,1.33,14,54.97,1.49,5.8,53.49,0.62,-0.2,51.92,-0.02,-0.5,51.05,-0.06,-0.4,50.67,-0.05
9/1/2021 6:30,,,,,,,,,,,,,,,,,,,,10.08,118.9,8.97,424,74.41,55.09,207.2,80.2,74.63,6.79,77.1,74.65,6.52,,,,92,74.59,7.79,69.7,73.54,5.97,22.3,67.79,2.03,12.5,57.41,1.28,13.6,54.98,1.44,6.4,53.65,0.69,-0.2,52.05,-0.02,-0.5,51.07,-0.06,-0.4,50.65,-0.05
9/1/2021 6:40,,,,,,,,,,,,,,,,,,,,10.14,119.6,9,425,74.39,56.85,199.7,81.5,74.62,6.9,77.5,74.65,6.56,,,,92.1,74.58,7.8,70.8,73.59,6.06,22.7,67.83,2.06,12.3,57.49,1.27,16.9,55.13,1.79,7.3,53.67,0.79,-0.2,52,-0.02,-0.5,51.04,-0.06,-0.4,50.65,-0.05
9/1/2021 6:50,,,,,,,,,,,,,,,,,,,,9.72,114.7,8.99,425,74.43,55.01,173.3,82,74.63,6.94,74.3,74.65,6.29,,,,91.1,74.54,7.72,70.9,73.62,6.06,24.4,67.99,2.22,12.3,57.53,1.27,16.1,55.1,1.7,8.9,53.74,0.96,-0.2,52.05,-0.02,-0.5,51.04,-0.06,-0.4,50.65,-0.05
9/1/2021 7:00,,,,,,,,,,,,,,,,,,,,10.3,121.6,9.08,425,74.53,55.95,182.7,86.9,74.63,7.35,83.8,74.66,7.09,,,,91.1,74.56,7.72,71.9,73.65,6.15,25.9,68.15,2.35,11.6,57.84,1.18,14.8,55.01,1.56,8.6,53.75,0.92,-0.2,52.08,-0.02,-0.5,51.06,-0.06,-0.4,50.65,-0.05
9/1/2021 7:10,,,,,,,,,,,,,,,,,,,,9.5,112,8.97,425,74.37,55.9,182.1,81.6,74.63,6.91,77,74.65,6.52,,,,90.3,74.57,7.65,70.3,73.52,6.02,25.8,68.27,2.34,11.5,57.73,1.18,14.3,54.9,1.51,10,53.78,1.07,-0.2,52.09,-0.02,-0.5,51.04,-0.06,-0.4,50.65,-0.05
9/1/2021 7:20,,,,,,,,,,,,,,,,,,,,9.25,109.1,8.97,425,74.39,55.91,179.2,80.5,74.63,6.82,74.5,74.65,6.31,,,,90.8,74.54,7.7,70.2,73.62,6,25.3,68.43,2.29,12.2,57.57,1.25,13.6,54.86,1.44,8.6,53.73,0.93,-0.2,51.99,-0.02,-0.5,51.09,-0.06,-0.4,50.65,-0.05
9/1/2021 7:30,,,,,,,,,,,,,,,,,,,,10.51,123.9,8.94,424,74.34,57.81,173.3,81.2,74.59,6.88,73.2,74.65,6.2,,,,91.2,74.54,7.73,70.1,73.55,6,26.8,68.51,2.42,11.6,57.81,1.19,14.2,54.9,1.5,6.7,53.54,0.73,-0.2,51.97,-0.02,-0.5,51.13,-0.06,-0.4,50.65,-0.05
9/1/2021 7:40,,,,,,,,,,,,,,,,,,,,10.48,123.7,9.03,424,74.46,57.88,210.1,85.3,74.6,7.22,84.9,74.64,7.19,,,,92.5,74.56,7.84,70.6,73.51,6.05,27.2,68.59,2.46,12.1,57.61,1.24,14,54.86,1.49,8.8,53.58,0.95,-0.2,52.05,-0.02,-0.5,51.19,-0.06,-0.4,50.65,-0.05
9/1/2021 7:50,,,,,,,,,,,,,,,,,,,,8.85,104.4,8.95,424,74.35,58.79,264.1,80.8,74.59,6.85,81,74.63,6.86,,,,92.3,74.53,7.83,70.6,73.57,6.04,26.5,68.62,2.39,12.3,57.44,1.26,13.2,54.85,1.4,9.1,53.52,0.98,-0.2,52.15,-0.02,-0.5,51.26,-0.06,-0.4,50.66,-0.05
9/1/2021 8:00,,,,,,,,,,,,,,,,,,,,8.58,101.1,8.95,424,74.35,59.77,242.5,81.6,74.59,6.91,79.2,74.61,6.7,,,,92,74.53,7.79,69.8,73.53,5.98,28.6,68.91,2.57,12.9,57.39,1.33,13.4,54.86,1.42,9.2,53.49,0.99,-0.2,52.25,-0.02,-0.5,51.29,-0.06,-0.4,50.67,-0.05
9/1/2021 8:10,,,,,,,,,,,,,,,,,,,,9.83,115.9,9.02,424,74.44,59.14,266.7,86.1,74.59,7.29,77.4,74.61,6.55,,,,91.3,74.5,7.74,70.1,73.48,6.01,29.4,69.03,2.65,13.5,57.2,1.39,12.3,54.81,1.31,7.2,53.41,0.78,-0.2,52.16,-0.02,-0.5,51.28,-0.06,-0.4,50.69,-0.05
9/1/2021 8:20,,,,,,,,,,,,,,,,,,,,10.36,122.2,9.04,424,74.44,59.26,266.9,86,74.59,7.28,87.9,74.61,7.45,,,,92,74.53,7.8,69.4,73.46,5.95,30.1,69.26,2.7,13.7,56.96,1.42,12.6,54.77,1.34,6.2,53.36,0.67,-0.2,52.21,-0.02,-0.5,51.29,-0.06,-0.4,50.68,-0.05
9/1/2021 8:30,,,,,,,,,,,,,,,,,,,,10.32,121.8,9.07,424,74.48,62.66,262.4,87.3,74.59,7.39,86.3,74.61,7.31,,,,91.7,74.52,7.78,70.1,73.49,6.01,29.6,69.17,2.66,13.9,56.93,1.44,12.8,54.78,1.36,7.9,53.41,0.85,-0.2,52.25,-0.02,-0.5,51.17,-0.06,-0.4,50.67,-0.05
9/1/2021 8:40,,,,,,,,,,,,,,,,,,,,10.5,124,9.1,424,74.46,63.64,269.8,88.9,74.58,7.53,84.5,74.6,7.16,,,,92.4,74.54,7.83,71,73.58,6.08,28.7,68.96,2.58,13.6,56.87,1.41,13.9,54.89,1.47,7.2,53.4,0.78,-0.2,52.24,-0.02,-0.5,51.19,-0.06,-0.4,50.69,-0.05
9/1/2021 8:50,,,,,,,,,,,,,,,,,,,,9.93,117.2,9.04,424,74.46,62.17,244.5,85.2,74.59,7.21,82.7,74.61,7,,,,89.8,74.5,7.62,68,73.34,5.84,28.9,69.07,2.6,13,56.81,1.34,14,54.89,1.49,7.8,53.4,0.85,-0.2,52.25,-0.02,-0.5,51.17,-0.06,-0.4,50.69,-0.05
9/1/2021 9:00,,,,,,,,,,,,,,,,,,,,9.81,115.7,9.01,423,74.43,63.77,266,84.4,74.59,7.15,72.1,74.61,6.11,,,,90.7,74.5,7.69,70.1,73.52,6.01,26.5,68.7,2.39,13.7,56.85,1.42,11,54.81,1.17,6.3,53.36,0.68,-0.2,52.25,-0.02,-0.5,51.17,-0.06,-0.4,50.69,-0.05
9/1/2021 9:10,,,,,,,,,,,,,,,,,,,,10.35,122.2,9.06,424,74.46,64.77,256.5,88.2,74.58,7.48,88.1,74.61,7.46,,,,91.6,74.5,7.76,71,73.55,6.08,21.2,68.11,1.92,13.7,56.98,1.42,13.3,54.82,1.41,6.4,53.37,0.69,-0.2,52.21,-0.02,-0.5,51.09,-0.06,-0.4,50.69,-0.05
9/1/2021 9:20,,,,,,,,,,,,,,,,,,,,7.57,89.3,9.05,424,74.48,65.6,251.6,86.9,74.59,7.36,85.9,74.61,7.27,,,,89.5,74.48,7.59,70,73.47,6,22.7,68.07,2.06,13.6,57.05,1.41,8.7,54.78,0.92,9,53.47,0.97,-0.2,52.25,-0.02,-0.5,51.29,-0.06,-0.4,50.71,-0.05
9/1/2021 9:30,,,,,,,,,,,,,,,,,,,,10.33,122,9.06,424,74.52,67.52,218.9,87.8,74.59,7.44,83.9,74.6,7.11,,,,91,74.5,7.72,71.6,73.6,6.13,22.2,67.76,2.03,13.5,57.09,1.39,11.3,54.82,1.2,8.7,53.45,0.93,-0.2,52.22,-0.02,-0.5,51.28,-0.06,-0.4,50.74,-0.05
9/1/2021 9:40,,,,,,,,,,,,,,,,,,,,10.36,122.4,9.06,423,74.5,66.64,238.7,87.4,74.59,7.4,84.2,74.61,7.13,,,,90.8,74.49,7.7,71.9,73.61,6.15,19.8,67.52,1.81,13.5,57.17,1.39,7.6,54.68,0.81,7,53.4,0.75,-0.2,52.21,-0.02,-0.5,51.26,-0.06,-0.4,50.8,-0.05
9/1/2021 9:50,,,,,,,,,,,,,,,,,,,,10.87,128.3,9.11,424,74.52,68.45,260.9,90.3,74.59,7.65,89.5,74.61,7.58,,,,92.2,74.51,7.82,71.9,73.62,6.15,19.8,67.25,1.82,13.1,57.48,1.34,7.6,54.64,0.81,7.9,53.45,0.85,-0.2,52.25,-0.02,-0.5,51.34,-0.06,-0.4,50.86,-0.05
9/1/2021 10:00,,,,,,,,,,,,,,,,,,,,10.81,127.7,9.1,424,74.53,67.54,214.2,89.5,74.6,7.59,88,74.61,7.45,,,,89.6,74.46,7.6,71.9,73.61,6.16,20.6,67.43,1.89,12.9,57.54,1.33,7.6,54.64,0.81,8.4,53.49,0.91,-0.2,52.25,-0.02,-0.5,51.34,-0.06,-0.4,50.82,-0.05
9/1/2021 10:10,,,,,,,,,,,,,,,,,,,,10.32,121.9,9.04,423,74.55,66.8,186.6,87.2,74.63,7.39,83.2,74.61,7.04,,,,88.6,74.46,7.51,71.5,73.62,6.12,18.2,67.28,1.67,13.3,57.33,1.37,7.3,54.69,0.78,9.5,53.55,1.02,-0.2,52.3,-0.02,-0.5,51.4,-0.06,-0.4,50.9,-0.05
9/1/2021 10:20,,,,,,,,,,,,,,,,,,,,10.08,119.1,9.09,424,74.59,67.61,309,89.2,74.63,7.56,87.5,74.6,7.41,,,,88.7,74.43,7.52,72.1,73.63,6.17,17.9,66.95,1.64,13.3,57.42,1.37,7.6,54.75,0.81,9.7,53.61,1.04,-0.2,52.33,-0.02,-0.5,51.42,-0.06,-0.4,50.9,-0.05
9/1/2021 10:30,,,,,,,,,,,,,,,,,,,,10.79,127.5,9.08,424,74.61,70.35,304.5,87.7,74.63,7.43,86.1,74.62,7.29,,,,87.3,74.38,7.41,72.6,73.65,6.21,16.3,66.99,1.5,13.3,57.36,1.37,9.6,54.74,1.02,9.8,53.57,1.05,-0.2,52.28,-0.02,-0.5,51.41,-0.06,-0.4,50.9,-0.05
9/1/2021 10:40,,,,,,,,,,,,,,,,,,,,10.55,124.8,9.1,424,74.62,68.51,222.8,88.8,74.63,7.52,85.7,74.61,7.26,,,,88.1,74.41,7.48,73.2,73.7,6.26,14.8,66.67,1.36,13.2,57.36,1.36,13.4,54.81,1.42,9.8,53.55,1.06,-0.2,52.22,-0.02,-0.5,51.46,-0.06,-0.4,50.89,-0.05
9/1/2021 10:50,,,,,,,,,,,,,,,,,,,,10.23,121,9.06,424,74.61,67.64,222.4,87.5,74.64,7.41,77.5,74.61,6.56,,,,89.8,74.41,7.62,73.1,73.72,6.25,16.3,66.87,1.5,12.7,57.54,1.31,14.9,54.94,1.58,9.7,53.61,1.05,-0.2,52.29,-0.02,-0.5,51.46,-0.06,-0.4,50.81,-0.05
9/1/2021 11:00,,,,,,,,,,,,,,,,,,,,10.93,129.3,9.11,424,74.68,69.49,390.1,89.9,74.64,7.61,89.1,74.61,7.55,,,,91.3,74.43,7.75,73,73.66,6.24,14.9,66.71,1.38,12.9,57.32,1.32,16.3,55,1.72,9.3,53.57,1.01,-0.2,52.25,-0.02,-0.5,51.42,-0.06,-0.4,50.82,-0.05
9/1/2021 11:10,,,,,,,,,,,,,,,,,,,,8.63,102.1,9.11,424,74.7,68.52,291.8,89.3,74.63,7.56,86.4,74.61,7.32,,,,90.9,74.42,7.72,74.1,73.75,6.34,15.5,66.87,1.43,8.8,57.71,0.9,14.8,54.97,1.57,8,53.54,0.87,-0.2,52.28,-0.02,-0.5,51.4,-0.06,-0.4,50.77,-0.05
9/1/2021 11:20,,,,,,,,,,,,,,,,,,,,8.61,101.9,9.11,424,74.73,67.19,203.8,89.5,74.63,7.58,84.4,74.61,7.15,,,,90,74.4,7.64,72.5,73.67,6.2,15,66.68,1.38,6.9,57.69,0.71,16,55.01,1.69,9.1,53.57,0.98,-0.2,52.21,-0.02,-0.5,51.42,-0.06,-0.4,50.77,-0.05
9/1/2021 11:30,,,,,,,,,,,,,,,,,,,,10.77,127.4,9.1,424,74.75,69.45,253.3,89.6,74.64,7.59,91.3,74.61,7.73,,,,90.4,74.39,7.68,72.9,73.65,6.23,12.8,65.94,1.19,8.5,57.57,0.87,16.5,55.06,1.74,8.1,53.53,0.88,-0.2,52.25,-0.02,-0.5,51.41,-0.06,-0.4,50.76,-0.05
9/1/2021 11:40,,,,,,,,,,,,,,,,,,,,10.58,125.3,9.07,424,74.73,70.31,334.6,88.2,74.63,7.47,80,74.61,6.77,,,,89.1,74.38,7.56,69.3,73.5,5.94,15.3,66.67,1.41,13.1,57.43,1.34,12.7,54.81,1.35,6.4,53.5,0.69,-0.2,52.16,-0.02,-0.5,51.4,-0.06,-0.4,50.75,-0.05
9/1/2021 11:50,,,,,,,,,,,,,,,,,,,,10.03,118.7,9.11,424,74.75,67.06,333.2,90.7,74.63,7.68,90,74.61,7.62,,,,91.3,74.43,7.75,70.4,73.48,6.04,18.9,67.21,1.74,10.6,57.47,1.08,12.2,54.81,1.3,6.1,53.44,0.66,-0.2,52.12,-0.02,-0.5,51.32,-0.06,-0.4,50.73,-0.05
9/1/2021 12:00,,,,,,,,,,,,,,,,,,,,8.42,99.7,9.1,424,74.79,67.12,240.2,89.9,74.63,7.62,89.6,74.61,7.59,,,,91.2,74.42,7.74,70.2,73.5,6.02,16,66.92,1.47,12.7,57.44,1.3,12.6,54.85,1.34,6,53.45,0.64,-0.2,52.16,-0.02,-0.5,51.32,-0.06,-0.4,50.75,-0.05
9/1/2021 12:10,,,,,,,,,,,,,,,,,,,,7.76,91.9,9.09,424,74.84,68.67,334.4,90,74.61,7.62,90,74.61,7.62,,,,89.9,74.4,7.63,70.2,73.49,6.02,16.2,66.85,1.49,14.1,57.12,1.46,11.9,54.8,1.26,5.9,53.44,0.63,-0.2,52.26,-0.02,-0.5,51.28,-0.06,-0.4,50.76,-0.05
9/1/2021 12:20,,,,,,,,,,,,,,,,,,,,7.85,93,9.1,424,74.84,67.7,239.7,90.7,74.62,7.68,90.4,74.6,7.66,,,,89,74.38,7.55,69.8,73.55,5.98,15,66.43,1.39,13.9,57.08,1.44,11.5,54.74,1.23,5.7,53.4,0.62,-0.2,52.29,-0.02,-0.5,51.33,-0.06,-0.4,50.77,-0.05
9/1/2021 12:30,,,,,,,,,,,,,,,,,,,,8.64,102.4,9.11,424,74.88,69.52,347.3,90.9,74.63,7.7,84.8,74.59,7.18,,,,88.4,74.38,7.5,70.3,73.51,6.03,17.8,67.15,1.63,13.1,57.25,1.35,12.2,54.82,1.3,7,53.46,0.76,-0.2,52.25,-0.02,-0.5,51.31,-0.06,-0.4,50.77,-0.05
9/1/2021 12:40,,,,,,,,,,,,,,,,,,,,8.24,97.7,9.1,424,74.86,69.5,342.3,90.6,74.67,7.67,78.8,74.61,6.68,,,,87.9,74.38,7.47,70,73.5,6,16.7,66.79,1.54,13.7,57.2,1.41,13.7,54.92,1.45,7.9,53.49,0.86,-0.2,52.39,-0.02,-0.5,51.42,-0.06,-0.4,50.8,-0.05
9/1/2021 12:50,,,,,,,,,,,,,,,,,,,,11.01,130.5,9.1,424,74.88,68.77,263.2,89.6,74.71,7.58,84.2,74.61,7.13,,,,88.4,74.38,7.5,68.7,73.4,5.9,15.4,66.43,1.43,13.8,57.22,1.42,13.5,54.93,1.44,8.5,53.5,0.92,-0.2,52.29,-0.02,-0.5,51.39,-0.06,-0.4,50.8,-0.05
9/1/2021 13:00,,,,,,,,,,,,,,,,,,,,8.39,99.5,9.1,423,74.91,71.37,403.8,89.7,74.71,7.59,84.7,74.61,7.17,,,,88,74.39,7.47,68.7,73.35,5.89,15,66.31,1.39,14.5,56.99,1.49,12.1,54.87,1.28,8.8,53.56,0.95,-0.2,52.38,-0.02,-0.5,51.44,-0.06,-0.4,50.83,-0.05
9/1/2021 13:10,,,,,,,,,,,,,,,,,,,,8.6,102,9.09,424,74.95,68.9,248.5,89.7,74.76,7.59,77.7,74.62,6.58,,,,87.5,74.38,7.43,68.9,73.36,5.91,13.4,66.21,1.24,14.2,56.96,1.47,12.2,54.87,1.29,7,53.57,0.75,-0.2,52.31,-0.02,-0.5,51.41,-0.06,-0.4,50.86,-0.05
9/1/2021 13:20,,,,,,,,,,,,,,,,,,,,10.96,130,9.1,424,74.93,69.81,269.5,90.7,74.71,7.67,82.3,74.64,6.97,,,,87.6,74.38,7.44,69.4,73.38,5.95,13.5,66.11,1.26,14.6,56.96,1.51,11.6,54.78,1.23,7.1,53.61,0.77,-0.2,52.21,-0.02,-0.5,51.36,-0.06,-0.4,50.88,-0.05
9/1/2021 13:30,,,,,,,,,,,,,,,,,,,,11.18,132.6,9.11,424,74.98,71.41,240.1,91.2,74.8,7.71,83.5,74.64,7.07,,,,87.5,74.35,7.43,68.9,73.35,5.92,13.2,65.92,1.23,14,57.12,1.45,11.9,54.67,1.27,5.8,53.41,0.62,-0.2,52.18,-0.02,-0.5,51.31,-0.06,-0.4,50.87,-0.05
9/1/2021 13:40,,,,,,,,,,,,,,,,,,,,9.9,117.5,9.09,424,74.98,71.39,218.1,90.1,74.79,7.61,80.6,74.63,6.83,,,,87.9,74.37,7.46,68.2,73.34,5.86,12.5,65.87,1.16,14.5,56.87,1.5,11.4,54.76,1.21,5.7,53.37,0.62,-0.2,52,-0.02,-0.5,51.26,-0.06,-0.4,50.88,-0.05
9/1/2021 13:50,,,,,,,,,,,,,,,,,,,,9.9,117.5,9.09,424,74.97,70.46,113.3,90.9,74.78,7.68,79.5,74.62,6.73,,,,88.6,74.4,7.52,68.3,73.31,5.86,14.1,66.3,1.3,14.3,56.76,1.48,11.7,54.7,1.24,5.3,53.36,0.57,-0.2,52,-0.02,-0.5,51.27,-0.06,-0.4,50.86,-0.05
9/1/2021 14:00,,,,,,,,,,,,,,,,,,,,8.75,103.8,9.12,424,74.98,72.28,280.5,92.2,74.82,7.79,85.4,74.65,7.23,,,,88.8,74.4,7.53,68,73.26,5.84,15.4,66.24,1.43,13.6,56.99,1.4,12,54.73,1.28,5.7,53.34,0.62,-0.2,52.05,-0.02,-0.5,51.17,-0.06,-0.4,50.86,-0.05
9/1/2021 14:10,,,,,,,,,,,,,,,,,,,,8.7,103.3,9.1,424,74.98,71.4,276.7,91.2,74.85,7.71,82.3,74.66,6.97,,,,88.5,74.41,7.51,67.5,73.23,5.8,16,66.47,1.48,13.5,56.67,1.4,11.5,54.73,1.22,5,53.29,0.54,-0.2,52.08,-0.02,-0.5,51.31,-0.06,-0.4,50.86,-0.05
9/1/2021 14:20,,,,,,,,,,,,,,,,,,,,8.85,105,9.11,424,74.97,70.47,175.9,91.5,74.89,7.73,83.8,74.65,7.1,,,,88.4,74.4,7.5,67.3,73.19,5.79,16.5,66.67,1.52,13.1,56.7,1.36,11.9,54.69,1.26,5.1,53.32,0.55,-0.2,52.07,-0.02,-0.5,51.34,-0.06,-0.4,50.86,-0.05
9/1/2021 14:30,,,,,,,,,,,,,,,,,,,,8.64,102.5,9.11,424,75,69.87,252.3,93,74.92,7.85,84.3,74.65,7.14,,,,88.4,74.41,7.51,67.3,73.19,5.79,15.3,66.59,1.42,13.6,56.69,1.41,9.8,54.65,1.04,5.7,53.37,0.61,-0.2,52.17,-0.02,-0.5,51.39,-0.06,-0.4,50.89,-0.05
9/1/2021 14:40,,,,,,,,,,,,,,,,,,,,8.77,104.2,9.1,425,75.06,70.76,230.8,91.6,74.87,7.74,88.2,74.65,7.46,,,,86.9,74.34,7.38,67.6,73.18,5.81,14.3,66.36,1.32,13.8,56.52,1.43,9.5,54.65,1.01,5.1,53.31,0.55,-0.2,52.13,-0.02,-0.5,51.41,-0.06,-0.4,50.86,-0.05
9/1/2021 14:50,,,,,,,,,,,,,,,,,,,,8.73,103.6,9.1,425,75.06,69.82,275.6,92.7,74.92,7.83,87.3,74.65,7.39,,,,88.4,74.4,7.5,66.6,73.07,5.73,14,66.18,1.3,14.1,56.44,1.46,10.4,54.7,1.1,5.6,53.32,0.6,-0.2,52.25,-0.02,-0.5,51.43,-0.06,-0.4,50.88,-0.05
9/1/2021 15:00,,,,,,,,,,,,,,,,,,,,8.82,104.7,9.11,425,75.06,69.73,236.6,92.9,74.96,7.84,89.1,74.66,7.55,,,,88.8,74.41,7.54,66.3,73.08,5.71,13.9,66.1,1.29,13.8,56.47,1.43,12.2,54.73,1.29,5.3,53.36,0.58,-0.2,52.18,-0.02,-0.5,51.43,-0.06,-0.4,50.9,-0.05
9/1/2021 15:10,,,,,,,,,,,,,,,,,,,,8.76,104,9.1,424,75.04,70.58,337.2,92.3,74.99,7.78,90.6,74.67,7.67,,,,88.7,74.42,7.53,65.2,72.98,5.61,13.6,66.08,1.26,14.3,56.39,1.49,13.4,54.83,1.42,6.4,53.37,0.69,-0.2,52.17,-0.02,-0.5,51.45,-0.06,-0.4,50.97,-0.05
9/1/2021 15:20,,,,,,,,,,,,,,,,,,,,9.75,115.8,9.08,424,75.04,71.41,134.2,91.7,74.95,7.74,89.5,74.67,7.57,,,,86.9,74.37,7.38,64.2,72.9,5.54,15.6,66.67,1.44,14.6,56.35,1.52,13.3,54.77,1.41,7.7,53.45,0.83,-0.2,52.26,-0.02,-0.5,51.45,-0.06,-0.4,50.99,-0.05
9/1/2021 15:30,,,,,,,,,,,,,,,,,,,,10.81,128.4,9.1,424,75.06,71.45,257.3,91.9,74.99,7.75,90.2,74.73,7.63,,,,88.8,74.42,7.54,64.1,72.83,5.53,14.8,66.41,1.37,14,56.43,1.46,11.9,54.81,1.26,5.7,53.36,0.62,-0.2,52.13,-0.02,-0.5,51.46,-0.06,-0.4,51.03,-0.05
9/1/2021 15:40,,,,,,,,,,,,,,,,,,,,9.14,108.5,9.12,424,75.07,70.79,321.7,92.8,75.04,7.82,84,74.77,7.1,,,,84,74.25,7.14,65.1,72.85,5.62,18.6,67.1,1.71,14.8,56.33,1.54,12.6,54.85,1.33,8.6,53.45,0.93,-0.2,52.21,-0.02,-0.5,51.53,-0.06,-0.4,51.04,-0.05
9/1/2021 15:50,,,,,,,,,,,,,,,,,,,,9.02,107.1,9.11,424,75.07,72.37,200.3,92.6,75,7.81,85,74.76,7.19,,,,85.1,74.29,7.23,66.6,72.99,5.74,15,66.55,1.39,14,56.5,1.45,7.3,54.81,0.77,10,53.46,1.08,-0.2,52.34,-0.02,-0.5,51.54,-0.06,-0.4,51.07,-0.05
9/1/2021 16:00,,,,,,,,,,,,,,,,,,,,8.98,106.6,9.1,425,75.07,70.63,330.3,92.5,75,7.8,82.4,74.73,6.97,,,,82,74.17,6.98,66.7,72.98,5.75,16.6,66.71,1.53,14,56.58,1.46,8.5,54.76,0.9,8.8,53.45,0.95,-0.2,52.31,-0.02,-0.5,51.55,-0.06,-0.4,51.05,-0.05
9/1/2021 16:10,,,,,,,,,,,,,,,,,,,,8.86,105.2,9.1,424,75.07,71.5,256.2,92.9,75.03,7.84,84.5,74.76,7.15,,,,83.2,74.22,7.07,67.3,73.06,5.79,13.7,66.15,1.28,14.2,56.55,1.47,7.9,54.74,0.83,9.3,53.45,1,-0.2,52.18,-0.02,-0.5,51.42,-0.06,-0.4,51.06,-0.05
