Time America/Chicago UTC-05:00,Roll_deg,Pitch_deg,Wind Speed_knots,Wind Direction_deg,Wind Speed_mph,Magnetic Wind Direction_deg,Wind Direction_deg,Dewpoint_f,Relative Humidity_%,Air Temperature_c,Rel. Barometric Pressure_inHg,HeadingT_deg,Heading_deg,COG_Mdeg,COG_Tdeg,Altitude_m,Longitude_deg,Latitude_deg,UTC Time,ODO at surface_mg/L,ODOSat at surface_%,pH at surface,Sp Cond at surface_uS/cm,Temperature at surface_F,Temperature_f,Carbon Dioxide_ppm,DOSat at 10 ft,Temperature at 10 ft,DO at 10 ft,DOSat at 16 ft,Temperature at 16 ft,DO at 16 ft,DOSat at 23 ft,Temperature at 23 ft,DO at 23 ft,DOSat at 30 ft,Temperature at 30 ft,DO at 30 ft,DOSat at 36 ft,Temperature at 36 ft,DO at 36 ft,DOSat at 43 ft,Temperature at 43 ft,DO at 43 ft,DOSat at 49 ft,Temperature at 49 ft,DO at 49 ft,DOSat at 56 ft,Temperature at 56 ft,DO at 56 ft,DOSat at 62 ft,Temperature at 62 ft,DO at 62 ft,DOSat at 69 ft,Temperature at 69 ft,DO at 69 ft,DOSat at 75 ft,Temperature at 75 ft,DO at 75 ft,DOSat at 82 ft,Temperature at 82 ft,DO at 82 ft
4/1/2021 16:26,,,,,,,,,,,,,,,,,,,,0,0,0,0,32,61.08,463.9,101.1,68.06,9.19,100.8,68.13,9.15,100.7,67.15,9.24,101.4,67.5,9.27,101.5,67.32,9.3,101.6,66.87,9.36,101.6,66.8,9.36,102,67.27,9.35,100.7,66.62,9.3,102.2,66.47,9.45,102.3,66.73,9.43,103.1,66.55,9.53
4/1/2021 16:30,,,,,,,,,,,,,,,,,,,,0,0,0,0,32,,,101,68.07,9.17,100.8,68.13,9.16,100.7,67.17,9.24,101.4,67.54,9.27,101.6,67.33,9.31,101.6,66.87,9.35,101.7,66.83,9.37,101.9,67.29,9.34,100.8,66.63,9.31,102.3,66.48,9.46,102.3,66.73,9.44,103.1,66.55,9.53
4/1/2021 16:40,,,,,,,,,,,,,,,,,,,,0,0,0,0,32,61.92,431.7,100.8,68.11,9.16,100.9,68.14,9.16,100.7,67.22,9.24,101.3,67.59,9.25,101.6,67.38,9.3,101.6,66.91,9.35,101.7,66.88,9.36,101.8,67.35,9.33,101,66.67,9.32,102.2,66.54,9.45,102.5,66.8,9.44,103,66.59,9.52
4/1/2021 16:50,,,,,,,,,,,,,,,,,,,,0,0,0,0,32,64.62,402.2,100.8,68.13,9.15,101.1,68.15,9.18,100.6,67.27,9.23,101.3,67.62,9.25,101.5,67.42,9.29,101.6,66.97,9.34,101.7,66.93,9.36,101.8,67.39,9.32,100.8,66.7,9.3,102.2,66.57,9.44,102.4,66.85,9.43,103.2,66.63,9.52
4/1/2021 17:00,,,,,,,,,,,,,,,,,,,,0,0,0,0,32,65.58,395.1,100.9,68.14,9.16,100.8,68.17,9.15,100.7,67.31,9.23,101.3,67.67,9.25,101.5,67.47,9.28,101.4,66.99,9.33,101.7,66.98,9.35,101.8,67.44,9.31,100.7,66.72,9.29,102.3,66.63,9.44,102.2,66.89,9.41,102.9,66.66,9.5
4/1/2021 17:10,,,,,,,,,,,,,,,,,,,,0,0,0,0,32,64.62,388.6,101,68.12,9.17,101,68.17,9.17,100.7,67.34,9.23,101.4,67.7,9.25,101.5,67.48,9.29,101.5,67,9.33,101.6,67.03,9.34,101.8,67.47,9.31,101,66.73,9.31,102.2,66.68,9.43,102.5,66.93,9.43,103.1,66.67,9.51
4/1/2021 17:20,,,,,,,,,,,,,,,,,,,,0,0,0,0,32,64.64,394.4,100.8,68.03,9.16,100.8,68.13,9.15,100.7,67.35,9.22,101.3,67.7,9.24,101.5,67.51,9.27,101.5,66.99,9.34,101.6,67.04,9.34,101.9,67.5,9.32,100.8,66.74,9.29,102.3,66.69,9.44,102.3,66.96,9.41,103,66.68,9.51
4/1/2021 17:30,,,,,,,,,,,,,,,,,,,,0,0,0,0,32,62.89,396.8,101,67.95,9.19,101,68.1,9.17,100.7,67.35,9.22,101.4,67.67,9.26,101.5,67.51,9.28,101.5,66.97,9.33,101.7,67.06,9.34,101.7,67.5,9.3,101.1,66.73,9.32,102.4,66.71,9.44,102.2,66.97,9.4,103.1,66.68,9.52
4/1/2021 17:40,,,,,,,,,,,,,,,,,,,,0,0,0,0,32,62.83,387.2,101.1,67.83,9.2,100.9,68.04,9.17,100.7,67.35,9.22,101.4,67.63,9.26,101.5,67.48,9.29,101.5,66.93,9.34,101.7,67.07,9.35,101.9,67.48,9.32,100.8,66.72,9.3,102.3,66.71,9.44,102.2,66.96,9.4,102.9,66.67,9.5
4/1/2021 17:50,,,,,,,,,,,,,,,,,,,,0,0,0,0,32,62.84,392.3,101,67.7,9.21,101.2,67.96,9.2,100.7,67.31,9.22,101.3,67.58,9.26,101.6,67.46,9.29,101.4,66.87,9.33,101.7,67.05,9.34,101.8,67.46,9.31,101,66.7,9.32,102.3,66.71,9.44,102.2,66.96,9.4,103,66.64,9.51
4/1/2021 18:00,,,,,,,,,,,,,,,,,,,,0,0,0,0,32,64.6,391.5,100.8,67.56,9.21,101,67.86,9.2,100.6,67.27,9.22,101.5,67.53,9.27,101.5,67.4,9.29,101.4,66.82,9.34,101.6,67.04,9.34,101.6,67.42,9.3,101.1,66.66,9.33,102.3,66.72,9.44,102.3,66.93,9.41,103.1,66.6,9.52
4/1/2021 18:10,,,,,,,,,,,,,,,,,,,,0,0,0,0,32,61.9,378.3,101.1,67.42,9.25,101,67.76,9.21,100.6,67.2,9.23,101.4,67.45,9.27,101.6,67.36,9.3,101.4,66.75,9.34,101.6,67,9.34,101.8,67.36,9.32,101,66.6,9.32,102.3,66.71,9.43,102.3,66.89,9.42,103.1,66.55,9.53
4/1/2021 18:20,,,,,,,,,,,,,,,,,,,,0,0,0,0,32,62.74,380.9,101.1,67.26,9.27,101.2,67.64,9.24,100.7,67.15,9.24,101.4,67.37,9.28,101.4,67.29,9.29,101.4,66.68,9.35,101.7,66.94,9.36,101.7,67.31,9.32,101,66.54,9.33,102.4,66.7,9.44,102,66.84,9.4,103,66.51,9.52
4/1/2021 18:30,,,,,,,,,,,,,,,,,,,,0,0,0,0,32,61.87,364.3,100.9,67.11,9.26,101.1,67.5,9.25,100.7,67.07,9.25,101.4,67.27,9.3,101.4,67.21,9.3,101.4,66.61,9.36,101.7,66.88,9.36,101.8,67.24,9.33,101.1,66.46,9.35,102.3,66.68,9.44,102.1,66.79,9.41,102.9,66.43,9.52
4/1/2021 18:40,,,,,,,,,,,,,,,,,,,,0,0,0,0,32,63.64,379,101,66.94,9.29,101.1,67.37,9.25,100.7,66.99,9.26,101.3,67.18,9.29,101.5,67.12,9.32,101.3,66.51,9.36,101.7,66.84,9.36,101.8,67.18,9.34,101.2,66.39,9.36,102.3,66.66,9.44,102.2,66.73,9.42,103,66.36,9.54
4/1/2021 18:50,,,,,,,,,,,,,,,,,,,,0,0,0,0,32,63.61,366.8,100.9,66.79,9.3,101.1,67.22,9.28,100.7,66.89,9.27,101.3,67.06,9.3,101.4,67.03,9.32,101.4,66.42,9.38,101.8,66.76,9.39,101.7,67.09,9.34,101.1,66.3,9.37,102.3,66.61,9.45,102.1,66.69,9.42,102.9,66.28,9.54
4/1/2021 19:00,,,,,,,,,,,,,,,,,,,,0,0,0,0,32,62.67,363.3,100.9,66.64,9.31,101.1,67.06,9.29,100.7,66.79,9.28,101.3,66.95,9.32,101.4,66.92,9.33,101.3,66.3,9.39,101.7,66.7,9.38,101.8,67,9.35,101.4,66.19,9.41,102.2,66.56,9.44,102,66.62,9.42,102.8,66.2,9.53
4/1/2021 19:10,,,,,,,,,,,,,,,,,,,,0,0,0,0,32,62.67,363.2,100.9,66.47,9.34,101.1,66.9,9.31,100.6,66.7,9.28,101.3,66.82,9.33,101.4,66.8,9.34,101.3,66.19,9.4,101.7,66.64,9.39,101.7,66.91,9.36,101.3,66.1,9.41,102.4,66.51,9.46,102.3,66.56,9.45,102.7,66.11,9.54
4/1/2021 19:20,,,,,,,,,,,,,,,,,,,,0,0,0,0,32,61.72,356,100.9,66.28,9.35,101.1,66.74,9.32,100.7,66.61,9.3,101.3,66.72,9.34,101.5,66.7,9.36,101.3,66.07,9.41,101.8,66.56,9.4,101.9,66.79,9.39,101.2,65.98,9.41,102.4,66.44,9.47,101.9,66.45,9.43,102.7,66.02,9.55
4/1/2021 19:30,,,,,,,,,,,,,,,,,,,,0,0,0,0,32,59.99,353.2,101,66.11,9.38,101.1,66.61,9.33,100.7,66.5,9.31,101.3,66.6,9.35,101.5,66.57,9.38,101.2,65.94,9.42,101.7,66.45,9.41,101.8,66.71,9.39,101.6,65.86,9.46,102.4,66.39,9.48,102.1,66.37,9.46,102.8,65.91,9.56
4/1/2021 19:40,,,,,,,,,,,,,,,,,,,,0,0,0,0,32,60.83,351.4,101.1,65.92,9.41,101.3,66.43,9.37,100.7,66.39,9.32,101.3,66.46,9.37,101.4,66.44,9.38,101.3,65.79,9.44,101.7,66.36,9.42,101.8,66.62,9.4,101.4,65.74,9.45,102.3,66.32,9.48,102.1,66.27,9.46,102.8,65.82,9.58
4/1/2021 19:50,,,,,,,,,,,,,,,,,,,,0,0,0,0,32,61.7,356.4,101,65.75,9.42,101.2,66.26,9.38,100.7,66.27,9.34,101.3,66.33,9.38,101.4,66.31,9.39,101.3,65.67,9.45,101.9,66.26,9.44,101.7,66.51,9.4,101.5,65.61,9.47,102.4,66.24,9.49,102.2,66.17,9.48,102.9,65.71,9.6
4/1/2021 20:00,,,,,,,,,,,,,,,,,,,,0,0,0,0,32,61.7,352.9,101.1,65.59,9.44,101.2,66.09,9.4,100.7,66.14,9.35,101.4,66.18,9.41,101.5,66.15,9.42,101.3,65.53,9.47,101.9,66.16,9.45,101.8,66.39,9.42,101.5,65.46,9.49,102.5,66.16,9.51,102.1,66.08,9.48,103,65.59,9.62
4/1/2021 20:10,,,,,,,,,,,,,,,,,,,,0,0,0,0,32,60,339.2,101.2,65.43,9.47,101.3,65.93,9.42,100.7,66.03,9.36,101.4,66.06,9.42,101.5,66.02,9.43,101.3,65.39,9.48,101.8,66.05,9.46,101.8,66.27,9.44,101.4,65.34,9.5,102.4,66.07,9.52,102.1,65.96,9.5,102.9,65.49,9.62
4/1/2021 20:20,,,,,,,,,,,,,,,,,,,,0,0,0,0,32,59.86,346.6,101.1,65.27,9.48,101.2,65.76,9.43,100.7,65.9,9.37,101.3,65.91,9.43,101.5,65.88,9.45,101.4,65.26,9.5,101.9,65.96,9.48,101.9,66.15,9.46,101.6,65.21,9.53,102.5,65.99,9.53,102,65.87,9.49,103,65.39,9.65
4/1/2021 20:30,,,,,,,,,,,,,,,,,,,,0,0,0,0,32,60.75,352.8,101.1,65.11,9.49,101.2,65.61,9.45,100.7,65.79,9.39,101.3,65.78,9.45,101.4,65.72,9.46,101.3,65.11,9.52,101.9,65.84,9.49,101.9,66.05,9.47,101.6,65.08,9.55,102.5,65.9,9.54,102.1,65.76,9.52,102.9,65.27,9.65
4/1/2021 20:40,,,,,,,,,,,,,,,,,,,,0,0,0,0,32,60.74,352.2,100.9,64.95,9.49,101.2,65.45,9.47,100.8,65.67,9.4,101.3,65.63,9.46,101.6,65.59,9.49,101.3,64.99,9.53,101.8,65.75,9.49,101.8,65.93,9.47,101.6,64.95,9.56,102.4,65.8,9.54,102.1,65.65,9.53,102.8,65.17,9.65
4/1/2021 20:50,,,,,,,,,,,,,,,,,,,,0,0,0,0,32,60.73,360.1,101.1,64.82,9.52,101.4,65.28,9.5,100.8,65.54,9.42,101.3,65.5,9.47,101.5,65.43,9.5,101.4,64.86,9.55,102,65.64,9.52,101.8,65.83,9.48,101.7,64.82,9.58,102.5,65.72,9.56,101.9,65.56,9.52,103,65.07,9.68
4/1/2021 21:00,,,,,,,,,,,,,,,,,,,,0,0,0,0,32,59.82,351.4,101.2,64.68,9.55,101.5,65.13,9.53,100.7,65.42,9.42,101.3,65.37,9.48,101.5,65.3,9.51,101.3,64.74,9.55,101.9,65.54,9.52,101.9,65.71,9.5,101.8,64.7,9.6,102.5,65.63,9.57,102.2,65.45,9.56,103,64.95,9.69
4/1/2021 21:10,,,,,,,,,,,,,,,,,,,,0,0,0,0,32,59.79,355,101,64.55,9.54,101.3,65.01,9.52,100.8,65.31,9.44,101.4,65.23,9.51,101.5,65.16,9.53,101.4,64.62,9.57,102,65.44,9.54,101.9,65.6,9.51,101.6,64.58,9.6,102.4,65.54,9.57,101.9,65.36,9.54,103.2,64.87,9.72
4/1/2021 21:20,,,,,,,,,,,,,,,,,,,,0,0,0,0,32,60.73,353.8,101.1,64.43,9.57,101.1,64.85,9.53,100.7,65.21,9.45,101.3,65.1,9.52,101.6,65.03,9.55,101.4,64.5,9.58,102,65.33,9.56,101.8,65.51,9.52,101.7,64.46,9.62,102.5,65.44,9.59,102.1,65.28,9.57,103.1,64.76,9.72
4/1/2021 21:30,,,,,,,,,,,,,,,,,,,,0,0,0,0,32,59.77,356.9,101.2,64.31,9.59,101.1,64.72,9.54,100.8,65.1,9.47,101.3,64.98,9.53,101.5,64.89,9.55,101.4,64.38,9.6,102,65.24,9.57,102,65.39,9.55,101.7,64.34,9.63,102.5,65.35,9.6,102.2,65.16,9.59,102.9,64.66,9.71
4/1/2021 21:40,,,,,,,,,,,,,,,,,,,,0,0,0,0,32,59.82,344.5,100.9,64.19,9.58,101.1,64.57,9.56,100.8,64.98,9.47,101.3,64.85,9.54,101.5,64.76,9.57,101.3,64.27,9.61,101.9,65.16,9.57,102,65.29,9.56,101.8,64.23,9.65,102.5,65.27,9.61,102.1,65.08,9.59,103.1,64.57,9.74
4/1/2021 21:50,,,,,,,,,,,,,,,,,,,,0,0,0,0,32,59.78,348.9,100.9,64.07,9.58,101.4,64.44,9.59,100.8,64.88,9.49,101.3,64.74,9.55,101.5,64.63,9.58,101.3,64.16,9.62,102,65.07,9.58,101.9,65.18,9.57,101.7,64.12,9.66,102.5,65.18,9.62,102.3,64.98,9.62,102.9,64.47,9.74
4/1/2021 22:00,,,,,,,,,,,,,,,,,,,,0,0,0,0,32,58.91,348.3,101.3,63.95,9.64,101.4,64.33,9.61,100.7,64.78,9.5,101.3,64.62,9.56,101.5,64.5,9.6,101.3,64.06,9.63,102,64.95,9.6,101.8,65.1,9.56,101.8,64.02,9.68,102.4,65.09,9.62,102.1,64.88,9.61,103,64.38,9.75
4/1/2021 22:10,,,,,,,,,,,,,,,,,,,,0,0,0,0,32,58.11,351.7,101.2,63.83,9.64,101.3,64.2,9.61,100.7,64.66,9.51,101.3,64.5,9.58,101.5,64.38,9.61,101.3,63.95,9.64,102,64.87,9.6,102,64.99,9.59,101.7,63.9,9.68,102.6,64.99,9.65,102.1,64.8,9.62,102.9,64.3,9.76
4/1/2021 22:20,,,,,,,,,,,,,,,,,,,,0,0,0,0,32,59.77,351.2,101.2,63.73,9.66,101.2,64.07,9.62,100.7,64.58,9.52,101.3,64.38,9.59,101.5,64.27,9.62,101.4,63.86,9.66,102,64.79,9.61,102,64.91,9.6,101.6,63.8,9.69,102.5,64.91,9.65,102,64.72,9.63,103.1,64.2,9.78
4/1/2021 22:30,,,,,,,,,,,,,,,,,,,,0,0,0,0,32,58.89,356.2,101.1,63.63,9.66,101.3,63.96,9.64,100.7,64.46,9.52,101.3,64.26,9.61,101.5,64.15,9.63,101.3,63.74,9.66,102,64.71,9.62,102.1,64.8,9.62,101.8,63.7,9.72,102.5,64.83,9.66,102,64.63,9.63,103,64.12,9.78
4/1/2021 22:40,,,,,,,,,,,,,,,,,,,,0,0,0,0,32,59.76,358,101.2,63.51,9.68,101.3,63.84,9.65,100.7,64.38,9.53,101.2,64.16,9.61,101.5,64.03,9.65,101.4,63.66,9.68,101.9,64.62,9.63,101.9,64.71,9.62,101.8,63.59,9.73,102.5,64.75,9.66,102,64.53,9.64,102.9,64.02,9.79
4/1/2021 22:50,,,,,,,,,,,,,,,,,,,,0,0,0,0,32,57.96,350.1,101.1,63.42,9.68,101.4,63.73,9.67,100.7,64.29,9.55,101.3,64.05,9.63,101.4,63.91,9.66,101.4,63.56,9.69,102.1,64.51,9.65,101.9,64.63,9.62,101.6,63.5,9.72,102.6,64.67,9.68,102,64.46,9.65,103.1,63.94,9.81
4/1/2021 23:00,,,,,,,,,,,,,,,,,,,,0,0,0,0,32,57.95,361.8,101.2,63.32,9.7,101.4,63.61,9.68,100.7,64.18,9.55,101.3,63.94,9.64,101.5,63.8,9.67,101.3,63.46,9.7,101.9,64.44,9.64,102.1,64.54,9.65,101.6,63.41,9.73,102.5,64.59,9.68,102.1,64.37,9.67,103,63.86,9.81
4/1/2021 23:10,,,,,,,,,,,,,,,,,,,,0,0,0,0,32,58.82,357.3,101.3,63.22,9.72,101.3,63.52,9.69,100.7,64.1,9.57,101.3,63.85,9.65,101.4,63.69,9.68,101.3,63.38,9.7,101.9,64.35,9.66,101.9,64.46,9.64,101.7,63.31,9.75,102.5,64.51,9.69,102,64.29,9.67,102.9,63.78,9.81
4/1/2021 23:20,,,,,,,,,,,,,,,,,,,,0,0,0,0,32,58,350,101.3,63.14,9.73,101.2,63.4,9.69,100.7,64.02,9.58,101.4,63.75,9.67,101.4,63.58,9.69,101.3,63.29,9.72,102,64.27,9.67,102,64.38,9.66,101.8,63.22,9.77,102.5,64.43,9.7,102,64.21,9.67,102.9,63.7,9.82
4/1/2021 23:30,,,,,,,,,,,,,,,,,,,,0,0,0,0,32,57.98,347.8,101,63.03,9.71,101.4,63.31,9.72,100.7,63.93,9.58,101.3,63.65,9.68,101.5,63.5,9.71,101.2,63.2,9.72,102,64.19,9.68,102.1,64.3,9.68,101.8,63.13,9.77,102.5,64.35,9.71,102,64.14,9.69,103,63.62,9.84
4/1/2021 23:40,,,,,,,,,,,,,,,,,,,,0,0,0,0,32,57.89,355.7,101.2,62.95,9.74,101.3,63.21,9.72,100.7,63.83,9.6,101.3,63.56,9.68,101.5,63.4,9.72,101.4,63.12,9.74,102,64.12,9.69,102,64.22,9.68,101.7,63.05,9.78,102.5,64.27,9.72,102,64.07,9.7,102.9,63.55,9.84
4/1/2021 23:50,,,,,,,,,,,,,,,,,,,,0,0,0,0,32,58.81,361.8,101.1,62.86,9.74,101.2,63.11,9.72,100.8,63.75,9.61,101.4,63.46,9.7,101.5,63.29,9.73,101.3,63.03,9.74,102,64.04,9.7,102.1,64.14,9.69,101.7,62.95,9.79,102.5,64.19,9.72,102,63.99,9.7,103.2,63.49,9.87
4/2/2021 0:00,,,,,,,,,,,,,,,,,,,,0,0,0,0,32,57.93,352.2,101.3,62.79,9.77,101.3,63.01,9.75,100.7,63.66,9.62,101.3,63.37,9.7,101.5,63.19,9.74,101.4,62.95,9.76,102,63.98,9.7,101.9,64.06,9.68,101.7,62.87,9.8,102.5,64.12,9.74,102.1,63.92,9.72,102.9,63.41,9.85
4/2/2021 0:10,,,,,,,,,,,,,,,,,,,,0,0,0,0,32,59.74,363.9,101.1,62.7,9.76,101.4,62.92,9.76,100.6,63.58,9.62,101.3,63.29,9.72,101.5,63.1,9.76,101.3,62.86,9.76,102,63.91,9.71,102,63.98,9.7,101.9,62.79,9.83,102.5,64.05,9.75,102,63.84,9.72,102.9,63.34,9.86
4/2/2021 0:20,,,,,,,,,,,,,,,,,,,,0,0,0,0,32,57.89,353.7,101,62.61,9.76,101.1,62.84,9.74,100.8,63.51,9.64,101.3,63.21,9.72,101.6,63.01,9.77,101.4,62.79,9.78,102,63.83,9.72,102.1,63.91,9.72,101.8,62.71,9.83,102.5,63.99,9.75,102.2,63.78,9.74,103,63.26,9.88
4/2/2021 0:30,,,,,,,,,,,,,,,,,,,,0,0,0,0,32,58.79,359.3,101.3,62.54,9.8,101.4,62.75,9.78,100.7,63.44,9.64,101.3,63.13,9.73,101.5,62.91,9.78,101.4,62.72,9.79,102,63.76,9.73,102.1,63.84,9.73,101.7,62.63,9.82,102.6,63.91,9.77,102.1,63.72,9.74,103,63.19,9.89
4/2/2021 0:40,,,,,,,,,,,,,,,,,,,,0,0,0,0,32,58.79,360.1,101,62.46,9.77,101.3,62.66,9.79,100.8,63.37,9.65,101.2,63.05,9.73,101.6,62.83,9.79,101.3,62.65,9.78,102.1,63.69,9.74,102,63.78,9.72,101.7,62.56,9.84,102.5,63.83,9.77,102,63.64,9.74,103.1,63.14,9.9
4/2/2021 0:50,,,,,,,,,,,,,,,,,,,,0,0,0,0,32,59.71,360.5,101.1,62.38,9.8,101.2,62.58,9.79,100.8,63.3,9.66,101.3,62.97,9.75,101.6,62.75,9.8,101.3,62.58,9.8,102.1,63.63,9.75,101.9,63.71,9.73,101.7,62.49,9.84,102.5,63.78,9.77,102.3,63.58,9.77,102.9,63.06,9.9
4/2/2021 1:00,,,,,,,,,,,,,,,,,,,,0,0,0,0,32,58.79,364.3,101,62.32,9.79,101.4,62.51,9.81,100.7,63.22,9.66,101.4,62.89,9.77,101.5,62.67,9.8,101.4,62.51,9.81,102,63.56,9.75,102,63.66,9.74,101.8,62.41,9.86,102.6,63.71,9.79,102,63.52,9.76,103.2,63.02,9.92
4/2/2021 1:10,,,,,,,,,,,,,,,,,,,,0,0,0,0,32,58.8,365.6,101.1,62.26,9.81,101.3,62.44,9.81,100.7,63.17,9.67,101.3,62.81,9.77,101.6,62.59,9.82,101.4,62.45,9.82,102.1,63.51,9.76,102.1,63.58,9.76,101.8,62.35,9.86,102.6,63.65,9.79,102.1,63.46,9.77,103,62.94,9.92
4/2/2021 1:20,,,,,,,,,,,,,,,,,,,,0,0,0,0,32,57.86,359.4,101.1,62.19,9.82,101.2,62.36,9.81,100.8,63.1,9.69,101.3,62.74,9.77,101.5,62.52,9.82,101.3,62.38,9.81,102.1,63.44,9.78,102,63.52,9.75,101.8,62.29,9.87,102.5,63.59,9.8,102.1,63.4,9.77,102.8,62.9,9.9
4/2/2021 1:30,,,,,,,,,,,,,,,,,,,,0,0,0,0,32,56.17,349.7,101.3,62.14,9.85,101.3,62.29,9.82,100.7,63.02,9.69,101.3,62.68,9.78,101.6,62.45,9.84,101.3,62.33,9.82,102,63.38,9.77,101.9,63.46,9.75,101.6,62.22,9.87,102.7,63.52,9.82,101.9,63.35,9.76,102.9,62.83,9.92
4/2/2021 1:40,,,,,,,,,,,,,,,,,,,,0,0,0,0,32,58.8,362.6,101.4,62.07,9.86,101.3,62.23,9.83,100.7,62.98,9.69,101.4,62.61,9.8,101.6,62.38,9.84,101.4,62.27,9.84,102.1,63.31,9.79,101.9,63.4,9.76,101.8,62.17,9.89,102.5,63.47,9.81,102.2,63.28,9.8,103,62.78,9.94
4/2/2021 1:50,,,,,,,,,,,,,,,,,,,,0,0,0,0,32,56.13,356.4,101.2,62.02,9.84,101.3,62.16,9.84,100.8,62.9,9.7,101.3,62.56,9.8,101.6,62.31,9.85,101.4,62.21,9.85,102,63.27,9.79,102,63.34,9.77,101.7,62.1,9.89,102.5,63.42,9.81,102.2,63.23,9.8,103,62.72,9.94
4/2/2021 2:00,,,,,,,,,,,,,,,,,,,,0,0,0,0,32,57.85,367,101.3,61.98,9.86,101.2,62.11,9.84,100.8,62.86,9.71,101.3,62.49,9.8,101.6,62.24,9.86,101.4,62.17,9.85,102,63.21,9.79,102.1,63.3,9.78,101.6,62.05,9.89,102.5,63.35,9.82,102.1,63.19,9.81,103,62.68,9.95
4/2/2021 2:10,,,,,,,,,,,,,,,,,,,,0,0,0,0,32,57.83,356.1,101.2,61.92,9.86,101.5,62.04,9.87,100.8,62.81,9.72,101.3,62.43,9.81,101.6,62.18,9.86,101.3,62.12,9.84,102.1,63.17,9.8,102.1,63.24,9.8,102.1,62,9.93,102.5,63.31,9.83,102.2,63.13,9.81,102.9,62.62,9.94
4/2/2021 2:20,,,,,,,,,,,,,,,,,,,,0,0,0,0,32,59.63,359.9,101.2,61.86,9.86,101.4,61.99,9.87,100.7,62.74,9.72,101.3,62.37,9.82,101.6,62.12,9.87,101.4,62.06,9.86,102.1,63.11,9.81,102.1,63.18,9.8,101.8,61.93,9.92,102.6,63.26,9.84,102,63.08,9.8,103,62.57,9.95
4/2/2021 2:30,,,,,,,,,,,,,,,,,,,,0,0,0,0,32,56.94,357.4,101.2,61.82,9.87,101.2,61.93,9.86,100.7,62.7,9.73,101.3,62.32,9.82,101.6,62.06,9.88,101.4,62.02,9.87,102,63.07,9.81,102.2,63.14,9.81,101.8,61.89,9.92,102.6,63.19,9.85,102.1,63.04,9.81,102.9,62.53,9.95
4/2/2021 2:40,,,,,,,,,,,,,,,,,,,,0,0,0,0,32,56.1,351.1,101.1,61.77,9.86,101.4,61.87,9.88,100.8,62.65,9.73,101.3,62.26,9.83,101.7,62.02,9.89,101.5,61.97,9.88,102.1,63.03,9.82,102,63.1,9.81,101.9,61.85,9.94,102.5,63.15,9.84,102.1,62.99,9.82,103.1,62.48,9.97
4/2/2021 2:50,,,,,,,,,,,,,,,,,,,,0,0,0,0,32,56.09,354.6,101.1,61.73,9.87,101.2,61.84,9.87,100.7,62.59,9.74,101.3,62.21,9.84,101.7,61.94,9.9,101.3,61.93,9.87,102.1,62.99,9.82,102.1,63.05,9.82,101.8,61.79,9.93,102.6,63.1,9.86,102.1,62.95,9.82,103,62.44,9.97
4/2/2021 3:00,,,,,,,,,,,,,,,,,,,,0,0,0,0,32,58.79,363.9,101.4,61.67,9.91,101.2,61.78,9.88,100.8,62.54,9.75,101.4,62.17,9.85,101.6,61.9,9.9,101.3,61.89,9.88,102.1,62.94,9.83,101.9,63.02,9.8,101.9,61.75,9.94,102.6,63.05,9.86,102.1,62.89,9.83,103.1,62.39,9.99
4/2/2021 3:10,,,,,,,,,,,,,,,,,,,,0,0,0,0,32,57.83,354.8,101.2,61.62,9.9,101.6,61.73,9.92,100.8,62.5,9.76,101.3,62.12,9.85,101.6,61.85,9.9,101.3,61.84,9.88,102.1,62.89,9.84,102,62.97,9.82,101.9,61.69,9.96,102.6,63.02,9.87,102.2,62.86,9.85,103,62.35,9.98
4/2/2021 3:20,,,,,,,,,,,,,,,,,,,,0,0,0,0,32,56.88,355.2,101.1,61.59,9.89,101.5,61.67,9.91,100.7,62.45,9.75,101.4,62.08,9.86,101.6,61.8,9.92,101.4,61.8,9.89,102.1,62.84,9.84,102.1,62.92,9.83,101.7,61.65,9.94,102.6,62.96,9.87,102.2,62.8,9.86,103,62.3,9.99
4/2/2021 3:30,,,,,,,,,,,,,,,,,,,,0,0,0,0,32,56.88,359.3,101.3,61.57,9.91,101.3,61.63,9.9,100.8,62.41,9.77,101.4,62.02,9.86,101.7,61.74,9.92,101.4,61.75,9.9,102.1,62.8,9.85,102.2,62.87,9.85,101.8,61.61,9.96,102.6,62.92,9.88,102.1,62.75,9.85,103.2,62.26,10.01
4/2/2021 3:40,,,,,,,,,,,,,,,,,,,,0,0,0,0,32,56.95,345.8,101.1,61.54,9.89,101.3,61.59,9.91,100.8,62.37,9.76,101.4,61.97,9.87,101.7,61.7,9.93,101.4,61.72,9.9,102.2,62.77,9.85,102.1,62.84,9.84,101.9,61.59,9.96,102.6,62.86,9.89,102.1,62.72,9.85,103.2,62.22,10.02
4/2/2021 3:50,,,,,,,,,,,,,,,,,,,,0,0,0,0,32,56.94,349.2,101.2,61.5,9.9,101.2,61.56,9.9,100.8,62.33,9.77,101.4,61.93,9.88,101.6,61.66,9.93,101.4,61.68,9.91,102.2,62.73,9.86,102.1,62.79,9.85,102,61.57,9.97,102.6,62.83,9.89,102.1,62.68,9.86,103.1,62.19,10.01
4/2/2021 4:00,,,,,,,,,,,,,,,,,,,,0,0,0,0,32,56.89,359.5,101,61.46,9.89,101.4,61.53,9.92,100.9,62.29,9.78,101.4,61.88,9.89,101.7,61.61,9.94,101.4,61.64,9.91,102.1,62.7,9.86,102.2,62.75,9.86,101.7,61.53,9.96,102.7,62.79,9.9,102.2,62.63,9.88,103.2,62.15,10.02
4/2/2021 4:10,,,,,,,,,,,,,,,,,,,,0,0,0,0,32,57.82,349.4,101.3,61.42,9.93,101.3,61.49,9.92,100.8,62.25,9.78,101.4,61.84,9.89,101.7,61.57,9.94,101.5,61.6,9.92,102.1,62.66,9.86,102.2,62.71,9.86,101.9,61.49,9.98,102.8,62.75,9.92,102.2,62.59,9.87,103.1,62.12,10.02
4/2/2021 4:20,,,,,,,,,,,,,,,,,,,,0,0,0,0,32,56.04,346.3,101.2,61.4,9.92,101.5,61.45,9.94,100.9,62.21,9.79,101.4,61.8,9.9,101.7,61.54,9.95,101.4,61.57,9.92,102.2,62.62,9.88,102.2,62.68,9.87,101.9,61.45,9.98,102.7,62.71,9.92,102.2,62.55,9.88,103.1,62.08,10.03
4/2/2021 4:30,,,,,,,,,,,,,,,,,,,,0,0,0,0,32,57.83,351.3,101.2,61.36,9.93,101.2,61.42,9.92,100.8,62.17,9.79,101.5,61.76,9.9,101.7,61.52,9.95,101.6,61.55,9.94,102.1,62.59,9.87,102.3,62.65,9.88,101.8,61.41,9.98,102.7,62.68,9.92,102.1,62.53,9.88,103.2,62.05,10.03
4/2/2021 4:40,,,,,,,,,,,,,,,,,,,,0,0,0,0,32,57.82,352.9,101.1,61.32,9.92,101.3,61.39,9.93,100.9,62.13,9.8,101.6,61.73,9.92,101.7,61.47,9.96,101.4,61.53,9.93,102.2,62.54,9.88,102.2,62.62,9.88,101.8,61.37,9.98,102.7,62.64,9.92,102.1,62.49,9.88,103.2,62.01,10.04
4/2/2021 4:50,,,,,,,,,,,,,,,,,,,,0,0,0,0,32,56.91,344.2,101.2,61.29,9.93,101.5,61.34,9.95,100.9,62.09,9.81,101.6,61.69,9.92,101.7,61.43,9.96,101.6,61.51,9.95,102.3,62.51,9.9,102.2,62.57,9.88,101.9,61.33,10,102.8,62.61,9.94,102.3,62.46,9.9,103.2,61.97,10.05
4/2/2021 5:00,,,,,,,,,,,,,,,,,,,,0,0,0,0,32,56.88,346.3,101.2,61.25,9.94,101.5,61.31,9.96,101,62.05,9.82,101.5,61.66,9.92,101.7,61.41,9.96,101.5,61.48,9.94,102.2,62.47,9.89,102.2,62.54,9.88,102.1,61.3,10.02,102.7,62.57,9.93,102.3,62.43,9.9,103.2,61.94,10.05
4/2/2021 5:10,,,,,,,,,,,,,,,,,,,,0,0,0,0,32,56,349.8,101.3,61.21,9.95,101.3,61.27,9.94,100.9,62.03,9.81,101.5,61.62,9.92,101.8,61.38,9.98,101.6,61.45,9.95,102.3,62.46,9.9,102.3,62.51,9.9,101.8,61.28,9.99,102.7,62.54,9.93,102.2,62.39,9.9,103.1,61.91,10.04
4/2/2021 5:20,,,,,,,,,,,,,,,,,,,,0,0,0,0,32,56.88,348.1,101.3,61.17,9.96,101.4,61.25,9.96,101,62.01,9.83,101.7,61.6,9.94,101.8,61.34,9.98,101.6,61.42,9.95,102.3,62.44,9.9,102.2,62.49,9.89,102.3,61.24,10.04,102.9,62.51,9.95,102.3,62.39,9.91,103.2,61.89,10.05
4/2/2021 5:30,,,,,,,,,,,,,,,,,,,,0,0,0,0,32,57.82,345.8,101.3,61.17,9.95,101.5,61.23,9.97,101,61.97,9.83,101.5,61.6,9.93,101.7,61.3,9.98,101.6,61.42,9.96,102.3,62.42,9.91,102.4,62.46,9.92,101.9,61.23,10.01,102.8,62.48,9.95,102.2,62.36,9.91,103.2,61.85,10.06
4/2/2021 5:40,,,,,,,,,,,,,,,,,,,,0,0,0,0,32,57.82,344.5,101.2,61.17,9.94,101.4,61.23,9.96,101,61.97,9.83,101.6,61.59,9.94,101.9,61.29,9.99,101.5,61.42,9.94,102.3,62.39,9.92,102.2,62.45,9.9,101.9,61.2,10.01,102.8,62.45,9.95,102.4,62.35,9.92,103.1,61.83,10.06
4/2/2021 5:50,,,,,,,,,,,,,,,,,,,,0,0,0,0,32,56.88,344.9,101.4,61.18,9.97,101.4,61.24,9.96,101,61.94,9.84,101.7,61.59,9.94,101.9,61.27,10,101.5,61.43,9.94,102.3,62.38,9.91,102.3,62.43,9.91,101.9,61.2,10.01,102.9,62.43,9.96,102.3,62.32,9.92,103.3,61.81,10.08
4/2/2021 6:00,,,,,,,,,,,,,,,,,,,,0,0,0,0,32,58.78,350.9,101.2,61.21,9.94,101.5,61.24,9.97,101,61.94,9.84,101.6,61.58,9.94,101.9,61.26,10,101.6,61.45,9.96,102.3,62.36,9.92,102.3,62.43,9.9,102,61.2,10.02,102.8,62.42,9.95,102.3,62.32,9.92,103.2,61.81,10.07
4/2/2021 6:10,,,,,,,,,,,,,,,,,,,,0,0,0,0,32,57.82,349.6,101.5,61.22,9.97,101.4,61.27,9.95,101,61.93,9.83,101.5,61.58,9.93,101.8,61.25,10,101.5,61.45,9.94,102.3,62.35,9.92,102.4,62.42,9.91,102.1,61.2,10.03,102.9,62.4,9.97,102.3,62.32,9.92,103.4,61.8,10.08
4/2/2021 6:20,,,,,,,,,,,,,,,,,,,,0,0,0,0,32,57.84,349.9,101.5,61.25,9.97,101.4,61.28,9.96,101.1,61.93,9.84,101.7,61.59,9.95,102,61.26,10.01,101.5,61.47,9.94,102.2,62.38,9.91,102.4,62.44,9.92,101.9,61.2,10.01,102.8,62.39,9.96,102.3,62.31,9.92,103.3,61.79,10.07
4/2/2021 6:30,,,,,,,,,,,,,,,,,,,,0,0,0,0,32,57.86,348.3,101.4,61.29,9.95,101.4,61.31,9.95,101,61.95,9.84,101.7,61.6,9.95,102,61.28,10.01,101.7,61.49,9.95,102.3,62.38,9.91,102.3,62.45,9.91,102,61.2,10.02,102.9,62.39,9.97,102.5,62.32,9.94,103.3,61.79,10.08
4/2/2021 6:40,,,,,,,,,,,,,,,,,,,,0,0,0,0,32,57.83,355.8,101.5,61.33,9.96,101.6,61.35,9.96,101.1,61.97,9.85,101.6,61.6,9.93,101.9,61.3,10,101.6,61.53,9.95,102.4,62.38,9.93,102.4,62.46,9.91,102,61.22,10.02,102.9,62.39,9.97,102.4,62.33,9.93,103.3,61.79,10.08
4/2/2021 6:50,,,,,,,,,,,,,,,,,,,,0,0,0,0,32,56.94,354.7,101.4,61.43,9.93,101.7,61.39,9.97,101.1,61.98,9.84,101.7,61.64,9.94,102,61.3,10.01,101.7,61.54,9.95,102.3,62.38,9.92,102.5,62.49,9.92,102.1,61.24,10.02,102.9,62.38,9.97,102.4,62.35,9.93,103.3,61.81,10.07
4/2/2021 7:00,,,,,,,,,,,,,,,,,,,,0,0,0,0,32,59.7,354,101.5,61.61,9.93,101.6,61.47,9.95,101,62.03,9.83,101.7,61.72,9.93,102.1,61.35,10.01,101.8,61.57,9.96,102.4,62.39,9.92,102.5,62.57,9.91,102,61.28,10.01,102.9,62.39,9.97,102.5,62.39,9.93,103.4,61.81,10.09
4/2/2021 7:10,,,,,,,,,,,,,,,,,,,,0,0,0,0,32,57.96,358.7,101.3,61.85,9.88,101.5,61.59,9.92,101,62.09,9.82,101.7,61.84,9.92,102.2,61.42,10.01,101.8,61.67,9.95,102.4,62.43,9.92,102.4,62.66,9.89,101.8,61.34,9.99,103,62.42,9.98,102.6,62.45,9.93,103.5,61.85,10.09
4/2/2021 7:20,,,,,,,,,,,,,,,,,,,,0,0,0,0,32,58.85,364.1,101.7,62.1,9.88,101.5,61.75,9.9,101.2,62.18,9.83,101.7,61.96,9.91,102.1,61.5,9.99,101.8,61.77,9.93,102.4,62.51,9.9,102.5,62.76,9.89,101.8,61.43,9.97,102.9,62.46,9.96,102.6,62.54,9.92,103.7,61.91,10.1
4/2/2021 7:30,,,,,,,,,,,,,,,,,,,,0,0,0,0,32,59.79,373.2,101.6,62.38,9.84,101.4,61.95,9.88,101.2,62.29,9.81,101.8,62.11,9.9,102.1,61.58,9.98,101.9,61.91,9.93,102.3,62.58,9.89,102.5,62.87,9.88,102,61.53,9.98,102.9,62.51,9.96,102.6,62.64,9.91,103.7,61.99,10.09
4/2/2021 7:40,,,,,,,,,,,,,,,,,,,,0,0,0,0,32,60.74,388.5,101.7,62.65,9.83,101.5,62.15,9.86,101.2,62.41,9.8,101.7,62.28,9.87,102.2,61.7,9.98,101.8,62.05,9.9,102.3,62.66,9.88,102.5,63.01,9.86,101.7,61.6,9.94,103,62.56,9.96,102.8,62.76,9.92,103.8,62.09,10.1
4/2/2021 7:50,,,,,,,,,,,,,,,,,,,,0,0,0,0,32,59.82,388.6,101.6,62.9,9.79,101.4,62.36,9.83,101.2,62.54,9.79,101.9,62.44,9.87,102.3,61.83,9.97,101.9,62.21,9.89,102.3,62.75,9.87,102.7,63.13,9.86,101.8,61.71,9.95,103,62.63,9.95,102.9,62.87,9.92,103.8,62.21,10.08
4/2/2021 8:00,,,,,,,,,,,,,,,,,,,,0,0,0,0,32,61.7,401.2,101.9,63.15,9.78,101.5,62.59,9.81,101.1,62.69,9.76,101.8,62.61,9.84,102.1,61.98,9.94,102.1,62.34,9.89,102.4,62.86,9.87,102.7,63.26,9.85,101.8,61.83,9.93,102.9,62.71,9.93,102.8,63,9.89,103.9,62.32,10.07
4/2/2021 8:10,,,,,,,,,,,,,,,,,,,,0,0,0,0,32,60.74,381,101.6,63.4,9.73,101.4,62.8,9.78,101.2,62.82,9.76,101.8,62.79,9.82,102.2,62.14,9.93,102,62.5,9.87,102.5,62.97,9.86,102.7,63.4,9.83,101.9,61.97,9.92,103,62.79,9.94,102.7,63.12,9.87,103.8,62.44,10.05
4/2/2021 8:20,,,,,,,,,,,,,,,,,,,,0,0,0,0,32,61.71,386.4,101.7,63.63,9.71,101.7,63.04,9.78,101.1,62.98,9.73,101.8,62.97,9.8,102.2,62.31,9.91,102,62.66,9.85,102.4,63.08,9.84,102.7,63.54,9.82,101.7,62.09,9.89,102.9,62.88,9.92,102.8,63.24,9.86,103.8,62.57,10.04
4/2/2021 8:30,,,,,,,,,,,,,,,,,,,,0,0,0,0,32,61.7,394,101.6,63.87,9.68,101.5,63.25,9.74,101.1,63.14,9.71,101.9,63.15,9.78,102.3,62.46,9.9,102.1,62.83,9.84,102.3,63.2,9.82,102.7,63.66,9.81,101.9,62.25,9.89,103,62.99,9.91,103,63.36,9.86,103.8,62.69,10.02
4/2/2021 8:40,,,,,,,,,,,,,,,,,,,,0,0,0,0,32,60.79,387.4,101.6,64.06,9.65,101.4,63.46,9.7,101.2,63.28,9.71,101.9,63.33,9.77,102.2,62.64,9.88,102.1,62.98,9.82,102.4,63.34,9.81,102.8,63.8,9.79,101.9,62.38,9.87,103.1,63.07,9.91,102.8,63.48,9.83,104,62.82,10.02
4/2/2021 8:50,,,,,,,,,,,,,,,,,,,,0,0,0,0,32,62.66,402.1,101.5,64.24,9.63,101.4,63.67,9.68,101.3,63.42,9.7,101.9,63.5,9.75,102.3,62.82,9.86,102.1,63.14,9.81,102.4,63.47,9.8,102.6,63.93,9.77,101.6,62.53,9.83,103,63.18,9.89,102.8,63.59,9.82,103.8,62.93,10
4/2/2021 9:00,,,,,,,,,,,,,,,,,,,,0,0,0,0,32,61.72,416,101.5,64.42,9.6,101.4,63.85,9.66,101.2,63.58,9.68,101.9,63.66,9.73,102.3,62.99,9.84,102.2,63.29,9.79,102.4,63.58,9.78,102.5,64.07,9.74,101.7,62.66,9.83,103,63.27,9.88,102.9,63.7,9.82,103.9,63.06,9.98
4/2/2021 9:10,,,,,,,,,,,,,,,,,,,,,,,,,60.83,441.8,101.8,64.59,9.62,101.3,64.04,9.63,101.2,63.72,9.66,101.9,63.84,9.71,102.3,63.15,9.82,102.2,63.44,9.78,102.4,63.71,9.77,102.6,64.18,9.74,101.7,62.81,9.81,103,63.38,9.87,102.9,63.82,9.81,103.8,63.18,9.97
4/2/2021 9:20,,,,,,,,,,,,,,,,,,,,0,0,0,0,71.69,62.7,426.3,101.6,64.79,9.58,101.3,64.25,9.61,101.3,63.86,9.65,102,64.02,9.7,102.3,63.34,9.8,102.1,63.58,9.76,102.3,63.83,9.75,102.6,64.32,9.73,101.6,62.97,9.77,103,63.48,9.85,103,63.92,9.8,103.9,63.3,9.96
4/2/2021 9:30,,,,,,,,,,,,,,,,,,,,0,0,0,0,70.93,61.17,467.5,101.8,64.99,9.57,101.4,64.45,9.59,101.2,64.02,9.62,101.9,64.19,9.67,102.3,63.51,9.78,102.3,63.74,9.75,102.4,63.97,9.74,102.4,64.46,9.69,101.6,63.12,9.76,103,63.59,9.84,103,64.05,9.8,103.7,63.42,9.93
4/2/2021 9:40,,,,,,,,,,,,,,,,,,,,0,0,0,0,70.12,61.51,469.3,101.7,65.15,9.55,101.3,64.65,9.56,101.3,64.18,9.61,101.9,64.38,9.65,102.3,63.68,9.76,102.2,63.9,9.73,102.3,64.09,9.72,102.5,64.59,9.68,101.7,63.26,9.76,103,63.71,9.83,102.9,64.16,9.77,103.9,63.54,9.94
4/2/2021 9:50,,,,,,,,,,,,,,,,,,,,0,0,0,0,69.49,61.94,430.3,101.6,65.31,9.52,101.5,64.85,9.56,101.2,64.34,9.59,101.9,64.54,9.63,102.2,63.87,9.73,102.2,64.06,9.72,102.3,64.23,9.7,102.5,64.7,9.67,101.4,63.42,9.71,103,63.82,9.81,103.1,64.28,9.78,104,63.66,9.92
4/2/2021 10:00,,,,,,,,,,,,,,,,,,,,0,0,0,0,68.97,64.58,438,101.6,65.46,9.51,101.4,65.02,9.53,101.3,64.46,9.58,101.9,64.69,9.61,102.3,64.03,9.72,102.3,64.18,9.71,102.3,64.37,9.69,102.6,64.83,9.67,101.3,63.55,9.69,103,63.92,9.8,102.9,64.4,9.74,104,63.79,9.92
4/2/2021 10:10,,,,,,,,,,,,,,,,,,,,0,0,0,0,68.47,62.72,408.5,101.6,65.6,9.48,101.5,65.2,9.53,101.2,64.62,9.56,102,64.86,9.61,102.3,64.19,9.7,102.3,64.33,9.7,102.3,64.48,9.68,102.6,64.94,9.65,101.7,63.7,9.7,102.9,64.03,9.78,103,64.51,9.74,103.7,63.9,9.87
4/2/2021 10:20,,,,,,,,,,,,,,,,,,,,0,0,0,0,68.09,64.61,426.4,101.7,65.73,9.48,101.4,65.35,9.5,101.2,64.75,9.55,102,65.01,9.59,102.3,64.36,9.69,102.2,64.46,9.67,102.3,64.61,9.66,102.5,65.07,9.63,101.6,63.82,9.68,103,64.15,9.77,102.9,64.62,9.72,103.9,64.02,9.87
4/2/2021 10:30,,,,,,,,,,,,,,,,,,,,0,0,0,0,67.95,62.72,436.8,101.7,65.88,9.47,101.4,65.53,9.48,101.1,64.89,9.52,101.9,65.14,9.56,102.2,64.51,9.67,102.2,64.58,9.66,102.2,64.72,9.64,102.5,65.18,9.62,101.5,63.94,9.66,102.9,64.24,9.76,103,64.72,9.71,103.9,64.13,9.87
4/2/2021 10:40,,,,,,,,,,,,,,,,,,,,0,0,0,0,67.78,63.64,445.4,101.6,65.99,9.44,101.4,65.65,9.46,101.2,65.02,9.52,102,65.29,9.56,102.2,64.66,9.65,102.1,64.7,9.63,102.2,64.84,9.63,102.4,65.29,9.6,101.5,64.06,9.65,102.9,64.35,9.74,103.1,64.82,9.71,103.9,64.22,9.86
4/2/2021 10:50,,,,,,,,,,,,,,,,,,,,0,0,0,0,67.64,62.78,419.3,101.7,66.11,9.44,101.4,65.81,9.44,101.3,65.14,9.51,101.9,65.42,9.53,102.3,64.8,9.64,102.2,64.8,9.63,102.2,64.96,9.61,102.4,65.41,9.59,101.5,64.18,9.63,102.9,64.46,9.73,102.9,64.93,9.69,103.7,64.34,9.83
4/2/2021 11:00,,,,,,,,,,,,,,,,,,,,0,0,0,0,67.55,63.64,420.1,101.5,66.23,9.42,101.6,65.93,9.45,101.2,65.26,9.48,102,65.54,9.53,102.1,64.95,9.61,102.3,64.92,9.63,102.2,65.07,9.6,102.6,65.51,9.59,101.4,64.3,9.61,103,64.55,9.73,102.9,65.01,9.68,103.7,64.43,9.81
4/2/2021 11:10,,,,,,,,,,,,,,,,,,,,0,0,0,0,67.48,63.64,439.6,101.5,66.35,9.4,101.4,66.06,9.42,101.2,65.38,9.48,102,65.66,9.52,102.2,65.08,9.6,102.2,65.03,9.61,102.2,65.18,9.59,102.5,65.61,9.57,101.4,64.42,9.6,102.9,64.65,9.71,102.8,65.12,9.65,103.9,64.54,9.82
4/14/2021 9:05,,,0.3,303,,,,,,20.6,29.2,258,264.3,,,,,,,0,0,0,0,32,63.66,503.3,99.7,66.91,9.18,99.6,66.61,9.2,99.3,66.28,9.2,100,66.42,9.25,100.4,66.16,9.32,100.1,66.1,9.3,100.3,66.24,9.3,100.4,66.52,9.28,99.8,65.83,9.3,101,66.03,9.39,101,66.24,9.37,101.9,65.9,9.48
4/14/2021 9:10,,,0.3,333,,,,,,20.8,29.2,259,264.7,,,,,,,0,0,0,0,32,,,99.7,66.96,9.17,99.7,66.65,9.2,99.4,66.31,9.21,99.9,66.46,9.24,100.4,66.19,9.31,100.1,66.12,9.29,100.4,66.28,9.3,100.3,66.55,9.27,99.8,65.85,9.29,100.9,66.04,9.38,101.1,66.25,9.37,102.1,65.91,9.5
4/14/2021 9:20,,,,,,,,,,,,,,,,,,,,0,0,0,0,32,63.64,524.1,99.6,67.04,9.15,99.6,66.73,9.19,99.3,66.39,9.19,100,66.54,9.24,100.3,66.26,9.3,100.2,66.2,9.29,100.3,66.32,9.29,100.5,66.61,9.28,99.6,65.91,9.27,101,66.08,9.38,100.8,66.29,9.34,101.9,65.98,9.48
5/7/2021 15:30,,,,,,,,,,,,,,,,,,,,8.07,94.2,8.6,44,73.58,,,95.6,68.15,8.68,97.4,65.68,9.08,96.4,66.3,8.93,96.1,68.11,8.73,96.6,66.88,8.89,96.8,65.71,9.03,96.3,64.75,9.08,96.6,65.35,9.05,96.7,64.86,9.1,96.3,63.42,9.22,96.2,62.99,9.25,97.8,66.39,9.05
5/7/2021 15:40,-7.8,-82.9,2.5,266,3.1,345,347,,,17.6,30.2,83,80.9,0,35,463.1,-95.18454,43.380592,203930,8.09,94,8.12,46,73.04,60.75,284.1,95.8,67.55,8.75,97.4,66.02,9.05,96.4,66.38,8.92,96.1,68.34,8.7,96.6,66.88,8.89,96.9,65.83,9.02,96.4,64.93,9.07,96.6,65.5,9.03,96.8,64.95,9.11,96.4,63.55,9.21,96.3,63.12,9.25,97.6,66.6,9.01
5/7/2021 15:50,-8.1,-82.8,3.6,265,3.4,347,349,,,16.5,30.1,84,82.1,0.1,152,463.2,-95.18486,43.380772,204931,8.13,93.9,7.92,48,72.5,60.78,279.1,95.8,67,8.81,97.4,66.25,9.03,96.3,66.43,8.91,96,68.49,8.68,96.5,66.88,8.88,97,65.93,9.03,96.4,65.08,9.05,96.5,65.59,9.01,96.7,65.03,9.09,96.4,63.74,9.2,96.3,63.3,9.23,97.9,66.72,9.03
5/7/2021 16:00,-7.8,-82.7,3.6,264,3.6,345,347,,,15.9,30.1,84,81.7,0.1,62.1,453.8,-95.184555,43.38047,205931,8.18,93.9,7.83,47,72.01,59.88,269.9,95.9,66.55,8.86,97.3,66.37,9.01,96.4,66.47,8.91,96,68.51,8.68,96.5,66.88,8.88,96.9,66.02,9.01,96.4,65.19,9.05,96.4,65.62,9,96.6,65.1,9.07,96.5,63.94,9.18,96.3,63.51,9.21,97.8,66.79,9.01
5/7/2021 16:10,,,2.6,273,2.9,354,356,,,15.7,30.5,84,82.4,0.1,267.4,573.4,-95.183678,43.379936,210930,8.2,93.9,7.74,47,71.65,60.78,272.5,96.1,66.1,8.92,97.2,66.42,9,96.3,66.47,8.9,95.9,68.48,8.68,96.3,66.84,8.87,96.9,66.08,9,96.3,65.25,9.03,96.3,65.6,8.99,96.8,65.17,9.08,96.4,64.11,9.16,96.6,63.69,9.22,97.7,66.83,9
5/7/2021 16:20,-8.7,-82.5,0.5,270,,,,,,15.9,28.5,109,106.7,,,,,,,8.23,93.9,7.72,46,71.33,59.84,264.1,95.9,65.79,8.93,97.4,66.41,9.02,96.3,66.47,8.9,95.9,68.43,8.68,96.4,66.8,8.88,96.9,66.12,8.99,96.3,65.28,9.03,96.4,65.54,9.01,96.6,65.22,9.06,96.3,64.27,9.13,96.4,63.87,9.18,97.7,66.84,9
5/7/2021 16:30,,,0.5,312,0.4,90,92,,,16.8,30,108,106.3,0.5,353.8,424.3,-95.184265,43.381023,212930,8.25,93.9,7.66,50,71.13,61.74,275,96.1,65.55,8.98,97.3,66.49,8.99,96.3,66.48,8.91,95.9,68.41,8.68,96.2,66.76,8.87,96.9,66.16,8.99,96.3,65.32,9.02,96.4,65.58,9.01,96.7,65.26,9.07,96.3,64.43,9.11,96.5,64.03,9.17,97.8,66.9,9
5/7/2021 16:40,-7.7,-82.5,0.3,296,0.2,1,3,,,17.4,30.2,108,106.4,0.1,55.2,482.7,-95.184097,43.3806,213931,8.26,93.8,7.63,50,70.93,60.92,266.2,95.8,65.35,8.97,97.2,66.45,8.99,96.2,66.46,8.9,95.9,68.31,8.69,96.2,66.74,8.87,96.8,66.18,8.98,96.2,65.33,9.02,96.4,65.54,9.01,96.6,65.3,9.05,96.3,64.55,9.1,96.4,64.16,9.15,97.8,66.88,9
5/7/2021 16:50,,,0.5,305,0.2,61,63,,,17.7,30,109,106.5,0.5,24,432.7,-95.185242,43.380268,214930,8.28,93.8,7.58,50,70.77,63.64,274,96.1,65.15,9.02,97.1,66.38,8.99,96.3,66.43,8.91,95.9,68.22,8.7,96.2,66.71,8.88,96.8,66.16,8.98,96.2,65.31,9.01,96.5,65.47,9.03,96.6,65.31,9.05,96.1,64.63,9.08,96.4,64.27,9.14,97.7,66.86,9
5/7/2021 17:00,-9,-82.6,0.6,289,0.4,72,74,,,18,30.1,110,107.8,0.1,317.6,451.8,-95.184403,43.380566,215931,8.3,93.9,7.59,50,70.56,62.7,267.5,95.9,64.99,9.02,97.2,66.29,9.01,96.3,66.38,8.91,95.9,68.08,8.71,96.2,66.67,8.87,96.6,66.15,8.97,96.2,65.31,9.02,96.3,65.4,9.01,96.6,65.33,9.04,96.1,64.71,9.07,96.2,64.36,9.11,97.5,66.83,8.98
5/7/2021 17:10,-8,-82.5,0.4,334,0.4,81,83,,,18.1,30.1,108,106.4,0.1,62.9,467.3,-95.184265,43.380676,220931,8.31,93.9,7.57,50,70.45,62.68,269.9,95.8,64.83,9.03,97.2,66.2,9.02,96.4,66.28,8.93,96,67.88,8.74,96,66.6,8.86,96.7,66.1,8.98,96.3,65.28,9.02,96.3,65.32,9.02,96.5,65.33,9.03,96,64.75,9.06,96.3,64.41,9.12,97.5,66.74,8.99
5/7/2021 17:20,-7.3,-82.6,0.5,321,0.7,60,62,,,18.1,30.1,108,106,0,231.7,445,-95.184174,43.380676,221931,8.31,93.8,7.52,51,70.39,62.67,273.9,95.9,64.68,9.05,97.2,66.05,9.03,96.3,66.19,8.93,96,67.69,8.75,96,66.52,8.87,96.6,66.03,8.98,96.2,65.24,9.02,96.3,65.23,9.03,96.5,65.31,9.04,96,64.79,9.05,96.4,64.46,9.12,97.6,66.67,9.01
5/7/2021 17:30,-8,-82.6,0.4,297,0.4,26,28,,,18,30.2,109,106.7,0,119.2,477.5,-95.184425,43.380661,222931,8.32,93.9,7.52,51,70.29,61.77,275.8,95.8,64.54,9.05,97.4,65.89,9.07,96.3,66.07,8.95,95.9,67.43,8.78,95.9,66.4,8.87,96.7,65.94,9,96.2,65.16,9.03,96.3,65.11,9.04,96.4,65.29,9.04,96,64.79,9.05,96.4,64.48,9.12,97.3,66.55,8.99
5/7/2021 17:40,-8,-82.6,0.4,270,0.4,21,23,,,17.8,30.2,109,106.7,0.1,1.8,482.1,-95.184212,43.380337,223931,8.33,93.8,7.52,51,70.18,62.64,272.4,95.7,64.35,9.06,97.2,65.66,9.07,96.4,65.94,8.97,95.9,67.2,8.8,95.9,66.28,8.89,96.6,65.82,9,96.1,65.03,9.03,96.3,64.93,9.06,96.5,65.23,9.05,96,64.77,9.05,96.1,64.48,9.09,97.3,66.35,9.01
5/7/2021 17:50,,,0.3,291,0.4,28,30,,,17.6,30.1,108,106.2,0.1,290.5,466.9,-95.184555,43.380707,224930,8.35,93.8,7.54,50,69.96,59.9,265.6,95.7,64.18,9.08,97.3,65.42,9.11,96.4,65.76,8.98,96,66.9,8.83,95.8,66.12,8.9,96.5,65.67,9.01,96,64.92,9.03,96.5,64.74,9.1,96.4,65.16,9.05,96,64.72,9.05,96.4,64.46,9.12,97.4,66.15,9.04
5/7/2021 18:00,-7.6,-82.5,0.6,270,0.7,29,31,,,17.5,30.1,108,106.5,0.1,51.2,465.1,-95.184227,43.380718,225931,8.35,93.8,7.52,50,69.89,59.9,264.1,95.4,64,9.08,97.2,65.16,9.12,96.4,65.58,9,95.9,66.62,8.86,95.7,65.96,8.9,96.6,65.51,9.03,96,64.78,9.05,96.4,64.54,9.11,96.3,65.08,9.05,95.9,64.66,9.06,96.2,64.41,9.1,97.3,65.94,9.05
5/7/2021 18:10,,,0.5,319,0.7,61,63,,,17.3,30.2,109,107.1,0.1,309.9,474.3,-95.184082,43.380604,230930,8.36,93.8,7.49,51,69.84,59.8,266.5,95.5,63.81,9.11,97.3,64.87,9.16,96.4,65.38,9.02,95.9,66.26,8.89,95.6,65.77,8.91,96.4,65.31,9.03,96,64.59,9.06,96.5,64.3,9.14,96.3,64.98,9.06,96,64.57,9.07,96,64.36,9.1,97.3,65.71,9.08
5/7/2021 18:20,-8.6,-82.6,0.6,289,1.1,28,30,,,17,30.2,109,107.1,0,55.2,485.9,-95.184311,43.380764,231931,8.36,93.7,7.49,51,69.75,58.94,260.1,95.7,63.58,9.14,97.3,64.55,9.2,96.5,65.15,9.06,96,65.93,8.93,95.7,65.57,8.94,96.3,65.1,9.05,96,64.38,9.09,96.4,64.05,9.17,96.4,64.86,9.08,95.8,64.47,9.07,96.1,64.27,9.11,97.2,65.43,9.09
5/7/2021 18:30,-7.4,-82.4,0.5,309,0.7,65,67,,,16.9,30,108,106.3,0,118.7,446.7,-95.184479,43.3806,232931,8.37,93.7,7.49,51,69.62,58.84,262.5,95.6,63.39,9.16,97.4,64.25,9.23,96.4,64.91,9.07,96,65.58,8.97,95.4,65.36,8.94,96.5,64.9,9.08,96,64.19,9.11,96.3,63.82,9.17,96.4,64.71,9.09,95.9,64.35,9.09,96.2,64.16,9.13,97.2,65.19,9.12
5/7/2021 18:40,-8.1,-82.6,0.6,301,0.7,52,54,,,16.6,30,109,106.8,0.1,230.3,436.6,-95.184425,43.380581,233931,8.38,93.7,7.49,52,69.46,58.86,260.7,95.6,63.19,9.18,97.4,63.92,9.27,96.5,64.67,9.11,96,65.22,9,95.5,65.12,8.96,96.4,64.66,9.1,96,63.97,9.13,96.3,63.54,9.21,96.4,64.55,9.11,95.8,64.21,9.09,96.1,64.06,9.13,97.1,64.92,9.13
5/7/2021 18:50,-8,-82.5,0.3,310,0.4,77,79,,,16.4,30,109,106.4,0.3,325.1,435.9,-95.184807,43.380852,234931,8.39,93.7,7.47,52,69.37,58.79,265.7,95.4,62.98,9.18,97.4,63.58,9.31,96.5,64.42,9.13,96,64.84,9.05,95.4,64.89,8.98,96.3,64.39,9.12,96,63.71,9.16,96.3,63.26,9.24,96.4,64.39,9.13,95.8,64.07,9.11,96.2,63.92,9.15,97.3,64.63,9.18
5/7/2021 19:00,-8,-82.5,0.5,270,0.4,47,49,,,16.2,30.1,109,106.8,0.3,319,471.7,-95.184036,43.380096,235931,8.4,93.6,7.46,52,69.26,57.03,261.4,95.4,62.74,9.2,97.4,63.25,9.34,96.5,64.16,9.16,96.1,64.49,9.08,95.3,64.64,9,96.3,64.14,9.14,96,63.47,9.19,96.3,62.97,9.26,96.3,64.21,9.14,95.8,63.91,9.12,96.2,63.79,9.17,97.2,64.34,9.21
5/7/2021 19:10,-8.6,-82.6,0.3,305,0.4,39,41,,,16,30.4,109,106.8,0.1,138.5,562,-95.183792,43.379765,931,8.41,93.6,7.47,52,69.12,57.82,264.5,95.5,62.54,9.23,97.5,62.92,9.38,96.4,63.9,9.18,96.1,64.12,9.13,95.4,64.39,9.03,96.3,63.86,9.17,96,63.19,9.21,96.4,62.69,9.3,96.4,64.02,9.17,95.8,63.75,9.14,96.3,63.63,9.19,97.2,64.06,9.24
5/7/2021 19:20,-7.7,-82.4,0.5,301,,,,,,15.8,28.5,108,106.2,,,,,,,8.42,93.6,7.47,53,68.94,56.89,262.7,95.5,62.3,9.26,97.5,62.56,9.43,96.5,63.62,9.22,96.1,63.73,9.17,95.3,64.11,9.05,96.4,63.58,9.21,95.9,62.92,9.24,96.3,62.38,9.33,96.4,63.82,9.18,95.8,63.55,9.16,96.3,63.46,9.22,97.1,63.69,9.27
5/7/2021 19:30,-8,-82.6,0.3,302,0.4,90,92,,,15.5,30.2,109,107.2,0.3,337.6,474.5,-95.183998,43.380432,2931,8.43,93.6,7.46,53,68.86,56,257.7,95.4,62.06,9.27,97.6,62.2,9.48,96.6,63.31,9.26,96.1,63.33,9.21,95.3,63.83,9.08,96.4,63.29,9.24,96,62.63,9.27,96.3,62.05,9.36,96.4,63.58,9.22,95.8,63.36,9.18,96.1,63.28,9.22,97.1,63.38,9.3
5/7/2021 19:40,-8.1,-82.5,0.3,1,0.4,108,110,,,15.2,30,109,106.8,0,95.1,445,-95.184227,43.380306,3931,8.44,93.5,7.44,53,68.72,55.89,261.4,95.5,61.74,9.32,97.5,61.8,9.51,96.5,63.02,9.29,96.3,62.91,9.27,95.3,63.51,9.11,96.5,62.98,9.28,96,62.3,9.31,96.4,61.7,9.42,96.5,63.35,9.24,95.8,63.16,9.2,96.2,63.07,9.24,97.2,63.02,9.35
5/7/2021 19:50,-7.6,-82.5,0.4,270,,,,,,14.8,28.5,108,106,,,,,,,8.44,93.5,7.45,53,68.59,54.09,258.4,95.5,61.43,9.35,97.6,61.35,9.57,96.6,62.66,9.33,96.3,62.42,9.33,95.3,63.19,9.15,96.4,62.61,9.31,96,61.91,9.35,96.4,61.29,9.46,96.3,63.07,9.26,95.8,62.91,9.22,96.2,62.87,9.27,97.3,62.57,9.4
5/7/2021 20:00,-8.2,-82.5,0.2,319,0.2,70,72,,,14.4,30.2,109,106.6,0.1,74.7,504.6,-95.184273,43.380631,5931,8.45,93.5,7.44,53,68.45,55.86,263.6,95.5,61.05,9.39,97.6,60.81,9.63,96.6,62.28,9.37,96.3,61.93,9.38,95.1,62.83,9.17,96.4,62.21,9.35,96,61.51,9.4,96.2,60.78,9.5,96.5,62.78,9.31,95.8,62.63,9.25,96.2,62.61,9.29,97.3,62.11,9.46
5/7/2021 20:10,,,0.2,270,0.2,355,357,,,13.9,30.1,109,106.7,0.1,133.5,464.5,-95.184921,43.380867,10930,8.46,93.4,7.45,53,68.31,53.03,257.5,95.4,60.61,9.44,97.8,60.2,9.72,96.7,61.85,9.42,96.4,61.4,9.45,95.1,62.43,9.21,96.5,61.78,9.41,96,61.05,9.45,96.4,60.24,9.58,96.5,62.45,9.34,95.7,62.31,9.28,96.2,62.31,9.33,97.5,61.57,9.53
5/7/2021 20:20,-7.4,-82.6,0.1,270,0.2,67,69,,,13.5,30.2,108,106.2,0.1,299.4,478.1,-95.184845,43.381062,11931,8.48,93.4,7.45,53,68.14,52.99,255.6,95.5,60.16,9.5,97.7,59.57,9.79,96.7,61.41,9.47,96.5,60.84,9.52,95,62.02,9.25,96.5,61.36,9.47,95.9,60.56,9.49,96.4,59.64,9.65,96.5,62.09,9.38,95.6,61.97,9.31,96.1,62,9.36,97.6,61.08,9.6
5/7/2021 20:30,-8,-82.5,0.3,181,0.4,287,289,,,13.3,30,109,106.6,0.1,108,448.2,-95.184479,43.380573,12931,8.49,93.4,7.45,53,67.98,51.24,259.3,95.4,59.84,9.52,97.9,59.01,9.87,96.7,60.96,9.53,96.5,60.38,9.58,95,61.57,9.29,96.4,60.88,9.51,96,60.01,9.56,96.5,59.09,9.72,96.5,61.74,9.42,95.7,61.63,9.35,96.2,61.65,9.4,97.6,60.62,9.65
5/7/2021 20:40,,,0.2,270,,,,,,13.2,28.5,89,86.8,,,,,,,8.51,93.4,7.45,53,67.8,51.2,261,95.4,59.62,9.55,98,58.58,9.93,96.7,60.56,9.58,96.6,59.94,9.63,95.1,61.17,9.34,96.3,60.44,9.55,96,59.56,9.61,96.5,58.66,9.77,96.5,61.36,9.46,95.8,61.37,9.39,96.2,61.34,9.43,97.4,60.28,9.67
5/7/2021 20:50,-8.1,-82.5,0.3,305,,,,,,13.3,28.5,89,87.4,,,,,,,8.52,93.3,7.45,54,67.64,52.08,261.7,95.4,59.48,9.57,98,58.41,9.95,96.7,60.24,9.61,96.5,59.62,9.66,95,60.78,9.38,96.5,60.08,9.61,96.1,59.36,9.65,96.5,58.51,9.79,96.4,61.04,9.49,96,61.1,9.44,96.4,61.02,9.49,97.4,60.06,9.7
5/7/2021 21:00,-8,-82.5,0.2,270,,,,,,13.3,28.5,89,87.3,,,,,,,8.53,93.3,7.45,54,67.42,52.99,263.7,95.4,59.37,9.58,97.9,58.27,9.96,96.8,59.95,9.65,96.7,59.31,9.71,95.1,60.45,9.43,96.5,59.79,9.64,96.2,59.19,9.67,96.6,58.41,9.81,96.5,60.76,9.53,96,60.88,9.46,96.4,60.78,9.51,97.3,59.85,9.71
5/7/2021 21:10,-8.2,-82.5,0.2,317,,,,,,13.3,28.5,89,87.3,,,,,,,8.56,93.3,7.46,55,67.19,51.14,258.9,95.5,59.27,9.59,98,58.15,9.98,96.8,59.68,9.68,96.7,59.01,9.75,95.2,60.16,9.47,96.7,59.53,9.69,96.2,59.03,9.7,96.6,58.33,9.82,96.6,60.52,9.57,96.1,60.66,9.5,96.4,60.58,9.54,97.2,59.67,9.72
5/7/2021 21:20,-7.4,-82.4,0,1,,,,,,13.3,28.5,89,86.7,,,,,,,8.56,93.2,7.45,55,67.08,52.01,260.7,95.6,59.15,9.62,97.9,57.99,9.99,96.8,59.46,9.71,96.7,58.72,9.78,95.3,59.9,9.51,96.7,59.3,9.71,96.3,58.87,9.72,96.6,58.2,9.83,96.6,60.29,9.59,96.1,60.47,9.53,96.4,60.39,9.56,97.2,59.46,9.74
5/7/2021 21:30,,,0.2,270,,,,,,13.2,28.5,89,86.7,,,,,,,8.57,93.1,7.44,55,66.88,52.02,269.2,95.5,59.06,9.62,98.1,57.82,10.03,96.9,59.2,9.75,96.7,58.45,9.82,95.3,59.64,9.54,96.7,59.06,9.74,96.3,58.71,9.74,96.6,58.09,9.85,96.5,60.07,9.61,96.2,60.28,9.55,96.6,60.23,9.6,97.2,59.24,9.77
5/7/2021 21:40,-8,-82.6,0.3,234,,,,,,13,28.5,89,87.2,,,,,,,8.58,93.1,7.45,55,66.72,51.09,262.8,95.4,58.95,9.63,97.9,57.62,10.03,96.9,58.97,9.78,96.7,58.2,9.84,95.4,59.39,9.58,96.8,58.85,9.77,96.3,58.55,9.76,96.6,57.96,9.86,96.8,59.83,9.66,96.2,60.09,9.58,96.6,60.09,9.61,97,59.03,9.78
5/7/2021 21:50,-8.1,-82.5,0.2,270,,,,,,12.9,28.5,89,87.1,,,,,,,8.6,93.1,7.45,55,66.52,50.17,263.2,95.4,58.83,9.64,97.8,57.46,10.05,96.9,58.74,9.8,96.7,57.96,9.88,95.4,59.15,9.6,96.8,58.63,9.81,96.2,58.42,9.77,96.6,57.84,9.88,96.8,59.63,9.68,96.2,59.92,9.6,96.7,59.94,9.64,97.3,58.83,9.84
5/7/2021 22:00,-7.6,-82.5,0.3,211,,,,,,12.8,28.5,89,86.7,,,,,,,8.61,93,7.45,55,66.36,51.05,260.8,95.5,58.7,9.66,97.9,57.26,10.08,97,58.49,9.84,96.7,57.71,9.9,95.5,58.91,9.64,96.7,58.41,9.82,96.3,58.28,9.79,96.6,57.69,9.9,96.8,59.42,9.71,96.4,59.72,9.63,96.7,59.81,9.65,97.2,58.65,9.85
5/7/2021 22:10,,,0.2,270,,,,,,12.6,28.5,89,87,,,,,,,8.64,93,7.46,56,66.13,49.25,254.3,95.4,58.58,9.67,97.9,57.09,10.1,97,58.25,9.87,96.8,57.47,9.94,95.4,58.67,9.66,96.9,58.21,9.87,96.3,58.15,9.81,96.6,57.56,9.91,96.8,59.22,9.73,96.4,59.55,9.65,96.7,59.68,9.67,97.2,58.45,9.87
5/7/2021 22:20,-8,-82.6,0.3,270,,,,,,12.5,28.5,89,87.1,,,,,,,8.66,93,7.47,56,65.8,50.09,261.3,95.5,58.43,9.7,97.9,56.9,10.12,97,58.04,9.9,96.8,57.26,9.97,95.5,58.45,9.69,96.7,58,9.87,96.3,58.01,9.83,96.6,57.43,9.93,96.9,59.01,9.77,96.4,59.36,9.68,96.7,59.55,9.69,97,58.27,9.87
5/7/2021 22:30,-8.2,-82.6,0.3,223,,,,,,12.5,28.5,90,87.6,,,,,,,8.66,92.9,7.45,56,65.8,50.11,258.6,95.5,58.3,9.71,97.8,56.72,10.14,97,57.83,9.92,96.7,57.06,9.98,95.5,58.22,9.72,96.8,57.8,9.9,96.3,57.85,9.84,96.6,57.31,9.95,96.7,58.81,9.78,96.3,59.2,9.69,96.7,59.4,9.7,97,58.08,9.89
5/7/2021 22:40,-8,-82.6,0.3,226,,,,,,12.4,28.5,89,87,,,,,,,8.66,92.7,7.47,56,65.64,49.17,262.8,95.4,58.17,9.72,97.9,56.56,10.17,97,57.61,9.95,96.8,56.85,10.02,95.6,58.01,9.75,96.8,57.59,9.93,96.3,57.72,9.86,96.7,57.19,9.96,97,58.62,9.82,96.5,59.03,9.73,96.8,59.28,9.72,97.1,57.88,9.93
5/7/2021 22:50,-8,-82.6,0.4,216,,,,,,12.3,28.5,89,87.5,,,,,,,8.68,92.8,7.46,56,65.44,49.22,256.8,95.5,58.01,9.75,98,56.38,10.2,97,57.41,9.97,96.7,56.65,10.04,95.5,57.81,9.77,96.8,57.39,9.96,96.3,57.57,9.88,96.5,57.06,9.96,96.9,58.44,9.84,96.6,58.86,9.75,96.9,59.16,9.75,96.9,57.72,9.92
5/7/2021 23:00,-8.3,-82.4,0.1,270,,,,,,12.2,28.5,89,87.3,,,,,,,8.72,92.8,7.47,56,65.08,50.08,261.8,95.4,57.89,9.75,97.9,56.24,10.21,97,57.2,10,96.7,56.45,10.06,95.5,57.59,9.8,96.8,57.19,9.98,96.3,57.43,9.9,96.6,56.92,9.99,97,58.25,9.87,96.6,58.7,9.78,96.8,59.03,9.75,97.1,57.52,9.96
5/7/2021 23:10,-8,-82.5,0.3,223,,,,,,12.1,28.5,89,87.1,,,,,,,8.72,92.7,7.48,56,64.94,49.16,258.3,95.5,57.76,9.78,97.9,56.08,10.23,97,57.03,10.02,96.7,56.32,10.08,95.6,57.38,9.83,96.9,57.02,10.01,96.3,57.28,9.91,96.6,56.8,10,97,58.05,9.89,96.6,58.52,9.8,96.7,58.9,9.76,97.1,57.35,9.99
5/7/2021 23:20,-7.8,-82.5,0.2,181,,,,,,12,28.5,89,86.9,,,,,,,8.72,92.7,7.45,57,64.9,47.38,258.5,95.5,57.61,9.79,97.9,55.92,10.25,97,56.82,10.04,96.7,56.12,10.1,95.5,57.2,9.84,96.8,56.82,10.02,96.3,57.13,9.93,96.6,56.67,10.02,96.9,57.88,9.9,96.6,58.36,9.82,96.9,58.75,9.8,97,57.19,10
5/7/2021 23:30,-8,-82.5,0.4,181,,,,,,11.9,28.5,89,86.9,,,,,,,8.73,92.5,7.47,57,64.72,47.52,252.6,95.5,57.49,9.8,98,55.78,10.27,97,56.66,10.06,96.7,55.95,10.12,95.6,57,9.88,96.8,56.64,10.04,96.3,57,9.95,96.7,56.54,10.05,96.8,57.68,9.92,96.6,58.22,9.84,96.9,58.63,9.81,97.1,57,10.03
5/7/2021 23:40,-8.2,-82.6,0.3,228,,,,,,11.8,28.5,90,87.6,,,,,,,8.75,92.6,7.46,57,64.53,49.11,263.5,95.4,57.36,9.81,97.9,55.62,10.29,97,56.49,10.09,96.7,55.79,10.14,95.6,56.82,9.89,96.8,56.47,10.07,96.3,56.84,9.97,96.6,56.42,10.05,97,57.51,9.96,96.7,58.06,9.86,96.8,58.51,9.82,97.1,56.83,10.06
5/7/2021 23:50,-7.7,-82.4,0.3,226,,,,,,11.8,28.5,89,86.7,,,,,,,8.8,92.8,7.47,57,64.18,50.07,260.5,95.7,57.28,9.85,98.1,55.49,10.32,97,56.35,10.1,96.7,55.67,10.16,95.7,56.64,9.93,96.9,56.34,10.09,96.3,56.71,9.99,96.7,56.33,10.07,96.9,57.35,9.96,96.7,57.93,9.88,96.9,58.39,9.84,97,56.66,10.06
5/8/2021 0:00,-8,-82.5,0.3,215,,,,,,11.7,28.5,89,86.8,,,,,,,8.81,92.8,7.45,57,64.18,48.21,260.7,95.7,57.18,9.87,97.9,55.36,10.32,97,56.21,10.12,96.7,55.53,10.17,95.8,56.47,9.96,96.9,56.21,10.11,96.3,56.59,10,96.7,56.21,10.09,97,57.19,10,96.7,57.77,9.9,96.9,58.27,9.86,97,56.5,10.08
5/8/2021 0:10,-8.1,-82.5,0.3,181,,,,,,11.7,28.5,89,87.4,,,,,,,8.8,92.6,7.46,57,64,48.2,252.7,95.4,57.07,9.85,98,55.24,10.35,97,56.08,10.14,96.7,55.38,10.2,95.8,56.35,9.97,96.9,56.05,10.13,96.3,56.45,10.02,96.7,56.1,10.1,97.1,57.03,10.03,96.7,57.65,9.91,96.9,58.15,9.87,97.1,56.36,10.11
5/8/2021 0:20,-7.4,-82.4,0.6,181,,,,,,11.7,28.5,89,86.9,,,,,,,8.85,92.8,7.46,57,63.79,48.24,252,95.6,56.98,9.88,97.9,55.11,10.35,97.1,55.92,10.16,96.7,55.26,10.21,95.7,56.22,9.98,96.9,55.92,10.15,96.3,56.35,10.03,96.6,56,10.1,97,56.9,10.03,96.8,57.52,9.94,97,58.03,9.9,97.2,56.24,10.14
5/8/2021 0:30,-8.5,-82.5,0.2,1,,,,,,11.6,28.5,90,87.5,,,,,,,8.87,92.8,7.46,58,63.54,49.11,254.9,95.7,56.87,9.9,97.9,55,10.37,97,55.8,10.17,96.8,55.14,10.23,95.7,56.06,10,96.9,55.79,10.16,96.4,56.21,10.05,96.7,55.88,10.13,97.2,56.74,10.07,96.7,57.4,9.94,96.9,57.92,9.9,97.3,56.09,10.16
5/8/2021 0:40,-8.7,-82.5,0.3,126,,,,,,11.6,28.5,90,87.4,,,,,,,8.88,92.8,7.45,57,63.45,47.33,254.2,95.7,56.78,9.92,98,54.87,10.39,97.1,55.68,10.19,96.7,55.01,10.24,95.8,55.93,10.03,96.9,55.67,10.18,96.4,56.09,10.07,96.7,55.76,10.14,97,56.62,10.07,96.8,57.27,9.96,96.8,57.81,9.91,97.2,55.96,10.17
5/8/2021 0:50,,,0,1,,,,,,11.5,28.5,89,86.9,,,,,,,8.9,92.8,7.44,58,63.28,48.21,255.4,95.5,56.67,9.9,98,54.75,10.41,97.1,55.55,10.21,96.7,54.91,10.25,95.7,55.81,10.04,96.9,55.55,10.19,96.4,55.98,10.09,96.7,55.65,10.16,97.1,56.49,10.1,96.7,57.16,9.97,96.9,57.7,9.93,97.1,55.84,10.18
5/8/2021 1:00,-7.8,-82.5,0.3,181,,,,,,11.5,28.5,89,87.3,,,,,,,8.92,92.9,7.44,58,63.1,48.19,249.5,95.6,56.58,9.93,98.1,54.65,10.43,97.1,55.43,10.23,96.8,54.8,10.28,95.7,55.68,10.05,97,55.43,10.22,96.4,55.89,10.1,96.8,55.55,10.18,97.1,56.4,10.11,96.8,57.05,9.99,97,57.59,9.95,97,55.72,10.18
5/8/2021 1:10,-8,-82.5,0.3,160,,,,,,11.4,28.5,89,87,,,,,,,8.96,92.9,7.45,57,62.83,49.11,256.9,95.7,56.5,9.94,98,54.56,10.43,97,55.34,10.23,96.7,54.69,10.28,95.7,55.57,10.06,96.9,55.32,10.22,96.4,55.76,10.11,96.6,55.45,10.17,97.1,56.31,10.12,96.8,56.94,10.01,96.9,57.5,9.95,97.2,55.59,10.21
5/8/2021 1:20,-8.3,-82.4,0.2,181,,,,,,11.4,28.5,89,87.4,,,,,,,8.96,92.9,7.45,58,62.82,47.28,253.6,95.5,56.41,9.94,98.1,54.47,10.45,97.1,55.22,10.26,96.8,54.6,10.31,95.7,55.45,10.08,97,55.23,10.24,96.5,55.64,10.13,96.8,55.35,10.21,97,56.2,10.12,96.8,56.83,10.02,97.1,57.38,9.99,97.1,55.47,10.22
5/8/2021 1:30,-7.7,-82.4,0.4,154,,,,,,11.3,28.5,89,86.7,,,,,,,8.95,92.7,7.44,58,62.64,48.17,255,95.6,56.36,9.95,98,54.4,10.46,97.1,55.14,10.26,96.8,54.51,10.31,95.7,55.36,10.09,97,55.13,10.25,96.4,55.53,10.15,96.8,55.26,10.21,97.1,56.09,10.14,96.9,56.75,10.04,97,57.29,9.99,97.1,55.37,10.24
5/8/2021 1:40,-8.2,-82.5,0.1,1,,,,,,11.3,28.5,89,87.1,,,,,,,8.99,92.8,7.44,58,62.44,48.15,253.5,95.6,56.31,9.96,98,54.31,10.47,97.1,55.05,10.27,96.8,54.41,10.32,95.8,55.24,10.11,96.9,55.05,10.26,96.5,55.44,10.16,96.7,55.18,10.21,97.1,56,10.16,96.8,56.66,10.04,96.9,57.21,9.98,97.2,55.27,10.26
5/8/2021 1:50,-8.2,-82.5,0.3,58,,,,,,11.3,28.5,90,87.4,,,,,,,9.03,93,7.45,58,62.13,47.28,245.5,95.6,56.26,9.97,97.9,54.24,10.47,97.1,54.95,10.29,96.8,54.31,10.34,95.8,55.16,10.13,96.9,54.95,10.27,96.5,55.37,10.17,96.6,55.1,10.21,96.8,55.91,10.14,96.9,56.55,10.06,97,57.09,10.01,97.1,55.18,10.26
5/8/2021 2:00,-8,-82.6,0.4,181,,,,,,11.2,28.5,89,87.4,,,,,,,9.05,93,7.45,58,62.06,47.27,245.5,95.7,56.19,9.98,98,54.17,10.48,97.1,54.86,10.3,96.8,54.22,10.35,95.8,55.08,10.13,97,54.88,10.29,96.6,55.28,10.19,96.7,55.02,10.24,97.1,55.8,10.18,96.8,56.47,10.07,97,57.01,10.02,97.1,55.09,10.28
5/8/2021 2:10,-8,-82.6,0,1,,,,,,11.2,28.5,89,86.7,,,,,,,9.06,93,7.45,58,61.9,46.43,250.3,95.8,56.13,10,98.1,54.09,10.51,97.1,54.77,10.31,96.8,54.11,10.37,95.8,54.97,10.15,97,54.78,10.3,96.5,55.19,10.19,96.8,54.94,10.26,97,55.71,10.18,96.8,56.38,10.08,96.9,56.92,10.02,97.2,54.98,10.29
5/8/2021 2:20,,,0.2,181,,,,,,11.1,28.5,89,86.9,,,,,,,9.06,93,7.43,58,61.88,49.1,256.7,95.6,56.05,9.99,98,54.01,10.51,97.1,54.67,10.33,96.8,54.02,10.38,95.8,54.87,10.16,96.9,54.69,10.31,96.5,55.11,10.2,96.8,54.85,10.27,97,55.6,10.2,96.8,56.35,10.08,97,56.84,10.04,97.2,54.9,10.3
5/8/2021 2:30,,,0.3,181,,,,,,11.1,28.5,89,87.2,,,,,,,9.08,92.9,7.44,58,61.63,47.24,245.3,95.7,55.97,10.01,98.2,53.93,10.54,97.1,54.56,10.34,96.9,53.92,10.4,95.9,54.78,10.18,97,54.6,10.32,96.5,55.03,10.22,96.7,54.77,10.27,97.1,55.51,10.22,96.8,56.26,10.1,96.9,56.75,10.04,97.2,54.81,10.31
5/8/2021 2:40,-8,-82.5,0.2,147,,,,,,11,28.5,90,87.8,,,,,,,9.1,92.9,7.45,59,61.47,47.2,248.4,95.6,55.89,10.02,98,53.84,10.53,97.1,54.48,10.35,96.8,53.79,10.4,95.8,54.67,10.18,97,54.52,10.34,96.5,54.94,10.22,96.7,54.69,10.28,97.1,55.42,10.23,96.8,56.18,10.1,97.1,56.67,10.07,97.2,54.72,10.33
5/8/2021 2:50,-8,-82.5,0.1,181,,,,,,10.9,28.5,89,86.9,,,,,,,9.11,93,7.42,59,61.45,47.19,249.6,95.5,55.82,10.01,98,53.76,10.54,97.1,54.38,10.36,96.8,53.69,10.42,95.7,54.58,10.19,97,54.41,10.35,96.5,54.87,10.23,96.8,54.6,10.31,97.1,55.3,10.25,96.8,56.09,10.11,96.9,56.59,10.06,97.2,54.61,10.34
5/8/2021 3:00,-8.5,-82.5,0.3,137,,,,,,10.9,28.5,89,87,,,,,,,9.08,92.6,7.44,59,61.32,47.21,255.9,95.7,55.76,10.04,97.9,53.68,10.54,97.1,54.27,10.38,96.7,53.6,10.43,95.8,54.47,10.21,96.9,54.32,10.35,96.4,54.78,10.24,96.6,54.53,10.29,97,55.22,10.24,96.8,56.01,10.12,96.7,56.51,10.05,97.2,54.52,10.35
5/8/2021 3:10,-8,-82.6,0.2,92,,,,,,10.9,28.5,89,86.8,,,,,,,9.14,92.9,7.45,59,61.12,46.37,249.7,95.6,55.68,10.04,97.9,53.59,10.55,97.1,54.15,10.4,96.8,53.48,10.45,95.8,54.37,10.22,96.9,54.24,10.36,96.5,54.7,10.26,96.7,54.44,10.31,97.1,55.11,10.27,96.8,55.93,10.14,96.8,56.41,10.08,97.2,54.4,10.36
5/8/2021 3:20,-8.2,-82.5,0.3,120,,,,,,10.9,28.5,89,87.2,,,,,,,9.17,93,7.47,59,60.89,47.18,249.2,95.7,55.6,10.06,97.9,53.5,10.57,97,54.07,10.39,96.8,53.4,10.46,95.8,54.28,10.23,96.9,54.15,10.37,96.5,54.62,10.27,96.7,54.36,10.32,97.2,55.01,10.3,96.8,55.82,10.14,97,56.37,10.1,97.1,54.32,10.37
5/8/2021 3:30,,,0.2,92,,,,,,10.8,28.5,89,86.9,,,,,,,9.16,92.9,7.42,59,60.84,46.29,247.4,95.5,55.52,10.05,97.9,53.41,10.58,97.2,53.96,10.42,96.7,53.28,10.47,95.7,54.19,10.24,97,54.06,10.39,96.4,54.56,10.26,96.7,54.28,10.33,97,54.92,10.28,96.8,55.73,10.16,96.9,56.3,10.1,97.1,54.23,10.38
5/8/2021 3:40,,,0.3,139,,,,,,10.7,28.5,89,86.9,,,,,,,9.17,92.9,7.42,59,60.69,46.36,248.5,95.5,55.46,10.05,98.1,53.32,10.61,97.2,53.86,10.44,96.8,53.18,10.49,95.9,54.08,10.27,97,53.96,10.41,96.3,54.49,10.27,96.8,54.19,10.35,97.2,54.82,10.32,96.9,55.66,10.18,96.9,56.22,10.11,97,54.1,10.39
5/8/2021 3:50,-8.2,-82.6,0.2,92,,,,,,10.7,28.5,89,87.2,,,,,,,9.2,92.9,7.42,59,60.49,45.43,251.8,95.6,55.39,10.07,97.9,53.26,10.6,97.1,53.78,10.44,96.8,53.08,10.5,95.7,54,10.26,96.9,53.87,10.41,96.4,54.41,10.29,96.8,54.11,10.37,97.1,54.74,10.31,96.8,55.59,10.17,96.8,56.13,10.11,97.1,53.99,10.41
5/8/2021 4:00,,,0.3,149,,,,,,10.6,28.5,89,87,,,,,,,9.22,93,7.42,59,60.4,47.18,256.2,95.7,55.31,10.1,97.9,53.16,10.61,97,53.7,10.44,96.8,52.99,10.51,95.7,53.91,10.27,97,53.78,10.43,96.4,54.29,10.3,96.8,54.02,10.38,97,54.65,10.32,96.9,55.52,10.19,96.9,56.05,10.12,97.1,53.9,10.43
5/8/2021 4:10,,,0.2,181,,,,,,10.5,28.5,89,86.9,,,,,,,9.24,93.1,7.42,59,60.28,46.3,244.8,95.6,55.23,10.09,98,53.1,10.63,97.1,53.61,10.46,96.8,52.87,10.53,95.8,53.83,10.29,97,53.69,10.44,96.4,54.2,10.31,96.7,53.91,10.38,97,54.58,10.32,96.8,55.43,10.19,97,55.96,10.15,97.2,53.77,10.45
5/8/2021 4:20,-7.8,-82.6,0.2,181,,,,,,10.5,28.5,89,86.6,,,,,,,9.27,93.1,7.42,59,60.1,44.59,244,95.4,55.15,10.08,98,53.01,10.64,97.1,53.49,10.48,96.7,52.78,10.53,95.7,53.75,10.3,97,53.59,10.45,96.4,54.08,10.33,96.7,53.82,10.4,97,54.49,10.33,96.8,55.36,10.21,96.8,55.88,10.14,97.3,53.66,10.48
5/8/2021 4:30,-8.7,-82.5,0.3,129,,,,,,10.4,28.5,90,87.5,,,,,,,9.28,93.1,7.42,60,59.94,47.18,248.7,95.7,55.07,10.12,98,52.94,10.65,97.1,53.41,10.49,96.8,52.66,10.55,95.7,53.66,10.3,97,53.49,10.47,96.4,53.97,10.34,96.7,53.7,10.4,97,54.44,10.35,96.8,55.28,10.21,97,55.78,10.17,97.2,53.5,10.48
5/8/2021 4:40,-8,-82.6,0,1,,,,,,10.3,28.5,89,87,,,,,,,9.28,93,7.42,60,59.86,46.26,251.5,95.6,55,10.13,98.1,52.84,10.67,97.1,53.36,10.5,96.8,52.54,10.58,95.8,53.58,10.33,96.9,53.41,10.47,96.5,53.83,10.37,96.6,53.57,10.42,96.9,54.36,10.34,96.8,55.23,10.22,96.9,55.69,10.18,97.5,53.32,10.54
5/8/2021 4:50,-8.1,-82.6,0.8,166,,,,,,10.3,28.5,89,87.5,,,,,,,9.3,93,7.42,60,59.7,44.55,244.2,95.5,54.94,10.12,98,52.76,10.68,97,53.28,10.5,96.8,52.45,10.59,95.8,53.52,10.33,96.9,53.33,10.48,96.6,53.7,10.39,96.7,53.45,10.44,97.2,54.28,10.39,96.8,55.15,10.23,97,55.6,10.2,97.3,53.18,10.54
5/8/2021 5:00,-7.8,-82.6,0.2,133,,,,,,10.2,28.5,89,86.8,,,,,,,9.32,93,7.42,60,59.54,45.39,252.9,95.7,54.86,10.16,98,52.68,10.69,97.1,53.2,10.52,96.8,52.35,10.6,95.8,53.43,10.34,97,53.24,10.5,96.5,53.58,10.4,96.6,53.32,10.45,97,54.19,10.37,96.9,55.07,10.25,96.9,55.5,10.2,97.3,53.09,10.55
5/8/2021 5:10,,,0.3,144,,,,,,10.2,28.5,89,86.6,,,,,,,9.32,92.9,7.42,60,59.47,46.24,252.4,95.6,54.78,10.15,98.1,52.6,10.7,97.1,53.11,10.53,96.8,52.24,10.62,95.8,53.37,10.35,96.9,53.16,10.51,96.6,53.47,10.43,96.6,53.23,10.46,97,54.12,10.38,96.8,54.99,10.25,97.1,55.41,10.23,97.1,52.98,10.55
5/8/2021 5:20,-8.1,-82.5,0.1,270,,,,,,10.1,28.5,89,87.4,,,,,,,9.35,93,7.41,60,59.31,44.47,255,95.6,54.69,10.16,98,52.48,10.72,97,53.03,10.53,96.8,52.14,10.63,95.9,53.27,10.38,96.8,53.09,10.5,96.5,53.35,10.44,96.8,53.09,10.5,97,54.06,10.39,96.8,54.93,10.26,97,55.32,10.23,97.3,52.83,10.59
5/8/2021 5:30,,,0.6,181,,,,,,10.1,28.5,89,87.4,,,,,,,9.39,93.3,7.45,60,59.14,46.25,256.2,95.5,54.61,10.17,98.1,52.39,10.73,97.1,52.95,10.55,96.8,52.04,10.64,95.8,53.2,10.37,97,53,10.53,96.6,53.25,10.45,96.7,52.99,10.5,97.3,53.97,10.44,96.8,54.85,10.27,97.1,55.22,10.25,97.2,52.74,10.59
5/8/2021 5:40,,,0.3,221,,,,,,10,28.5,89,87.4,,,,,,,9.4,93.4,7.42,60,59.07,47.17,257.4,95.7,54.54,10.2,97.9,52.3,10.72,97,52.89,10.55,96.8,51.94,10.65,95.8,53.12,10.38,96.9,52.92,10.53,96.6,53.13,10.47,96.8,52.88,10.52,97.1,53.9,10.43,96.8,54.78,10.27,97,55.12,10.26,97.3,52.62,10.62
5/8/2021 5:50,-7.4,-82.4,0.2,181,,,,,,10,28.5,89,86.6,,,,,,,9.41,93.3,7.39,60,58.95,44.5,244.2,95.6,54.49,10.19,98,52.22,10.75,97.1,52.8,10.57,96.8,51.86,10.67,95.8,53.03,10.39,96.8,52.86,10.53,96.6,53.04,10.49,96.7,52.76,10.54,97,53.82,10.43,96.8,54.71,10.28,97,55.03,10.27,97.6,52.47,10.67
5/8/2021 6:00,,,0.5,181,,,,,,10,28.5,89,87.3,,,,,,,9.43,93.3,7.41,60,58.84,46.21,250.6,95.5,54.41,10.19,97.9,52.14,10.74,97.1,52.74,10.58,96.8,51.77,10.68,95.8,52.95,10.41,96.9,52.78,10.55,96.5,52.93,10.49,96.6,52.66,10.53,97.2,53.74,10.45,96.8,54.63,10.29,96.9,54.93,10.27,97.4,52.4,10.65
5/8/2021 6:10,-8.3,-82.4,0.6,181,,,,,,9.9,28.5,90,87.6,,,,,,,9.46,93.4,7.38,61,58.68,44.39,248.3,95.6,54.33,10.21,97.9,52.08,10.75,97.1,52.66,10.59,96.8,51.69,10.69,95.8,52.88,10.42,96.9,52.7,10.56,96.5,52.84,10.51,96.6,52.57,10.55,97.1,53.66,10.46,96.8,54.57,10.31,97.1,54.83,10.31,97.4,52.28,10.68
5/8/2021 6:20,,,0.3,181,,,,,,9.9,28.5,89,86.8,,,,,,,9.48,93.4,7.44,61,58.51,46.2,258.1,95.6,54.25,10.22,98,52.01,10.78,97.1,52.58,10.6,96.8,51.61,10.7,95.8,52.8,10.43,96.9,52.62,10.57,96.6,52.75,10.52,96.7,52.46,10.58,97.1,53.58,10.47,96.7,54.49,10.31,97.1,54.74,10.32,97.5,52.2,10.69
5/8/2021 6:30,-7.7,-82.4,0.3,181,,,,,,9.9,28.5,89,86.8,,,,,,,9.48,93.4,7.41,61,58.44,46.22,254.8,95.6,54.2,10.22,98,51.94,10.78,97.1,52.52,10.61,96.9,51.53,10.72,95.9,52.72,10.45,96.9,52.57,10.58,96.6,52.66,10.54,96.6,52.37,10.58,97,53.52,10.46,96.8,54.41,10.33,97,54.66,10.32,97.4,52.11,10.7
5/8/2021 6:40,-7.5,-82.4,0.5,181,,,,,,9.9,28.5,89,86.5,,,,,,,9.49,93.3,7.42,61,58.33,46.21,251.2,95.5,54.15,10.22,97.9,51.88,10.79,97.1,52.44,10.62,96.9,51.48,10.73,95.8,52.65,10.45,96.9,52.49,10.6,96.5,52.59,10.54,96.6,52.31,10.59,97.2,53.44,10.49,96.8,54.35,10.34,97.1,54.58,10.34,97.5,52.04,10.72
5/8/2021 6:50,,,0.6,155,,,,,,9.9,28.5,89,87.2,,,,,,,9.5,93.4,7.41,61,58.21,44.47,241.9,95.4,54.11,10.22,98,51.84,10.8,97,52.38,10.62,96.9,51.44,10.73,95.8,52.59,10.46,97,52.41,10.61,96.6,52.54,10.55,96.6,52.24,10.59,97,53.36,10.49,96.8,54.29,10.34,97,54.5,10.34,97.4,51.99,10.72
5/8/2021 7:00,-8.7,-82.4,0.3,151,,,,,,10,28.5,89,87.1,,,,,,,9.52,93.4,7.4,61,58.1,47.17,248.9,95.6,54.1,10.24,97.9,51.85,10.78,97,52.37,10.62,96.8,51.44,10.72,95.9,52.53,10.47,96.9,52.38,10.61,96.5,52.48,10.54,96.5,52.21,10.59,97.1,53.32,10.5,96.8,54.24,10.35,97.2,54.43,10.36,97.3,51.94,10.71
5/8/2021 7:10,-8.1,-82.5,0.2,223,,,,,,10,28.5,89,87.1,,,,,,,9.53,93.4,7.42,61,57.97,45.38,244.5,95.6,54.12,10.23,97.9,51.88,10.78,97,52.37,10.62,96.8,51.48,10.72,95.9,52.49,10.48,96.9,52.37,10.61,96.6,52.43,10.56,96.7,52.2,10.61,97,53.27,10.49,96.8,54.2,10.35,97,54.38,10.35,97.5,51.9,10.73
5/8/2021 7:20,-8.1,-82.5,0.3,156,,,,,,10.1,28.5,89,87,,,,,,,9.55,93.4,7.44,61,57.81,46.24,249.1,95.7,54.14,10.24,98,51.93,10.79,97,52.37,10.62,96.8,51.54,10.71,95.9,52.46,10.49,96.9,52.38,10.61,96.6,52.42,10.57,96.6,52.23,10.6,97,53.23,10.51,96.8,54.16,10.36,97.1,54.31,10.37,97.6,51.9,10.75
5/8/2021 7:30,-8.1,-82.5,0.2,181,,,,,,10.2,28.5,89,86.9,,,,,,,9.57,93.4,7.45,61,57.65,45.46,250.2,95.5,54.17,10.22,98,52.01,10.77,97,52.4,10.61,96.8,51.61,10.71,96,52.47,10.5,97,52.41,10.61,96.6,52.44,10.57,96.6,52.26,10.59,97.2,53.2,10.53,96.8,54.13,10.36,97,54.26,10.37,97.5,51.91,10.74
