Time America/Chicago UTC-05:00,Roll_deg,Pitch_deg,Wind Speed_knots,Wind Direction_deg,Wind Speed_mph,Magnetic Wind Direction_deg,Wind Direction_deg,Dewpoint_f,Relative Humidity_%,Air Temperature_c,Rel. Barometric Pressure_inHg,HeadingT_deg,Heading_deg,COG_Mdeg,COG_Tdeg,Altitude_m,Longitude_deg,Latitude_deg,UTC Time,ODO at surface_mg/L,ODOSat at surface_%,pH at surface,Sp Cond at surface_uS/cm,Temperature at surface_F,Temperature_f,Carbon Dioxide_ppm,DOSat at 10 ft,Temperature at 10 ft,DO at 10 ft,DOSat at 16 ft,Temperature at 16 ft,DO at 16 ft,DOSat at 23 ft,Temperature at 23 ft,DO at 23 ft,DOSat at 30 ft,Temperature at 30 ft,DO at 30 ft,DOSat at 36 ft,Temperature at 36 ft,DO at 36 ft,DOSat at 43 ft,Temperature at 43 ft,DO at 43 ft,DOSat at 49 ft,Temperature at 49 ft,DO at 49 ft,DOSat at 56 ft,Temperature at 56 ft,DO at 56 ft,DOSat at 62 ft,Temperature at 62 ft,DO at 62 ft,DOSat at 69 ft,Temperature at 69 ft,DO at 69 ft,DOSat at 75 ft,Temperature at 75 ft,DO at 75 ft,DOSat at 82 ft,Temperature at 82 ft,DO at 82 ft
6/30/2021 0:00,,,1.4,229,1.6,101,103,,,20.1,30.2,233,230.9,0,143.7,428.8,-95.145927,43.36565,50008,8.22,98.4,8.48,436,75.83,64.61,228.6,97,74.59,8.22,97.2,73.29,8.35,92.2,72.57,7.98,87.3,71.72,7.62,73.3,62.06,7.13,75.8,56.58,7.87,75.4,54.86,8,74.1,53.24,8.02,69.3,52.19,7.6,55.5,50.74,6.21,53.8,50.28,6.05,48.8,49.98,5.51
6/30/2021 0:10,1.9,-3.8,0.5,288,0.7,141,143,,,20.1,30.2,233,230.8,0.1,21.8,430.2,-95.145897,43.365631,51009,8.19,98,8.47,436,75.81,63.68,205.7,96.7,74.6,8.19,97.1,73.28,8.34,92.5,72.61,8,85.5,71.72,7.47,74.1,61.57,7.25,76,56.6,7.89,75.9,55,8.04,73.8,53.25,7.98,68.7,52.38,7.52,58.9,51.03,6.56,53.7,50.33,6.04,50.9,50.06,5.75
6/30/2021 0:20,,,1.9,327,2.2,203,205,,,19.9,30.2,233,230.9,0.1,346.1,431.2,-95.145912,43.365665,52008,8.19,98,8.48,436,75.79,61.98,207.2,98.1,75,8.28,97.2,73.28,8.35,92.3,72.65,7.98,86.4,71.79,7.54,73.8,61.22,7.25,76.3,56.54,7.93,75.9,54.99,8.04,74.5,53.24,8.06,67.9,52.31,7.44,59.4,50.97,6.62,54.5,50.33,6.13,51.5,50.06,5.81
6/30/2021 0:30,1.6,-3.6,1,294,1.1,163,165,,,19.9,30.2,233,230.8,0,150.1,428.9,-95.145973,43.365696,53009,8.21,98.3,8.48,436,75.76,65.53,205.3,98,75.05,8.26,96.3,73.23,8.27,91.9,72.64,7.95,85,71.65,7.43,73.9,60.98,7.28,75.9,56.67,7.87,75.7,55.07,8.01,74.3,53.28,8.04,68.7,52.41,7.52,63.5,51.16,7.06,57.2,50.38,6.43,51.9,50.08,5.85
6/30/2021 0:40,,,1.1,301,1.3,173,175,,,19.9,30.2,233,230.7,0.1,233.3,428,-95.145889,43.365658,54008,8.19,98,8.48,436,75.74,64.59,209.1,97.6,75.03,8.23,95.8,73.23,8.23,91.6,72.65,7.92,86.3,71.84,7.52,73.3,60,7.3,75.7,56.58,7.87,75.6,55.19,7.99,72.5,53.26,7.85,70.3,52.37,7.7,61.2,51.12,6.81,57.6,50.44,6.46,51.8,50.1,5.84
6/30/2021 0:50,2.2,-3.9,1.6,331,2,201,203,,,19.8,30.2,232,230.5,0,335,428.9,-95.145912,43.365627,55009,8.2,98.1,8.49,436,75.74,64.58,208.7,97.4,74.97,8.22,95.9,73.24,8.24,91.8,72.69,7.93,86,71.84,7.5,73.9,60.01,7.36,75.8,56.56,7.87,75.4,55.23,7.96,73.7,53.44,7.96,68.9,52.44,7.53,60.4,51.04,6.72,57.8,50.46,6.48,51.6,50.1,5.82
6/30/2021 1:00,,,1,309,1.1,176,178,,,19.7,30.2,233,230.8,0.1,353.6,428.7,-95.145889,43.365639,60008,8.27,98.9,8.49,436,75.76,63.68,198.9,98.6,75.08,8.31,98.5,73.37,8.45,93.7,72.69,8.1,87.3,71.79,7.62,74.6,59.48,7.48,75.9,56.65,7.88,75.8,55.32,8,73.8,53.43,7.97,70.1,52.36,7.68,58.5,50.95,6.53,57.8,50.46,6.48,52.5,50.11,5.92
6/30/2021 1:10,2.4,-4,0.9,13,0.9,240,242,,,19.9,30.2,232,230.4,0.1,340.4,425.8,-95.145966,43.365639,61009,8.31,99.4,8.49,436,75.79,64.61,218.4,98.3,75.24,8.27,98.1,73.52,8.4,93.9,72.78,8.11,87,71.84,7.58,74.8,59.57,7.49,76,56.75,7.87,76,55.27,8.02,74.5,53.54,8.04,71.5,52.32,7.83,57.6,50.91,6.42,57.8,50.45,6.49,52,50.11,5.86
6/30/2021 1:20,2.1,-4.1,0.8,54,0.9,280,282,,,20.1,30.2,232,230.4,0,155.9,430.5,-95.145912,43.365631,62009,8.32,99.5,8.5,436,75.81,62.74,176.2,98.2,74.79,8.3,98,73.64,8.39,94,72.89,8.11,87.1,71.86,7.6,74.9,59.44,7.51,75.7,56.79,7.84,75.7,55.22,7.99,74.2,53.49,8.01,69.3,52.41,7.58,57,50.9,6.36,58.3,50.45,6.55,52.7,50.1,5.94
6/30/2021 1:30,,,1.7,74,2,303,305,,,20.2,30.2,232,230.5,0,300.5,430.9,-95.145927,43.36565,63008,8.3,99.3,8.49,436,75.78,62.02,190.7,98.1,74.92,8.28,97.2,73.68,8.31,93.3,72.88,8.05,86.3,71.83,7.53,74.5,59.48,7.47,75.5,56.86,7.81,75.5,55.12,7.98,74.2,53.33,8.02,72.4,52.24,7.94,58.4,50.92,6.51,56.8,50.42,6.37,52,50.1,5.86
6/30/2021 1:40,,,1.3,57,1.6,293,295,,,20.1,30.2,232,230.3,0.1,165.5,427.4,-95.14595,43.365665,64008,8.29,99.1,8.5,436,75.76,63.65,192,98.2,74.71,8.31,96.5,73.72,8.25,93.6,72.89,8.07,85.6,71.87,7.47,74.7,59.43,7.5,75.7,56.9,7.83,75.5,55.28,7.97,74.1,53.41,8.01,72.3,52.28,7.92,57.6,50.91,6.43,55.8,50.41,6.26,51.6,50.1,5.81
6/30/2021 1:50,1.8,-3.9,2,40,2.2,269,271,,,20.2,30.2,232,230.4,0.1,26.1,432.6,-95.145912,43.365658,65009,8.33,99.6,8.49,436,75.74,62.75,197.4,98.5,74.74,8.33,96.8,73.8,8.27,94.4,72.97,8.14,86.7,71.99,7.55,74.8,59.6,7.49,75.9,56.87,7.85,75.4,55.06,7.98,74.1,53.4,8.01,73.7,52.11,8.1,55.3,50.69,6.19,55.2,50.37,6.2,51.5,50.1,5.81
6/30/2021 2:00,,,5.8,335,6.5,204,206,,,19.2,30.2,233,231,0.3,285.7,426.8,-95.145912,43.365685,70008,8.27,98.8,8.49,436,75.7,63.62,301.4,99,75.11,8.34,98,73.91,8.36,95.3,72.98,8.21,86.9,71.88,7.58,74.5,59.76,7.44,75.8,56.89,7.84,75.3,55.05,7.97,74.3,53.46,8.02,71.2,52.19,7.81,55.8,50.61,6.25,55.3,50.3,6.22,52,50.12,5.86
6/30/2021 2:10,,,4.7,353,5.4,223,225,,,18.7,30.2,232,229.9,0.1,341.5,427.5,-95.145897,43.365696,71008,8.28,98.9,8.48,436,75.7,62.66,304.7,99,74.84,8.37,98.4,73.92,8.39,95.7,73.02,8.24,85.7,71.79,7.47,74.7,59.81,7.46,76,56.95,7.86,75.2,54.86,7.98,74.3,53.47,8.02,66.7,51.66,7.37,58.8,50.57,6.59,56.1,50.32,6.3,52.8,50.14,5.95
6/30/2021 2:20,,,3.9,358,4.5,230,232,,,18.8,30.2,233,231.2,0.1,10.7,423.2,-95.145889,43.365685,72008,8.37,100,8.48,436,75.69,60.85,292.9,98.6,75.4,8.28,100,74.03,8.52,95.9,73.05,8.26,85.6,71.47,7.49,74.3,60.14,7.39,76.1,57.06,7.86,75.6,54.99,8,73.5,53.49,7.93,67.1,51.7,7.41,59.3,50.54,6.65,56.4,50.31,6.34,53.3,50.18,6
6/30/2021 2:30,,,4,332,4.7,202,204,,,19,30.2,233,231.1,0.1,170.8,428.9,-95.14595,43.365658,73008,8.37,100,8.49,436,75.65,62.67,298.9,98.4,75.41,8.27,98.9,74.01,8.43,95.5,73.05,8.22,85.2,71.31,7.48,74.3,60.37,7.37,76.3,57.03,7.87,75.6,54.95,8.01,73.7,53.41,7.97,68.6,51.78,7.56,58.9,50.57,6.6,56.1,50.32,6.31,53.4,50.18,6.02
6/30/2021 2:40,,,2.8,343,3.1,209,211,,,18.6,30.2,232,230,0.1,212.9,427.9,-95.145912,43.365665,74008,8.25,98.6,8.48,436,75.65,61.71,294.6,97.8,75.33,8.22,98.1,74,8.36,96.4,73.27,8.28,85.9,71.39,7.52,74.1,60.66,7.33,76,57.03,7.84,75.5,55.07,7.98,73.8,53.32,7.98,67.8,51.7,7.49,59,50.58,6.61,56.5,50.33,6.35,53.5,50.16,6.02
6/30/2021 2:50,,,3.4,359,3.8,229,231,,,18.9,30.2,233,230.7,0,60,427.8,-95.145859,43.365677,75008,8.34,99.6,8.48,436,75.58,60.84,289.5,97.8,75.21,8.23,98.5,74,8.4,96,73.22,8.25,85.5,71.51,7.48,74,60.67,7.31,75.7,57.14,7.81,75.3,55.07,7.97,74.2,53.24,8.03,66.5,51.54,7.36,59.6,50.57,6.68,56.6,50.34,6.36,53.5,50.16,6.02
6/30/2021 3:00,,,3,356,3.4,229,230,,,18.9,30.2,233,230.8,0.1,37.4,428.3,-95.145912,43.36565,80008,8.33,99.5,8.48,436,75.6,62.67,301.6,96.8,75.28,8.14,97.5,74,8.31,95.4,73.29,8.19,85.9,71.46,7.52,74,61.01,7.29,75.7,57.35,7.79,75.4,55.19,7.96,70.9,53.1,7.69,67.5,51.33,7.49,59.4,50.57,6.66,56.4,50.37,6.34,54.3,50.17,6.11
6/30/2021 3:10,,,2.5,296,2.9,167,169,,,18.9,30.2,232,230.5,0.1,283.1,429.9,-95.145912,43.36565,81008,8.36,99.8,8.49,436,75.56,60.79,274,96.4,75.35,8.1,97.7,74.01,8.33,94.6,73.21,8.13,85.9,71.47,7.52,74.1,61.32,7.27,75.5,57.43,7.76,75.8,55.13,8.01,70.1,53.04,7.61,65.4,51.15,7.27,57.7,50.57,6.47,56.1,50.39,6.3,54.8,50.18,6.17
6/30/2021 3:20,,,2,329,2,202,204,,,18.9,30.2,233,231.1,0,25.9,426.6,-95.145889,43.365677,82008,8.25,98.4,8.49,436,75.51,60.91,275.9,95.7,75.15,8.06,97.8,74,8.33,93.9,73.13,8.08,86.1,71.48,7.54,74.1,61.38,7.26,75.7,57.64,7.76,75.8,55.07,8.02,69.9,52.93,7.6,65.2,51.17,7.25,58.4,50.57,6.55,56.3,50.37,6.32,53.9,50.18,6.06
6/30/2021 3:30,,,3.5,37,4.3,267,269,,,19,30.2,232,230.5,0,82.3,426.8,-95.145912,43.365639,83008,8.23,98.2,8.48,435,75.47,61.72,278.8,96,75.32,8.07,97.8,74.04,8.34,93.4,73.21,8.02,85.2,71.46,7.46,73.7,61.63,7.2,76.1,57.76,7.79,74.7,54.74,7.93,68.8,52.6,7.51,62.2,51.02,6.93,59.5,50.6,6.66,56.5,50.41,6.34,53.7,50.19,6.04
6/30/2021 3:40,1.6,-4,2.1,10,2.5,239,241,,,19,30.2,232,230.5,0,314.3,430.6,-95.145927,43.365631,84009,8.24,98.3,8.48,435,75.45,63.62,294.2,95.5,75.24,8.04,98,74.05,8.35,93.8,73.13,8.07,85.9,71.43,7.53,73.6,61.54,7.2,75.8,57.92,7.74,74.7,54.69,7.94,69.3,52.72,7.55,66.5,51.34,7.38,57.7,50.69,6.46,58,50.46,6.51,52.9,50.19,5.96
6/30/2021 3:50,1.9,-4,3.3,24,3.6,253,255,,,19,30.2,233,230.7,0.1,322.4,421.7,-95.145912,43.36565,85009,8.22,98,8.48,435,75.43,60.86,259,95.4,75.24,8.03,98.1,74.06,8.36,93.1,73.08,8.01,86.3,71.47,7.56,73.6,61.25,7.23,74.8,57.96,7.64,75.2,54.54,8.01,69.5,52.7,7.57,67.3,51.5,7.45,57,50.74,6.37,57.8,50.5,6.48,53.6,50.23,6.03
6/30/2021 4:00,1.8,-3.9,2.2,17,2.5,247,249,,,19,30.2,233,230.6,0,250.2,432.9,-95.145889,43.365685,90009,8.22,97.9,8.48,435,75.38,63.63,299.9,95.2,75.12,8.02,95.8,74.05,8.16,92.1,73.01,7.93,85.4,71.46,7.47,73.6,61.41,7.21,75.4,58.13,7.68,75,54.28,8.01,69.2,52.62,7.55,66.5,51.41,7.37,56.3,50.78,6.29,58.1,50.57,6.51,54.4,50.23,6.12
6/30/2021 4:10,1.9,-3.8,3.3,11,3.8,243,245,,,19,30.2,233,230.8,0,26.7,437.8,-95.145889,43.365677,91009,8.21,97.8,8.48,435,75.34,62.67,282.8,94.3,75.28,7.93,95.1,74.07,8.1,90.9,72.98,7.83,83.3,71.4,7.3,73.8,61.97,7.18,74.5,58.33,7.57,74.1,54.16,7.93,70.2,52.5,7.67,67.9,51.32,7.54,56.4,50.79,6.3,60,50.62,6.71,56.3,50.28,6.34
6/30/2021 4:20,,,1.8,44,2.2,278,280,,,19,30.2,233,230.6,0,339.4,427.4,-95.145912,43.36562,92008,8.21,97.7,8.49,435,75.33,62.66,272.9,94.8,75.29,7.97,94.4,74.05,8.05,89.6,72.81,7.74,82.1,71.04,7.22,72.7,62.38,7.05,76.1,57.52,7.81,73.2,54.07,7.84,69.6,52.53,7.6,65.9,51.53,7.29,56.7,50.82,6.33,60.5,50.67,6.77,55.8,50.32,6.27
6/30/2021 4:30,,,1.3,27,1.6,254,256,,,19,30.2,233,230.9,0.1,10.1,425,-95.145912,43.365639,93008,8.3,98.8,8.48,435,75.31,61.72,261.3,94.8,75.32,7.97,92.2,74.05,7.85,85.3,72.73,7.37,81.9,71.09,7.2,72,62.83,6.94,75.7,56.73,7.85,74.4,54.17,7.96,70.1,52.66,7.64,67.6,51.6,7.48,57.7,50.86,6.44,60.7,50.75,6.78,57,50.4,6.4
6/30/2021 4:40,1.8,-4,0.9,41,1.1,258,260,,,19,30.2,233,230.7,0,291.5,429.5,-95.145927,43.365639,94009,8.19,97.5,8.48,436,75.29,60.84,264.5,93.9,75.31,7.9,93.6,74.12,7.97,82.2,72.53,7.11,81.2,70.86,7.16,71.6,62.99,6.89,76.2,56.5,7.92,73,54.04,7.83,70,52.75,7.62,69,51.57,7.63,59.1,51,6.58,59.3,50.79,6.63,57.4,50.52,6.43
6/30/2021 4:50,,,1.6,100,2,332,334,,,19.1,30.2,233,230.7,0,140.3,430.7,-95.145889,43.365608,95008,8.18,97.4,8.49,435,75.27,61.73,263.8,94.6,75.32,7.95,93.6,74.14,7.97,82.9,72.29,7.2,80.8,70.9,7.11,71.4,63.47,6.83,76.3,56.24,7.96,72.7,53.83,7.81,70.1,52.74,7.64,66.7,51.49,7.38,64,51.15,7.12,59.3,50.84,6.62,57.9,50.61,6.48
6/30/2021 5:00,1.8,-4,2.7,107,2.9,334,336,,,19.2,30.2,233,230.6,0,99.6,423.3,-95.145912,43.36565,100009,8.29,98.7,8.48,435,75.25,60.84,264,93.9,75.32,7.89,94.1,74.15,8.01,85.6,72.35,7.42,81.7,70.99,7.19,71.9,63.51,6.88,76.7,56.31,7.99,73.1,53.71,7.87,70.3,52.85,7.65,66.6,51.46,7.38,64.4,51.14,7.17,60.1,50.87,6.71,61,50.65,6.83
6/30/2021 5:10,1.8,-4,1.8,86,2,315,317,,,19.2,30.2,232,230.5,0,293.2,427.1,-95.145897,43.365658,101009,8.29,98.6,8.48,435,75.25,61.73,269.8,94.1,75.3,7.91,95,74.08,8.09,86,72.16,7.48,80.5,70.88,7.09,71.4,63.96,6.79,76.8,56.22,8.01,72.9,53.74,7.85,70.1,52.78,7.63,66.2,51.5,7.33,64,51.12,7.11,60.1,50.88,6.71,61.6,50.65,6.89
6/30/2021 5:20,1.9,-4,2.8,145,3.1,16,18,,,19.1,30.2,233,230.9,0,220.5,431.1,-95.145966,43.36565,102009,8.27,98.4,8.48,436,75.27,61.72,256.6,93.5,75.3,7.86,94.8,74.09,8.07,85.8,72.13,7.46,80.9,70.95,7.13,72.3,64.03,6.87,76.7,56.16,8,72.8,53.92,7.82,70.2,52.79,7.65,67.5,51.53,7.47,63.3,51.07,7.05,59.5,50.86,6.64,60.3,50.65,6.75
6/30/2021 5:30,1.8,-4,2.2,144,2.5,12,14,,,19.1,30.2,233,231.1,0,140.2,426.4,-95.145966,43.365639,103009,8.18,97.3,8.48,436,75.24,60.85,264.2,94.3,75.28,7.93,95.2,74.06,8.11,86,72.15,7.48,81.2,71,7.14,72.2,64.43,6.83,75.8,56.13,7.91,73.5,54.07,7.87,70.1,52.75,7.64,68.1,51.56,7.54,62,51.06,6.9,60,50.77,6.7,59.4,50.65,6.65
6/30/2021 5:40,1.6,-3.8,1.9,147,2,13,14,,,19,30.2,233,230.6,0.1,102.7,429.1,-95.146004,43.365627,104009,8.19,97.5,8.48,436,75.24,61.71,285.1,94.5,75.28,7.95,96.4,74.04,8.21,86.9,72.24,7.54,80.9,70.87,7.13,71.5,64.47,6.76,75.8,56.13,7.92,73.2,54.07,7.84,69.5,52.71,7.57,68,51.57,7.52,61.4,51.01,6.84,59.3,50.67,6.64,58.7,50.62,6.57
6/30/2021 5:50,,,3.1,138,3.8,5,7,,,19,30.2,233,231.2,0.1,140.2,430.5,-95.145927,43.36565,105008,8.29,98.6,8.48,435,75.22,62.67,288.8,95.9,75.24,8.07,97.8,74.05,8.33,89.1,72.37,7.73,82,70.99,7.21,72.1,64.72,6.8,75.7,56.05,7.91,73.3,54.08,7.85,70.5,52.9,7.66,70.2,51.66,7.76,62.5,50.99,6.96,58.8,50.63,6.58,58.8,50.6,6.58
6/30/2021 6:00,,,2.4,158,2.7,32,34,,,19,30.2,233,231.6,0.1,320.2,426.8,-95.145927,43.365593,110008,8.19,97.4,8.48,435,75.2,62.68,294.6,97.5,75.24,8.21,99.6,74.06,8.48,90.7,72.45,7.86,82.5,71.03,7.26,71,64.79,6.69,75.7,56.08,7.91,73.3,54.05,7.86,71.2,53.03,7.73,68.6,51.58,7.58,62.5,50.98,6.96,58.7,50.6,6.57,58.5,50.55,6.56
6/30/2021 6:10,,,1.9,168,2,37,39,,,19,30.2,233,230.8,0.1,65.4,430.9,-95.145912,43.365658,111008,8.27,98.3,8.47,435,75.16,62.67,286.8,97.3,75.21,8.19,99.3,74.09,8.45,89.9,72.49,7.78,82,70.91,7.23,72.3,63.32,6.93,75.8,56.05,7.92,75.1,54.24,8.02,71.1,52.91,7.73,68.4,51.59,7.57,62.1,50.91,6.92,58.6,50.59,6.57,58.6,50.54,6.57
6/30/2021 6:20,,,2.2,188,2.5,61,63,,,19.2,30.2,234,231.8,0,271.2,431.4,-95.145912,43.365639,112008,8.26,98.2,8.47,435,75.16,61.79,282.3,97.2,75.2,8.18,99.3,74.12,8.45,90,72.49,7.8,81.9,70.91,7.22,73.9,62.67,7.14,76.6,56.42,7.97,75.2,54.57,8.01,70.8,52.87,7.7,68.5,51.65,7.57,61,50.91,6.8,58,50.59,6.5,58,50.53,6.5
6/30/2021 6:30,3,-4.7,2.3,151,2.5,22,24,,,19.4,30.2,232,229.9,0,289.1,428.1,-95.145912,43.365627,113009,8.2,97.5,8.48,435,75.13,65.54,287.9,98,75.2,8.25,100,74.11,8.52,90.5,72.44,7.84,82.4,70.88,7.26,74.3,62.45,7.19,76.3,56.47,7.94,75.1,54.52,8,68.9,52.63,7.52,69.2,51.67,7.64,59.4,50.87,6.63,57.9,50.59,6.49,56.8,50.51,6.37
6/30/2021 6:40,,,1.5,172,1.6,39,41,,,19.5,30.2,233,231.3,0.1,225.9,430.8,-95.145927,43.365677,114008,8.23,97.8,8.47,435,75.15,62.84,289.5,97.9,75.21,8.24,99.2,74.13,8.44,89.3,72.28,7.75,81.6,70.83,7.19,74.1,62.17,7.2,75.7,57.03,7.82,74.9,54.41,7.99,70.5,52.79,7.68,69.7,51.67,7.7,61.6,50.95,6.87,57.9,50.59,6.49,56.2,50.48,6.31
6/30/2021 6:50,,,1.4,168,1.6,40,42,,,19.7,30.2,234,231.9,0.1,213.2,428.4,-95.14595,43.36565,115008,8.21,97.6,8.47,435,75.13,65.6,299.5,98.1,75.19,8.26,99.3,74.13,8.45,88.5,72.12,7.69,81.2,70.59,7.18,74,62.17,7.19,75.7,56.87,7.83,75.3,54.78,7.99,70.6,52.7,7.69,70.2,51.66,7.75,60.5,50.94,6.75,57.5,50.58,6.44,53.9,50.4,6.05
6/30/2021 7:00,,,1.4,102,1.3,332,334,,,19.9,30.2,233,231.7,0.1,57.7,431.8,-95.145927,43.365631,120008,8.28,98.4,8.48,435,75.13,66.59,309.9,97.8,75.2,8.23,99.5,74.13,8.47,88.8,72.13,7.72,81.3,70.59,7.18,73.8,61.77,7.21,76.2,56.43,7.93,75.7,54.88,8.03,70.4,52.74,7.68,67.7,51.51,7.5,59.9,50.95,6.68,58.2,50.62,6.51,54.3,50.39,6.1
6/30/2021 7:10,1,-3.4,0.9,130,1.1,4,5,,,20.2,30.2,232,229.8,0.1,2.9,429.5,-95.145927,43.365658,121009,8.31,98.7,8.48,435,75.11,66.8,304.4,98.1,75.16,8.26,99.6,74.04,8.48,88.9,72.13,7.73,81.5,70.55,7.21,73.9,61.86,7.21,76.1,56.9,7.87,75.5,54.83,8.01,70.8,52.78,7.71,67.1,51.45,7.43,59.7,50.96,6.65,57.3,50.58,6.41,53.1,50.32,5.97
6/30/2021 7:20,,,0.9,119,0.9,349,351,,,20.8,30.2,231,229.1,0.1,331.4,434.4,-95.145897,43.365631,122008,8.31,98.7,8.48,435,75.11,69.46,322.6,98.2,75.16,8.27,99.8,74.05,8.5,90,72.21,7.82,81.7,70.69,7.22,73.8,61.75,7.2,75.7,56.76,7.85,75,54.7,7.97,69.5,52.68,7.58,67.3,51.41,7.46,60.6,50.95,6.76,57.7,50.58,6.46,52.9,50.32,5.94
6/30/2021 7:30,1.8,-3.6,2.2,147,2.5,17,19,,,20.9,30.2,231,229.3,0,119.6,428,-95.145927,43.365658,123009,8.2,97.5,8.47,435,75.11,70.43,327.3,98.1,75.16,8.26,98.4,74,8.39,90.6,72.41,7.85,81.5,70.73,7.19,73.4,61.17,7.21,75.6,56.83,7.82,75.3,54.74,8,69.4,52.94,7.54,69.6,51.65,7.69,61.2,51.06,6.82,57.7,50.59,6.47,51.2,50.25,5.76
6/30/2021 7:40,3.9,-3.6,1.5,121,1.6,350,352,,,21.1,30.2,230,228.1,0.1,300.8,430.5,-95.14595,43.36565,124009,8.21,97.6,8.48,435,75.13,68.77,322.1,98.3,75.16,8.28,99.1,74.01,8.44,90.3,72.29,7.84,81.9,70.75,7.22,74.2,61.7,7.24,75.9,56.78,7.86,74.5,54.55,7.93,69.9,53.03,7.58,68,51.78,7.5,65,51.17,7.23,57.2,50.64,6.4,51.6,50.27,5.81
6/30/2021 7:50,2.2,-3.9,1,107,1.1,348,350,,,21.1,30.2,233,231.5,0,341.4,430.4,-95.145927,43.365665,125009,8.22,97.7,8.48,435,75.15,71.42,329.7,98.2,75.16,8.27,99.1,74.04,8.44,89.8,72.24,7.8,81.7,70.75,7.21,73.7,62.03,7.17,76.2,56.68,7.91,74.9,54.58,7.97,71.4,53.11,7.74,68.5,51.77,7.55,65,51.19,7.22,57.5,50.66,6.43,52.7,50.31,5.93
6/30/2021 8:00,2.2,-4.4,1.3,92,1.3,312,314,,,21.3,30.2,231,229.1,0.1,220.5,432.1,-95.145912,43.365639,130009,8.22,97.7,8.48,435,75.15,72.38,325,98.3,75.17,8.28,98.2,73.96,8.37,89.9,72.2,7.81,82.3,70.83,7.25,73.9,62.19,7.17,75.7,56.83,7.83,75.3,54.52,8.02,69.3,53.04,7.52,69.9,51.9,7.7,64.8,51.21,7.2,57,50.7,6.38,53.4,50.31,6.01
6/30/2021 8:10,1.8,-4.3,1.2,116,1.1,349,351,,,21.8,30.2,232,229.6,0,268.3,430.9,-95.145912,43.365677,131009,8.33,99,8.48,435,75.18,73.44,335.1,98.3,75.2,8.27,98.5,73.97,8.4,89.5,72.2,7.78,82,70.84,7.23,73.8,61.91,7.19,75.7,56.87,7.83,75.4,54.46,8.03,69.3,52.95,7.53,69.7,51.9,7.68,64.8,51.21,7.2,57.7,50.72,6.45,54.5,50.32,6.13
6/30/2021 8:20,2,-3.6,2.1,131,2.2,358,360,,,22.1,30.2,231,229,0.1,59.6,430.3,-95.145912,43.365631,132009,8.32,99,8.48,435,75.2,74.32,323.7,98.6,75.2,8.3,98.4,73.96,8.39,90.3,72.29,7.84,82.3,70.95,7.24,74.3,61.95,7.23,75.8,56.64,7.87,75.4,54.46,8.03,69.7,53.08,7.56,70.3,51.94,7.74,64.8,51.24,7.19,57.8,50.75,6.47,55.7,50.34,6.25
6/30/2021 8:30,1.9,-4.2,2.3,121,2.7,351,353,,,22.2,30.2,232,229.8,0,122.3,430,-95.14595,43.365627,133009,8.33,99.1,8.49,435,75.24,74.32,312.1,98.4,75.2,8.28,98.7,73.97,8.42,90.7,72.37,7.87,82.7,71.07,7.28,74.1,61.9,7.22,76.2,56.67,7.9,75.3,54.46,8.03,70.1,53.15,7.59,70.2,51.95,7.73,65.1,51.25,7.23,57.7,50.75,6.45,56.3,50.35,6.33
6/30/2021 8:40,,,2.2,124,2.2,349,351,,,22.6,30.2,231,229.9,0.3,172.6,428.3,-95.145912,43.365627,134008,8.24,98.1,8.48,435,75.27,75.28,305.4,98.9,75.21,8.33,99.3,73.97,8.46,90.9,72.37,7.88,83,71.11,7.3,74.3,61.78,7.25,76.2,56.85,7.89,75,54.29,8.01,69.1,52.99,7.5,70.4,51.97,7.74,65.7,51.29,7.29,57.9,50.83,6.46,56.7,50.41,6.37
6/30/2021 8:50,1.7,-4.7,3,111,3.6,342,344,,,22.6,30.2,231,229.2,0.3,193.9,430.9,-95.145927,43.365631,135009,8.25,98.2,8.48,435,75.31,73.57,305.4,98.7,75.2,8.31,98.6,73.97,8.41,91,72.45,7.89,83.1,71.15,7.3,74.3,61.82,7.24,75.5,57.09,7.79,75.2,54.41,8.02,68.9,52.95,7.49,68.1,51.92,7.5,66.3,51.29,7.36,58.2,50.81,6.5,55.4,50.33,6.22
6/30/2021 9:00,2.4,-4,1.7,84,1.6,311,313,,,22.4,30.2,231,230,0,239.2,433.8,-95.145927,43.365665,140009,8.25,98.3,8.48,435,75.33,77.21,320.3,98.6,75.22,8.29,99.3,73.97,8.46,92.1,72.53,7.97,83.1,71.14,7.3,74.3,61.7,7.25,75.9,57.11,7.83,75.3,54.56,8.02,68.8,52.91,7.48,69.3,51.86,7.64,64.9,51.32,7.2,57.8,50.82,6.45,56.6,50.4,6.36
6/30/2021 9:10,1.5,-2,1.2,119,1.3,330,332,,,22.7,30.2,231,228.5,0.5,57.3,428.3,-95.14595,43.365639,141009,8.3,98.8,8.48,435,75.31,78.21,322.4,98.8,75.23,8.32,98.7,73.96,8.41,90.2,72.35,7.82,83.4,71.11,7.33,74.4,61.62,7.27,75.9,57.19,7.82,75.5,54.56,8.03,68.8,52.91,7.48,70.8,51.83,7.81,63,51.33,6.99,57.9,50.8,6.46,57,50.47,6.39
6/30/2021 9:20,,,1.4,92,1.3,306,308,,,23,30.2,232,230.4,0.5,352.6,431.2,-95.145966,43.365639,142008,8.25,98.3,8.49,435,75.36,77.35,323.3,98.6,75.2,8.3,100.3,74.01,8.54,90.2,72.36,7.82,83.2,71.12,7.32,74,61.32,7.26,76,57.24,7.83,75.2,54.49,8.01,68.7,52.9,7.47,70.4,51.78,7.76,62,51.29,6.88,56.7,50.77,6.34,56.3,50.4,6.33
6/30/2021 9:30,,,1.7,99,1.8,322,324,,,23.3,30.2,232,229.7,0.1,35.2,428.8,-95.145927,43.365631,143008,8.36,99.6,8.48,435,75.4,79.24,323.7,98.9,75.24,8.32,99.1,74,8.45,90.2,72.37,7.83,83.5,71.11,7.34,74,61.21,7.27,76.2,57.48,7.83,75.1,54.49,8,68.7,52.94,7.47,68.9,51.76,7.6,61.6,51.18,6.85,56.6,50.79,6.33,56.2,50.4,6.31
6/30/2021 9:40,,,1.7,100,2,325,327,,,23.7,30.2,232,230.5,0.1,79.7,429.8,-95.14595,43.36565,144008,8.37,99.8,8.48,435,75.45,82.09,330.2,99,75.24,8.33,100.3,74.09,8.54,90,72.25,7.82,83.6,71.15,7.34,74.1,61.26,7.27,76.2,57.46,7.83,75.1,54.65,7.99,69,52.99,7.5,68.5,51.78,7.56,61,51.11,6.78,56.3,50.77,6.3,56.6,50.46,6.36
6/30/2021 9:50,1.3,-3.1,1.6,96,2,320,322,,,24.2,30.2,232,230,0.3,85.5,431.5,-95.145966,43.36565,145009,8.38,100,8.48,435,75.52,82.09,320.4,98.8,75.19,8.32,98,73.96,8.36,90.3,72.33,7.83,83.9,71.24,7.37,74,61.05,7.28,76.1,57.55,7.81,74.9,54.66,7.96,68.9,52.99,7.48,68.5,51.71,7.57,59.3,51,6.61,56.8,50.81,6.34,56.1,50.4,6.3
6/30/2021 10:00,,,1.1,79,1.3,313,315,,,24.3,30.2,233,231,0.1,165.5,429.5,-95.14595,43.365639,150008,8.28,98.8,8.49,435,75.56,83.03,309.2,98.5,75.16,8.29,97.5,73.91,8.32,90.5,72.36,7.85,84.3,71.27,7.39,73.9,60.97,7.28,76.1,57.48,7.81,74.7,54.58,7.96,68.8,52.98,7.48,67.9,51.58,7.5,58.9,50.95,6.57,54.4,50.79,6.08,55.2,50.44,6.19
6/30/2021 10:10,1.7,-3.2,1.7,65,2,292,294,,,24.4,30.2,232,229.8,0.1,33.6,430,-95.145912,43.365658,151009,8.28,98.8,8.48,435,75.58,83.98,308.9,98.7,75.17,8.31,98.8,73.92,8.43,92.8,72.55,8.03,85.5,71.35,7.5,73.8,60.9,7.27,75.7,57.48,7.77,73.7,54.67,7.83,69.2,53.03,7.51,66.2,51.49,7.32,58.2,50.9,6.49,56,50.83,6.25,56.5,50.46,6.34
6/30/2021 10:20,,,1.3,52,1.3,269,271,,,24.8,30.2,232,230.3,0.1,347.7,430,-95.145966,43.365658,152008,8.41,100.4,8.48,436,75.58,80.56,295.6,98.8,75.16,8.32,96.6,73.84,8.25,92.7,72.55,8.03,85.9,71.4,7.53,73.9,61.06,7.28,75.9,57.43,7.8,73,54.66,7.77,69.2,53.07,7.51,66.1,51.61,7.31,58.8,50.91,6.56,57.3,50.83,6.4,56.3,50.45,6.32
6/30/2021 10:30,4,-3,1.7,39,2,262,264,,,25.2,30.2,231,229.3,0.3,355.1,431.1,-95.14595,43.365639,153009,8.42,100.7,8.49,436,75.72,83.11,300,98.5,75.15,8.3,96.8,73.72,8.28,92.6,72.53,8.02,85.7,71.4,7.51,74,61.07,7.28,75.9,57.52,7.8,73.3,54.78,7.78,69.1,53,7.51,66.3,51.53,7.34,58.5,50.96,6.52,57.8,50.84,6.46,55.8,50.48,6.26
6/30/2021 10:40,,,0.8,26,0.9,271,273,,,25.3,30.2,232,229.1,0.1,162.2,429,-95.145912,43.365665,154008,8.41,100.5,8.48,436,75.69,83.13,303.9,98.9,75.17,8.32,95.6,73.78,8.17,91.5,72.47,7.92,85.3,71.31,7.48,74.1,61.11,7.29,76.1,57.52,7.81,72.3,54.9,7.66,69.4,53.02,7.54,65.4,51.49,7.25,58.3,50.99,6.49,57.4,50.83,6.41,55.8,50.51,6.26
6/30/2021 10:50,1.4,-2.6,0.6,29,0.7,263,265,,,26.2,30.2,233,231.1,0.1,207.1,429,-95.145912,43.36565,155009,8.32,99.4,8.48,435,75.6,82.23,295.6,98.7,75.15,8.32,96.9,73.84,8.28,93.4,72.65,8.08,85.8,71.45,7.52,74.2,61.17,7.29,75.9,57.36,7.81,72.6,55.2,7.66,69.5,52.91,7.55,65.6,51.44,7.26,58.5,51.02,6.52,50.8,50.66,5.69,54.1,50.55,6.07
6/30/2021 11:00,1.6,-3.4,2.8,71,3.4,300,302,,,25.6,30.2,231,229.1,0.1,157.4,429,-95.145912,43.365593,160009,8.47,101.3,8.49,436,75.79,82.31,281.8,98.8,75.12,8.32,98.7,73.92,8.42,92.1,72.49,7.98,85.8,71.44,7.52,74.4,61.51,7.29,75.4,57.55,7.73,72.9,55.4,7.68,70.1,52.87,7.63,66.6,51.45,7.38,56.3,50.95,6.28,54.3,50.63,6.08,53.3,50.53,5.97
6/30/2021 11:10,1.6,-4.4,2.8,87,2.9,312,314,,,25.1,30.2,232,229.5,0.1,307.5,428.4,-95.14595,43.365627,161009,8.38,100.2,8.49,436,75.79,81.45,283.1,99,75.14,8.34,99.9,73.99,8.52,91.6,72.41,7.94,86.3,71.54,7.55,74.3,61.31,7.29,76,57.4,7.82,72.8,55.37,7.67,70,52.95,7.61,66.5,51.48,7.36,56.6,50.95,6.31,56.9,50.68,6.36,52.5,50.52,5.89
6/30/2021 11:20,2.3,-3.4,2,84,2.2,308,310,,,25.2,30.2,232,230.3,0.3,23.8,431.4,-95.14595,43.365631,162009,8.34,99.7,8.49,436,75.7,83.07,288.4,99.1,75.16,8.34,97.7,73.8,8.35,92.9,72.53,8.04,85.6,71.39,7.51,74.2,61.43,7.27,76.1,57.26,7.84,72.5,55.24,7.66,70.3,52.95,7.64,66.9,51.49,7.41,57.6,50.94,6.42,55.7,50.62,6.24,53.2,50.52,5.97
6/30/2021 11:30,,,1.7,80,2,303,305,,,25.5,30.2,230,228.6,0.1,127.2,428.7,-95.145927,43.36565,163008,8.36,99.9,8.5,435,75.67,83.07,287.3,99.4,75.16,8.37,96.2,73.8,8.21,94.4,72.76,8.15,86.1,71.47,7.53,74,61.62,7.23,76,57.64,7.79,74.4,54.82,7.9,70,52.84,7.62,67.1,51.49,7.43,58.2,50.93,6.5,55.4,50.6,6.2,53.4,50.52,5.99
6/30/2021 11:40,,,1.1,81,1.6,320,322,,,25.9,30.2,233,231.6,0.7,169.6,428.1,-95.145927,43.365627,164008,8.35,100,8.49,436,75.87,82.24,265.1,99.5,75.2,8.37,98.2,73.75,8.39,93.7,72.69,8.1,86.2,71.43,7.55,73.4,62.22,7.13,76,57.59,7.8,74.2,54.75,7.89,69.4,52.75,7.56,67.5,51.5,7.47,57.2,50.95,6.38,55.1,50.59,6.18,53.7,50.52,6.02
6/30/2021 11:50,,,0.6,62,0.7,317,319,,,26.6,30.2,231,228.2,0.3,214,429.4,-95.145912,43.365631,165008,8.47,101.6,8.49,436,76.05,83.16,287.4,99.6,75.28,8.38,96.4,73.8,8.23,93.2,72.61,8.06,85.6,71.31,7.51,73.8,62.07,7.18,75.6,57.73,7.74,72.3,54.99,7.66,69.6,52.75,7.58,66.3,51.4,7.35,58.3,50.95,6.5,54.3,50.59,6.08,53.6,50.52,6.01
6/30/2021 12:00,,,2,83,2.7,305,307,,,27,30.2,227,224.8,0.9,94.4,430.5,-95.14595,43.365677,170008,8.39,100.6,8.5,436,75.97,84.22,273.5,99.5,75.2,8.38,96.1,73.72,8.21,93.8,72.69,8.11,86,71.39,7.53,74.1,62.47,7.17,75.5,57.72,7.73,74.6,54.89,7.91,69.9,52.7,7.62,66.1,51.4,7.33,58.9,50.93,6.57,57.7,50.68,6.46,53.8,50.52,6.03
6/30/2021 12:10,0.2,-3.7,1.6,68,2.2,300,302,,,27.2,30.2,231,229.2,0.7,140.8,431,-95.145927,43.365639,171009,8.52,102.5,8.49,436,76.32,86.13,279.9,99.6,75.28,8.38,97.9,73.89,8.36,93.7,72.69,8.1,85.7,71.38,7.51,74.2,61.71,7.25,74.9,58.01,7.64,73.1,55.03,7.73,69.4,52.44,7.59,66.4,51.36,7.36,58.8,50.91,6.56,58.5,50.71,6.54,53.7,50.52,6.03
6/30/2021 12:20,2,-3.7,1.9,136,2.5,354,356,,,26.7,30.2,230,227.6,0.3,167.6,431,-95.145927,43.365639,172009,8.43,101.5,8.5,436,76.41,85.03,294.8,99.8,75.32,8.39,95.3,73.8,8.14,94.4,72.76,8.15,86.2,71.43,7.55,74.3,62.19,7.22,75.2,58.04,7.67,74.2,54.84,7.87,69.2,52.7,7.55,67.3,51.49,7.46,54,51.05,6.02,56,50.67,6.27,54.2,50.53,6.07
6/30/2021 12:30,3.4,-5.4,2.8,192,3.6,71,73,,,27.1,30.2,229,228.1,0.7,297,426.8,-95.145927,43.36565,173009,8.45,101.7,8.49,436,76.33,84.02,291.4,100.1,75.42,8.41,95.8,73.84,8.18,93.9,72.66,8.12,84.4,71.07,7.42,74.5,61.92,7.26,75.4,58.25,7.67,74.8,54.61,7.96,69.8,52.71,7.61,68,51.53,7.52,56.8,51.2,6.31,58.5,50.75,6.54,54.3,50.54,6.09
6/30/2021 12:40,-0.8,-3.7,0.9,113,1.3,339,341,,,27.3,30.2,233,230.6,0.9,152.7,434.6,-95.145912,43.365574,174009,8.44,101.6,8.5,436,76.33,84.04,297.9,100.1,75.29,8.42,96.5,73.91,8.23,94,72.69,8.12,84.4,71.15,7.42,74.1,62.36,7.18,75.1,58.05,7.66,75,54.41,8,68.8,52.82,7.49,69,51.61,7.63,62.4,51.34,6.92,58.4,50.73,6.53,54.9,50.57,6.15
6/30/2021 12:50,,,1.8,82,2,309,311,,,26.5,30.2,230,226.5,0.3,340.5,433.8,-95.145912,43.365685,175008,8.44,101.5,8.5,436,76.32,85.02,297.9,100.3,75.48,8.42,97.6,73.92,8.32,93.6,72.65,8.09,85.4,71.19,7.5,72.3,62.67,6.98,74.9,57.89,7.65,74.8,54.75,7.95,69.3,52.91,7.53,68.1,51.53,7.54,56.6,51.23,6.29,56.6,50.66,6.33,54.3,50.53,6.09
6/30/2021 13:00,2.9,-2.8,1,107,0.7,315,317,,,27.3,30.2,230,227.9,0.7,1.9,431,-95.145966,43.365627,180009,8.44,101.7,8.5,436,76.42,85.07,293.1,100.7,75.43,8.46,97.9,73.86,8.35,95.3,72.89,8.22,86.1,71.23,7.56,72.8,62.7,7.03,75.4,58.21,7.68,74.7,54.79,7.93,69.2,52.94,7.52,67.5,51.46,7.47,55.6,51.12,6.18,55.1,50.62,6.17,53.9,50.52,6.05
6/30/2021 13:10,,,1.6,305,2,177,179,,,28.1,30.2,232,230.2,0.9,7.5,430.8,-95.145927,43.36562,181008,8.45,102.1,8.5,436,76.78,86.02,293.3,101,75.4,8.48,98.8,73.94,8.42,94.4,72.75,8.15,83.1,71.15,7.3,73.5,62.68,7.1,75.2,57.69,7.7,74.9,54.79,7.95,69.3,52.95,7.53,67.2,51.4,7.45,56,51.13,6.23,55.6,50.62,6.22,54.1,50.53,6.06
6/30/2021 13:20,,,0.6,293,1.1,160,162,,,27.5,30.2,235,232.6,0.1,295.8,432.1,-95.14595,43.365665,182008,8.41,102.1,8.5,437,77.18,84.06,286.8,101,75.4,8.48,99.5,73.96,8.49,93,72.61,8.04,80,71.15,7.03,74.3,62.42,7.19,75.3,57.84,7.7,73.7,54.93,7.81,69,52.97,7.5,67.9,51.51,7.52,57.3,51.27,6.36,58.7,50.75,6.56,53.3,50.53,5.98
6/30/2021 13:30,1.8,-3.2,1.2,57,1.6,279,281,,,27,30.2,231,228,0.1,2.9,430.3,-95.14595,43.365658,183009,8.46,102.3,8.51,436,76.78,83.08,279.9,100.9,75.36,8.48,100.3,74.04,8.55,95.3,72.88,8.22,80.4,70.99,7.07,74.2,62.58,7.17,75.7,57.76,7.75,74.8,54.59,7.96,69.1,52.99,7.5,69,51.64,7.62,57,51.29,6.33,57.9,50.68,6.48,53.7,50.48,6.03
6/30/2021 13:40,2.3,-2.3,0.9,1,1.1,227,229,,,26.4,30.2,230,228.2,0.3,10.1,428.8,-95.145927,43.365658,184009,8.46,102.8,8.51,436,77.25,81.26,275.4,101.4,75.4,8.52,97.5,73.84,8.33,93,72.65,8.04,80.1,71.19,7.03,74.1,62.43,7.18,75.8,57.55,7.78,74.7,54.58,7.95,70,53.13,7.59,70.2,51.86,7.74,60.9,51.36,6.76,58,50.67,6.49,53.8,50.44,6.04
6/30/2021 13:50,,,0.4,318,0.9,161,163,,,27,30.2,231,229.7,0.3,275.1,430.4,-95.145927,43.36565,185008,8.44,102,8.5,436,76.66,82.09,287.5,101.4,75.23,8.54,100.5,74.07,8.56,95.7,72.94,8.25,81,71.11,7.12,74.1,62.67,7.15,76,57.52,7.8,74.1,54.66,7.88,70,53.16,7.59,71,51.86,7.82,62.8,51.4,6.96,54,50.56,6.05,53.7,50.4,6.04
6/30/2021 14:00,,,1.9,345,2.2,217,218,,,27.1,30.2,231,229.3,0.5,342.4,430.6,-95.14595,43.365631,190008,8.42,101.9,8.5,436,76.82,82.1,295.6,101.7,75.4,8.54,100.3,74.06,8.54,96.1,73.01,8.27,80.8,71.2,7.1,74.5,62.79,7.19,75.9,57.45,7.79,74.3,54.7,7.89,69.7,53.09,7.56,70.5,51.89,7.77,63.7,51.43,7.06,53.9,50.6,6.04,52.6,50.35,5.91
6/30/2021 14:10,2.5,-4.4,2.4,25,2.7,255,257,,,26.8,30.2,230,228.9,0.3,306,433.9,-95.14595,43.36565,191009,8.43,102.1,8.5,437,76.95,82.12,296.1,101.2,75.56,8.49,100.9,74.09,8.59,96.4,73.09,8.3,81.2,71.2,7.13,74.4,62.65,7.19,76.1,57.24,7.83,72.4,54.87,7.67,70,53.16,7.59,70.8,51.86,7.81,64.1,51.46,7.1,53.6,50.58,6,54.5,50.15,6.14
6/30/2021 14:20,1.8,-4.2,1.4,47,1.3,271,273,,,26.5,30.2,230,229.8,0.1,319.8,433.2,-95.145927,43.365677,192009,8.41,102.1,8.5,437,77.14,82.11,285.5,101.7,75.4,8.54,100,74,8.53,95.2,72.85,8.22,81.4,71.23,7.15,74.6,63.03,7.17,75.9,57.54,7.79,72.4,54.99,7.67,70.2,53.21,7.6,70.4,52.02,7.74,59.4,51.41,6.59,54.7,50.5,6.13,53.3,50.1,6.01
6/30/2021 14:30,1.6,-4.3,1.8,20,2,251,253,,,26.5,30.1,230,227.3,0.5,193.1,426.3,-95.145912,43.365631,193009,8.42,102,8.5,436,76.95,80.34,257.1,102,75.34,8.57,100.7,74.08,8.57,96,72.96,8.27,82.8,70.91,7.3,74.5,62.91,7.17,76.6,57.62,7.85,74.5,54.56,7.94,69.2,53.08,7.5,70,52.03,7.7,56.2,51.16,6.25,53.8,50.46,6.03,49.4,50.04,5.57
6/30/2021 14:40,2.5,-2.9,0.4,66,0.2,306,308,,,27.5,30.2,233,230.6,0.1,330.7,433.8,-95.145927,43.36565,194009,8.36,101.9,8.5,437,77.49,80.39,279.5,102.4,75.32,8.61,100.3,74,8.55,95.2,72.84,8.22,83.4,70.94,7.34,74.5,62.99,7.17,76.2,57.35,7.83,74.5,54.64,7.92,70,53.16,7.59,69.9,52.02,7.68,58.4,51.33,6.48,53.6,50.49,6.01,47.9,50.02,5.41
6/30/2021 14:50,1.1,-2.5,1.4,151,1.6,10,12,,,27.5,30.2,228,225.7,0.3,356,433,-95.145912,43.365582,195009,8.37,102.6,8.5,437,78.08,82.1,285.7,102.7,75.32,8.64,100.9,74.04,8.6,96.5,73.05,8.31,83,70.73,7.33,74.6,63.07,7.17,75.6,56.86,7.82,74.8,54.49,7.97,70.4,53.19,7.63,70.1,52.07,7.7,55.3,51.04,6.16,52.1,50.38,5.85,47.4,49.97,5.35
6/30/2021 15:00,-0.1,-3.2,2.5,121,3.4,350,352,,,27.7,30.2,236,234.7,0.5,113.3,432.8,-95.145973,43.365639,200008,8.39,102.7,8.49,437,78.03,82.13,293.3,102.5,75.48,8.6,101.6,74.09,8.65,95.4,72.85,8.23,85,71.06,7.47,74.5,62.78,7.19,75.3,57.11,7.77,74.3,54.62,7.91,74.1,53.32,8.01,70.7,52.11,7.76,56,51.06,6.23,52.4,50.25,5.89,48.8,49.98,5.51
6/30/2021 15:10,-5.3,-4.6,1,112,2,336,338,,,28.2,30.2,232,228.7,1.8,155.2,432.2,-95.14595,43.365639,201008,8.54,103.9,8.51,437,77.41,80.29,275.6,102.7,75.37,8.63,102.2,74.17,8.7,96.4,72.99,8.3,80.6,70.19,7.15,74.6,63.03,7.18,75.2,57.07,7.77,73.2,54.66,7.79,71.7,53.55,7.73,70.5,52.3,7.72,56.8,51.14,6.31,51.6,50.26,5.8,47.4,49.95,5.36
6/30/2021 15:20,0.4,0.2,3,77,3.6,298,300,,,27.6,30.2,229,227.1,0.9,69.5,431.7,-95.145973,43.365608,202008,8.5,104,8.51,437,77.97,81.2,319.8,103.1,75.36,8.66,101.7,74.13,8.66,95.7,72.9,8.26,84.5,70.95,7.44,74.6,63.16,7.16,75.9,56.95,7.85,74.7,54.54,7.95,72.1,53.28,7.8,70.1,52.28,7.68,56.2,51.08,6.25,49.7,50.13,5.61,46.7,49.94,5.28
6/30/2021 15:30,,,4.8,203,4.9,69,71,,,27.9,30.1,231,228.4,0.3,313.2,430.2,-95.14595,43.36565,203007,8.52,103.8,8.51,437,77.45,80.26,306.7,102.6,75.48,8.61,101.7,74.12,8.66,96.5,73.03,8.31,83.4,70.91,7.34,74,63.16,7.11,75.5,57.44,7.75,74.4,54.41,7.93,70.4,53.24,7.62,69.2,52.2,7.59,55.5,51.05,6.18,49,50.07,5.52,46.7,49.93,5.28
6/30/2021 15:40,1.3,-3.2,4.7,123,4.9,343,345,,,27.6,30.1,230,229.2,0.5,103.9,425.9,-95.145927,43.36565,204008,8.53,104.3,8.52,437,77.81,81.12,286.4,102.4,75.4,8.6,102.7,74.26,8.73,96.1,72.93,8.28,85.2,71.14,7.49,74.4,63.5,7.11,75.5,57.22,7.78,74.8,54.29,7.99,71.2,53.29,7.71,70.4,52.38,7.7,57.6,51.24,6.4,51.8,50.3,5.83,47.1,49.94,5.33
6/30/2021 15:50,,,4.6,141,5.4,21,23,,,27.7,30.2,234,231.8,0.7,233.4,432.7,-95.145897,43.365536,205008,8.52,104.3,8.51,437,78.01,79.28,292,102.6,75.59,8.6,100.3,74.02,8.55,94.7,72.79,8.18,85.3,71.19,7.49,74.5,63.51,7.13,76,57.11,7.84,74.6,54.33,7.96,70.3,53.2,7.61,69.5,52.16,7.63,57.7,51.22,6.41,52.5,50.42,5.89,48.7,49.97,5.5
6/30/2021 16:00,3.4,-4.8,5.3,145,5.8,9,11,,,27.5,30.2,227,224.6,0.3,298,434.3,-95.145927,43.365639,210008,8.65,105.6,8.51,437,77.74,78.29,225.8,102.1,75.68,8.55,104.2,74.66,8.82,97.6,73.09,8.4,81.2,69.86,7.24,74.7,63.28,7.16,76,57.38,7.81,74.3,54.64,7.9,70.1,53.24,7.59,69.4,52.16,7.62,60.4,51.33,6.7,52.3,50.41,5.87,49.7,49.98,5.61
6/30/2021 16:10,-3.4,-5.5,3.5,124,5.1,349,351,,,27.5,30.2,231,228.3,1.6,157.9,432.6,-95.145966,43.365601,211008,8.62,105.1,8.51,437,77.68,79.18,291.7,103.4,75.43,8.69,102,74.12,8.68,94.6,72.73,8.17,86.9,71.31,7.62,75.3,63.56,7.2,76,57.19,7.84,73.2,54.78,7.77,71.5,53.29,7.74,69.7,52.21,7.64,56.6,51.15,6.29,53,50.41,5.96,49.1,49.97,5.54
6/30/2021 16:20,0.7,-6.1,6.1,116,7.6,346,348,,,27.1,30.1,228,224.8,0.7,207.5,430.1,-95.145966,43.365608,212008,8.51,104.1,8.51,437,77.97,78.26,213.1,102.4,75.67,8.58,102.9,74.24,8.75,94.4,72.74,8.15,86,71.15,7.55,74.4,62.71,7.18,75.9,57.68,7.78,74,55.64,7.78,72.9,53.41,7.87,69.6,52.28,7.63,61.3,51.29,6.8,54.1,50.55,6.07,49.8,50,5.62
6/30/2021 16:30,,,2.5,138,2.9,0,2,,,27.7,30.1,231,229.8,0.5,33.1,432.3,-95.14595,43.365608,213007,8.5,104.1,8.51,437,78.03,78.33,296,102.8,75.68,8.61,103.5,74.44,8.78,96.5,72.97,8.31,85.7,71.15,7.53,74.1,62.14,7.2,75.9,57.48,7.8,73.9,54.49,7.87,68.9,52.99,7.48,70,51.95,7.7,57.2,51,6.38,53.1,50.42,5.96,50.2,50.02,5.66
6/30/2021 16:40,,,5.9,156,6.9,30,32,,,27.6,30.2,232,229.7,0.7,229.3,434.7,-95.146004,43.365601,214007,8.52,104.2,8.51,437,78.01,79.2,252.3,103.1,75.72,8.63,102,74.17,8.68,96.3,73.02,8.3,83.5,70.5,7.39,74.3,63.39,7.12,75.5,57.27,7.77,74.6,54.47,7.96,70.1,53.2,7.6,70.3,52,7.74,57.7,50.99,6.43,52.6,50.28,5.92,50,50.01,5.64
6/30/2021 16:50,,,1.9,197,2.2,45,47,,,28.4,30.2,227,224.8,0.9,135.2,434.3,-95.145927,43.36562,215007,8.48,104.1,8.5,437,78.31,80.14,261.4,103,75.73,8.62,102.9,74.2,8.75,96.5,72.98,8.32,84.8,70.91,7.47,74.6,62.87,7.19,75.8,57.55,7.78,74.9,54.45,7.99,70.4,53.18,7.62,70.2,52.03,7.71,58.8,50.94,6.55,51.7,50.24,5.82,49.8,50.01,5.62
6/30/2021 17:00,0.5,-5.2,4.5,142,5.1,12,14,,,27.9,30.2,232,229.8,0.1,237.4,435.9,-95.145966,43.365562,220008,8.41,103.6,8.5,437,78.58,78.27,285.7,102.7,75.85,8.58,102.7,74.18,8.73,95.8,72.87,8.27,84.2,70.59,7.44,74.5,62.55,7.21,75.9,57.69,7.78,74.8,54.49,7.97,72.2,53.37,7.81,69.8,52.07,7.68,58.3,51.03,6.49,53.8,50.59,6.03,50,50.06,5.64
6/30/2021 17:10,2.7,-3.2,6.8,157,7.4,27,29,,,27.7,30.2,230,227.2,0.3,308.8,436,-95.145966,43.365562,221008,8.44,103.8,8.52,437,78.44,78.25,265.8,102.6,75.68,8.6,102.1,74.13,8.69,94.3,72.69,8.15,83.2,70.31,7.38,74.5,62.23,7.23,76.2,57.76,7.8,74.1,54.82,7.87,72.5,53.57,7.81,70.2,51.82,7.74,58.4,51,6.51,52.9,50.52,5.93,50.2,50.06,5.66
6/30/2021 17:20,2,-4,5.2,138,6.5,7,9,,,27.1,30.1,229,227.1,0.5,241.7,433.9,-95.145966,43.365627,222008,8.46,103.7,8.51,437,78.13,77.28,288.5,101.9,75.84,8.52,102.1,74.09,8.7,94.3,72.7,8.15,82.4,70.35,7.3,74,62.02,7.2,76,57.89,7.77,73.4,55.4,7.73,73.1,53.78,7.86,69.2,52.04,7.61,63.3,51.29,7.03,53.5,50.58,6,52.4,50.27,5.9
6/30/2021 17:30,3.7,-2.9,3.7,156,3.8,27,29,,,27.7,30.1,229,227.3,0.7,352.9,435.4,-95.145966,43.365601,223008,8.47,103.7,8.5,437,78.03,77.26,234.6,102.9,75.45,8.64,102.6,74.16,8.73,95,72.85,8.2,86.7,71.35,7.6,73.7,61.53,7.22,75.2,57.36,7.74,73,55.01,7.73,73.1,53.47,7.89,71,51.92,7.81,59.4,51,6.62,53,50.42,5.94,52,50.23,5.85
6/30/2021 17:40,0,-3.2,6.2,149,6.9,13,15,,,28,30.1,232,227.1,0.9,100.2,435.3,-95.14595,43.365593,224008,8.48,103.7,8.5,437,77.9,77.29,268.8,102.8,75.66,8.61,102.6,74.16,8.73,94.5,72.73,8.17,84.3,70.71,7.44,74,62.06,7.19,76.1,57.72,7.79,73.6,55.1,7.78,69.1,53.09,7.5,69.1,51.94,7.61,59,51.06,6.57,53.2,50.58,5.96,53,50.35,5.95
6/30/2021 17:50,3.6,-4.6,5.1,137,5.8,13,15,,,27.6,30.1,233,231.5,0,162.8,434.6,-95.14595,43.365601,225008,8.44,103.3,8.51,437,78.03,78.23,306.4,102.2,75.68,8.56,102.6,74.17,8.73,96.2,72.97,8.29,85.6,71.07,7.53,73.8,62.07,7.18,76.2,57.59,7.81,73.9,55.17,7.81,69.1,53.08,7.5,69.3,51.74,7.65,59.2,51.08,6.59,53.8,50.59,6.03,53.4,50.39,5.99
6/30/2021 18:00,1,-5.2,4.8,144,5.1,8,10,,,27.1,30.1,231,229.1,0.7,60.2,433.1,-95.145912,43.365582,230008,8.39,102.7,8.5,437,78.03,78.21,245.1,104.4,74.97,8.81,101.8,74.05,8.67,96.2,72.93,8.29,87.4,71.46,7.65,73.8,61.46,7.22,76.4,57.64,7.83,74.1,55.4,7.81,70.5,52.81,7.67,65.9,51.49,7.3,59,51.05,6.57,53.5,50.5,6,53,50.38,5.95
6/30/2021 18:10,-0.9,-2.8,5.9,153,6.5,17,19,,,26.5,30.1,234,231.8,1.1,100.8,433.5,-95.14595,43.365574,231008,8.43,103,8.5,437,77.83,76.27,283.6,102.8,75.64,8.61,103.7,74.29,8.81,95.1,72.77,8.21,86.3,71.16,7.59,73.9,62.22,7.17,76.4,57.64,7.83,74.3,55.28,7.84,70,52.74,7.62,69.1,51.7,7.63,58.3,51.05,6.5,56.7,50.7,6.34,53.7,50.44,6.03
6/30/2021 18:20,0.6,-1.5,4,152,4.3,7,9,,,27,30.1,228,224.6,0.9,74.8,433.5,-95.145966,43.365574,232008,8.45,103.1,8.5,437,77.67,75.3,275.8,103,75.56,8.64,102.1,74.08,8.7,92.7,72.33,8.05,84.4,70.66,7.45,73.5,62.11,7.15,76.2,57.59,7.81,74.2,55.15,7.84,70.1,53.08,7.6,67.2,51.61,7.42,58.5,51.06,6.51,56.3,50.66,6.3,53.5,50.46,6.01
6/30/2021 18:30,2,-4.3,7.6,156,8.7,24,26,,,26.9,30.1,231,229.5,0.3,175.7,430.2,-95.145966,43.365582,233008,8.71,106.2,8.53,436,77.63,75.41,249,103.6,75.42,8.7,101,74,8.61,94.1,72.65,8.14,86.7,71.16,7.61,73.9,62.26,7.17,75.8,57.85,7.75,74.8,54.86,7.94,69.2,52.78,7.53,65.7,51.49,7.27,59.4,51.02,6.62,56.7,50.69,6.34,53.7,50.46,6.03
6/30/2021 18:40,2.6,-3.1,7.5,139,8.5,5,7,,,26.4,30.1,228,226.1,0.7,348.3,436.2,-95.146042,43.365665,234008,8.77,106.7,8.53,436,77.43,75.35,249.9,105.1,75.17,8.85,101.2,73.99,8.63,94,72.64,8.13,84.9,70.83,7.48,74.1,62.77,7.14,76.1,57.56,7.8,74.8,54.77,7.95,70.6,52.74,7.69,65.5,51.45,7.25,59.4,51.04,6.61,54.5,50.66,6.1,53.7,50.45,6.02
6/30/2021 18:50,,,5.1,144,5.1,12,13,,,26.6,30.1,231,230.3,0.5,316.2,430.9,-95.145973,43.365574,235007,8.73,106.1,8.53,436,77.34,74.43,279.6,104.5,75.44,8.78,101,74.02,8.61,92.3,72.41,8,85.4,70.91,7.52,74.5,63.56,7.12,75.7,57.52,7.77,74.7,54.46,7.97,68.8,52.82,7.49,68.6,51.71,7.57,59.9,51.06,6.67,53.7,50.6,6.01,53.4,50.44,5.99
6/30/2021 19:00,1.5,-2.8,7,143,8.1,11,13,,,26.7,30.1,230,227.6,0,105.6,433.1,-95.145966,43.365562,8,9.37,114,8.59,434,77.43,75.34,284.8,104.1,75.6,8.72,100.4,73.97,8.56,93.4,72.58,8.08,84,70.77,7.41,74.6,63.19,7.16,75.4,58,7.69,74.8,54.5,7.97,69.2,52.8,7.53,65.3,51.53,7.23,60.2,50.93,6.71,53,50.63,5.93,52.7,50.39,5.92
6/30/2021 19:10,2.8,-5.6,4.8,131,5.1,13,15,,,27.1,30.1,231,230.4,0.3,276.4,430.9,-95.146004,43.365601,1008,9.41,114.5,8.58,434,77.41,73.62,323.4,104.4,74.98,8.81,99.6,73.62,8.53,92.6,72.53,8.02,86.9,71.27,7.62,74.7,63.35,7.16,75.1,57.8,7.68,74.9,54.74,7.96,70,53.1,7.59,69.3,51.91,7.63,60.1,51.04,6.7,52.8,50.51,5.92,52.5,50.33,5.9
6/30/2021 19:20,,,2.8,124,2.9,354,356,,,27.8,30.1,230,227.6,0.1,323.7,430.1,-95.145966,43.365582,2007,9.46,115.1,8.59,434,77.38,76.35,267.6,105,75.35,8.82,99.7,73.93,8.51,91.9,72.54,7.95,84.9,70.99,7.47,74.3,62.9,7.16,75.5,58.74,7.64,75.3,54.66,8,69.4,53.09,7.52,66.2,51.65,7.32,60.3,51.02,6.71,54.9,50.62,6.14,52.5,50.31,5.9
6/30/2021 19:30,,,4.8,163,4.9,46,48,,,27.3,30.1,234,232.2,0.3,309.8,430.7,-95.145966,43.365582,3007,9.42,114.5,8.59,434,77.34,76.42,247.2,105,75.53,8.81,101.2,74.04,8.62,91.9,72.56,7.95,86.2,71.23,7.57,74.2,63.11,7.13,75.6,57.76,7.73,74.7,54.64,7.95,70.3,53.2,7.61,66.2,51.61,7.32,60.6,51,6.76,53.4,50.66,5.97,52.4,50.31,5.89
6/30/2021 19:40,,,4.7,159,5.4,29,30,,,26.7,30.1,230,228.4,0.3,310.9,431.1,-95.145966,43.365574,4007,9.29,112.7,8.58,434,77.18,76.27,252.8,105.1,75.16,8.85,102.7,74.17,8.74,93.8,72.72,8.1,87.1,71.55,7.62,74.4,63.32,7.13,75.3,57.64,7.72,74.5,54.82,7.9,68.7,52.96,7.47,65,51.4,7.2,60.3,50.97,6.72,53,50.6,5.94,52.6,50.32,5.92
6/30/2021 19:50,2.2,-3.6,2.8,187,2.9,52,54,,,27.3,30.1,232,229.5,0.3,351.3,431.5,-95.145927,43.36562,5008,9.3,112.8,8.58,434,77.11,74.46,259.9,104.3,75.43,8.76,100,73.95,8.53,91.3,72.53,7.91,86.2,71.19,7.57,74.5,63.46,7.13,75.4,58.08,7.69,74.5,54.74,7.92,69,53.02,7.5,65.9,51.49,7.3,60.6,50.99,6.75,53,50.59,5.94,55.3,50.32,6.21
6/30/2021 20:00,4,-5.2,3.4,194,4.5,71,73,,,28.1,30.1,229,227.8,1.2,306.3,432,-95.145927,43.365601,10008,9.27,112.2,8.57,434,76.89,76.26,258.8,105.5,75.03,8.9,100.8,74,8.59,91.3,72.19,7.93,85.9,70.96,7.57,74.6,63.56,7.14,75.4,58.17,7.68,74.5,54.45,7.94,68.5,52.83,7.46,65.5,51.45,7.26,60.8,50.97,6.77,53.6,50.46,6.01,55.7,50.33,6.26
6/30/2021 20:10,2,-4.7,4.4,185,5.4,52,54,,,27.6,30.1,229,227.8,0.5,260.3,434.1,-95.145966,43.36562,11008,9.28,112.3,8.58,434,76.93,74.63,230.2,105.4,75.28,8.86,102.4,74.16,8.72,92,72.6,7.96,85.1,70.91,7.49,74.6,63.52,7.13,75.2,58.78,7.61,74.5,54.46,7.94,71.1,52.45,7.78,63.8,51.24,7.08,60.8,50.95,6.78,52.8,50.58,5.92,56.3,50.35,6.33
6/30/2021 20:20,,,3,184,3.6,58,60,,,26.1,30.1,232,230.3,0.1,317,427.3,-95.145966,43.365608,12007,9.22,111.6,8.58,434,76.89,73.55,257.8,105.2,75.24,8.85,101.9,74.08,8.68,93.2,72.64,8.06,86.3,71.04,7.59,74.1,63.16,7.12,75.5,57.81,7.72,74.8,54.66,7.96,68.4,52.87,7.44,65.9,51.51,7.29,61,50.97,6.8,53,50.62,5.93,56.1,50.37,6.31
6/30/2021 20:30,,,3.4,187,4.3,57,59,,,26.1,30.1,231,228.5,0.5,252.5,428.9,-95.145912,43.365608,13007,9.21,111.4,8.57,434,76.86,72.51,237,105.5,75.56,8.85,102.5,74.2,8.72,94.2,72.73,8.14,86.3,71.11,7.59,74.3,63.35,7.12,75,58.72,7.59,73.9,54.21,7.9,70.5,52.7,7.69,63.8,51.23,7.08,60.1,50.9,6.71,52.8,50.54,5.92,55.4,50.4,6.22
6/30/2021 20:40,,,1.7,247,2,100,102,,,25.9,30.1,234,231.2,1.2,177.6,429.8,-95.145912,43.365582,14007,9.12,110.2,8.56,434,76.78,73.4,253.4,105.7,75.56,8.86,102.9,74.24,8.75,91.8,72.58,7.94,86.6,71.07,7.61,74.5,63.43,7.13,74.8,59.26,7.52,74.8,54.49,7.97,71,52.69,7.74,63.8,51.28,7.09,59,50.83,6.59,52.1,50.51,5.84,57.1,50.35,6.41
6/30/2021 20:50,,,1.4,228,1.6,91,93,,,25.2,30.1,231,229.3,0.1,252.1,433.8,-95.14595,43.365631,15007,9.01,108.8,8.55,434,76.71,72.41,268.6,106.5,75.61,8.93,102.1,74.13,8.69,91.4,72.54,7.91,86.6,71.27,7.6,73.8,63.31,7.07,75.2,59.19,7.57,74.1,54.2,7.92,70.4,52.3,7.71,62.9,51.1,7,55.8,50.75,6.24,56.1,50.5,6.29,57.1,50.31,6.42
6/30/2021 21:00,,,1.3,241,1.6,102,104,,,24.4,30.1,232,229.9,0.3,47.3,431.2,-95.145966,43.365631,20007,9.05,109.3,8.56,434,76.66,72.38,278.8,105.8,75.61,8.87,98.3,73.98,8.38,92.8,72.6,8.03,86.7,71.43,7.6,74.2,63.47,7.1,74.8,58.98,7.54,72.3,53.83,7.77,69.7,52.67,7.6,63.1,51.24,7.01,57.7,50.8,6.45,57,50.5,6.4,56.8,50.27,6.38
6/30/2021 21:10,2.3,-2.4,1.6,244,1.6,125,127,,,23.7,30.1,230,227.9,0.3,58,429.5,-95.145927,43.365658,21008,9.06,109.4,8.55,434,76.64,71.4,272.7,105.6,75.64,8.84,102.6,74.25,8.73,93.2,72.69,8.06,86.9,71.4,7.62,74.2,63.71,7.08,74.7,58.5,7.58,73.2,53.96,7.86,70.7,52.37,7.74,64.4,51.36,7.14,59.7,50.86,6.66,57.3,50.49,6.43,56.1,50.26,6.32
6/30/2021 21:20,1.6,-4,1.6,227,1.6,100,102,,,23.3,30.1,232,229.1,0.1,77.3,430.2,-95.145897,43.365658,22008,9.04,109.2,8.55,434,76.62,68.69,248.5,104.4,75.49,8.76,103.4,74.36,8.78,91.5,72.57,7.92,86.9,71.3,7.62,74.3,63.6,7.09,74.8,59.17,7.53,72.7,53.61,7.83,69.8,52.19,7.66,62.9,51.19,6.99,59.3,50.86,6.62,57.1,50.5,6.4,55.8,50.25,6.28
6/30/2021 21:30,,,1.6,259,1.8,126,128,,,22.8,30.1,232,230.4,0.1,296.8,431.8,-95.14595,43.365685,23007,8.97,108.2,8.54,435,76.59,68.54,259.5,104.3,75.56,8.74,103,74.36,8.75,92.7,72.67,8.01,87.1,71.57,7.62,73.7,63.6,7.05,74.8,58.86,7.56,73.6,53.99,7.9,70.7,52.23,7.75,64.8,51.32,7.19,55.1,50.76,6.16,56.2,50.41,6.31,55.3,50.23,6.23
6/30/2021 21:40,,,1.5,248,1.8,114,116,,,22.5,30.1,232,230.6,0.3,322.2,432.2,-95.145927,43.365639,24007,8.92,107.6,8.54,435,76.55,66.67,255.8,105.3,75.65,8.82,102.5,74.33,8.7,95,72.85,8.2,86.8,71.27,7.61,73.9,63.22,7.09,74.3,58.42,7.54,73.3,54.04,7.85,69.6,52.45,7.61,65.4,51.45,7.25,60.5,50.91,6.75,55.9,50.49,6.27,55.5,50.23,6.25
6/30/2021 21:50,,,1.7,214,1.6,89,90,,,22.2,30.1,232,230.2,0.1,68.1,432.6,-95.145927,43.365639,25007,8.91,107.4,8.53,435,76.57,68.49,261.6,104.6,75.65,8.76,105.7,74.74,8.94,95.3,72.93,8.21,87.5,71.39,7.66,74.2,63.41,7.1,74.9,58.41,7.61,73.2,53.79,7.87,71.5,52.5,7.81,65.8,51.48,7.28,60.7,50.91,6.77,54.3,50.5,6.09,55.3,50.23,6.22
6/30/2021 22:00,,,1.5,243,1.6,118,120,,,22.1,30.1,233,230.8,0.1,353.8,429.1,-95.145912,43.36565,30007,8.9,107.4,8.54,435,76.55,66.58,256.9,104.1,75.56,8.73,103.3,74.49,8.76,95.2,72.97,8.2,87.3,71.6,7.64,73.9,63.23,7.09,75.6,58.21,7.7,72.5,53.62,7.81,71,52.33,7.78,64.5,51.24,7.17,60.6,50.91,6.76,52.8,50.53,5.92,54.8,50.25,6.17
6/30/2021 22:10,,,1.9,248,2,118,119,,,22,30.1,232,230.2,0.1,54.8,432.7,-95.14595,43.36565,31007,8.91,107.5,8.53,435,76.53,65.71,249.6,105.5,75.56,8.84,104.2,74.54,8.83,95.2,72.93,8.21,87.4,71.47,7.65,74.1,63.14,7.12,75.3,57.84,7.7,74.9,54.75,7.95,71.2,52.45,7.78,64.5,51.19,7.17,60.8,50.95,6.78,53.5,50.51,5.99,54.7,50.23,6.15
6/30/2021 22:20,,,1.5,261,1.6,126,128,,,22,30.1,232,230.3,0.1,136.1,426.2,-95.145927,43.365658,32007,8.88,107,8.54,435,76.53,66.56,252.7,105.2,75.55,8.82,104.6,74.61,8.86,95.4,73.05,8.22,87.2,71.47,7.63,73.9,63.34,7.09,75.8,58,7.73,73,53.93,7.83,71,52.49,7.76,66.8,51.45,7.4,61,50.95,6.8,52.5,50.59,5.88,54.7,50.26,6.15
6/30/2021 22:30,,,2.2,273,2.5,136,138,,,21.9,30.1,232,230.4,0.3,233.6,429.3,-95.145927,43.365631,33007,8.82,106.3,8.53,435,76.53,65.75,256.1,105.6,75.58,8.85,105.6,74.69,8.93,95.6,73.05,8.23,87.3,71.63,7.63,73.8,63.06,7.09,75.5,57.39,7.76,74,54.08,7.92,70.7,52.44,7.73,66.9,51.47,7.41,62,51.05,6.9,52.9,50.66,5.92,54.7,50.24,6.15
6/30/2021 22:40,,,1.9,265,2,130,132,,,21.6,30.1,233,231.1,0.1,206.3,430.7,-95.145897,43.36565,34007,8.72,105.1,8.52,435,76.5,66.57,268.1,105.3,75.56,8.83,106,74.83,8.96,95.9,73.13,8.25,86.8,71.39,7.61,74.1,62.53,7.16,75.5,57.33,7.77,74.6,54.2,7.98,71.6,52.5,7.82,67.2,51.53,7.44,62.8,51.12,6.98,52.9,50.67,5.92,54.5,50.23,6.13
6/30/2021 22:50,,,1.3,262,1.3,130,132,,,21.3,30.1,233,231,0.3,176.4,429.8,-95.145889,43.365639,35007,8.71,105,8.52,435,76.5,66.55,262.6,104.8,75.52,8.79,106.1,74.85,8.96,96.2,73.2,8.27,86.8,71.36,7.61,73.4,62.73,7.08,75.3,57.53,7.73,73.2,53.91,7.86,73,52.49,7.98,67.2,51.53,7.44,61.4,51.05,6.84,52.4,50.59,5.87,54.7,50.23,6.15
6/30/2021 23:00,,,1.2,298,1.3,162,163,,,21.1,30.1,233,230.9,0.1,285.4,430.3,-95.145912,43.365688,40007,8.71,104.9,8.53,435,76.48,65.59,260.9,104.5,75.56,8.76,105.9,74.87,8.95,95.8,73.17,8.24,86.5,71.27,7.59,73.5,62.95,7.08,75.7,57.39,7.78,74.6,54.25,7.97,73.1,52.58,7.98,66.5,51.44,7.37,61.1,51.04,6.8,53.3,50.54,5.97,54.3,50.23,6.11
6/30/2021 23:10,,,1.4,296,1.8,168,170,,,21,30.1,233,230.5,0.1,0,428.9,-95.14595,43.365665,41007,8.69,104.8,8.53,435,76.5,63.79,264.4,104.3,75.6,8.74,106.5,74.95,8.99,97.7,73.39,8.38,86.1,71.23,7.56,73.2,62.82,7.06,75.2,57.03,7.77,74.3,54.19,7.95,73.8,52.57,8.06,66.8,51.45,7.4,60.8,51.02,6.77,53.3,50.5,5.98,54.1,50.19,6.09
6/30/2021 23:20,,,1.1,296,1.3,170,172,,,20.7,30.1,233,230.7,0,142.8,426.7,-95.145851,43.365715,42007,8.8,106.2,8.55,435,76.59,64.65,264.7,103.1,75.8,8.62,105.7,74.93,8.92,95.3,73.14,8.2,84.1,71.11,7.39,73.7,63.2,7.08,75,57.02,7.75,73.6,54.08,7.89,72.1,52.49,7.88,65.8,51.36,7.29,59.9,50.91,6.68,52.6,50.59,5.89,53.7,50.14,6.05
6/30/2021 23:30,,,2,262,2.2,133,135,,,20.6,30.1,231,228.9,0,116,430.1,-95.145912,43.365665,43007,8.74,105.4,8.54,435,76.55,64.69,251.7,102.9,75.77,8.61,106.1,74.98,8.96,97.2,73.38,8.34,83.2,71.05,7.32,73.7,63.28,7.07,75.3,57.11,7.77,73.5,54,7.89,69.5,52.4,7.61,65.9,51.35,7.31,58.9,50.88,6.57,53,50.55,5.94,53.5,50.08,6.03
6/30/2021 23:40,,,0.9,264,1.1,140,142,,,20.4,30.1,232,230.3,0,310.2,424.1,-95.145912,43.365677,44007,8.71,105,8.54,435,76.55,65.58,267.2,103.6,76.01,8.65,106.4,74.99,8.98,96.5,73.22,8.29,83.6,71,7.36,74,63.36,7.09,75.3,57.09,7.77,73.5,54.06,7.87,71.4,52.41,7.81,66.8,51.48,7.4,60.2,50.93,6.72,53.3,50.53,5.97,53.1,50.06,5.99
6/30/2021 23:50,,,1.3,286,1.3,153,154,,,20.3,30.1,232,230.1,0.1,306,429,-95.145927,43.365639,45007,8.66,104.4,8.53,435,76.53,64.61,274.1,104.1,76.34,8.66,107.5,75.14,9.05,96.7,73.29,8.3,82.3,70.8,7.25,73.3,63.05,7.05,75.3,57.04,7.77,73.4,54.02,7.87,73.5,52.52,8.04,67.3,51.61,7.44,60,51.07,6.67,53.5,50.5,6,51.6,50.06,5.82
7/1/2021 0:00,,,1.8,264,2,131,132,,,20.1,30.1,232,230,0.1,287.4,429.8,-95.145927,43.365639,50007,8.63,104,8.53,435,76.5,64.61,273.4,103.7,76.33,8.63,105.6,75.14,8.9,96.3,73.34,8.27,81.1,70.87,7.14,73.5,63.45,7.04,75.4,56.8,7.81,73.7,54.16,7.89,74,52.58,8.08,67.2,51.57,7.44,59.3,50.93,6.61,53.3,50.41,5.99,51.8,50.04,5.84
7/1/2021 0:10,1.9,-4,1.2,270,1.3,136,138,,,20,30.1,232,229.8,0.1,195.5,425.1,-95.145927,43.365685,51008,8.74,105.4,8.54,435,76.55,63.65,264,103.9,76.33,8.64,105.8,75.18,8.91,97,73.48,8.31,83.8,71.21,7.35,73.3,63.35,7.02,75.6,56.54,7.86,74.5,54.33,7.95,71.3,52.87,7.76,69.1,51.78,7.62,58.4,51.07,6.5,53.5,50.42,6.01,51.3,50.04,5.79
7/1/2021 0:20,2.4,-3.8,1.2,292,1.3,157,159,,,19.9,30.1,232,229.5,0.1,297.1,429.8,-95.145897,43.365658,52008,8.59,103.5,8.53,435,76.48,62.73,266.2,103.9,76.49,8.63,105.3,75.25,8.86,95.2,73.55,8.16,80.9,70.77,7.13,73,63.18,7.01,75.6,56.66,7.85,74.3,54.36,7.93,70,52.91,7.61,69.5,51.78,7.67,59.6,51.03,6.63,53.6,50.42,6.02,49.3,50.01,5.56
7/1/2021 0:30,,,1.3,295,1.6,164,166,,,19.8,30.1,232,230,0,278.4,427.9,-95.145912,43.365685,53007,8.64,104.1,8.54,435,76.51,64.6,265.3,103.9,76.41,8.63,105,75.21,8.83,96,73.69,8.21,80.3,70.85,7.08,73.4,63.08,7.05,75.5,56.5,7.85,74.1,54.32,7.92,70.6,53.04,7.66,69,51.74,7.62,58.9,51.04,6.56,54.1,50.45,6.07,50,50.02,5.65
7/1/2021 0:40,,,1.2,293,1.1,166,167,,,19.7,30.1,232,229.8,0,159.5,426.3,-95.145912,43.365658,54007,8.6,103.7,8.53,436,76.5,63.64,258.3,103.5,76.46,8.6,104.6,75.28,8.79,96.2,73.66,8.23,84.3,71.09,7.41,73.1,62.89,7.04,75.1,56.49,7.81,74.2,54.31,7.93,69.9,53.16,7.57,69.1,51.77,7.62,59.5,51.02,6.62,53.7,50.48,6.02,50.9,50.02,5.74
7/1/2021 0:50,,,1.6,311,1.8,181,183,,,19.7,30.1,231,229.5,0,166.5,429,-95.145912,43.365685,55007,8.52,102.7,8.51,436,76.46,61.85,252.8,102.4,76.46,8.51,103.7,75.34,8.72,93.3,73.8,7.97,82,70.96,7.22,73.2,62.83,7.05,74.9,56.42,7.79,74.1,54.28,7.91,69.7,53.2,7.55,68.1,51.71,7.51,56.9,50.91,6.34,53.6,50.49,6.02,51.1,50.03,5.77
7/1/2021 1:00,2,-3.4,3.3,18,3.6,244,246,,,20,30.1,231,229.3,0,310.5,427.1,-95.145912,43.36565,60008,8.5,102.4,8.51,436,76.44,63.65,248.9,101.9,76.34,8.48,103.6,75.34,8.71,92.2,73.98,7.86,80.5,70.87,7.09,73.1,62.83,7.04,75.5,56.7,7.83,73.9,54.33,7.89,70.7,53.15,7.66,68.7,51.78,7.58,56.8,50.9,6.33,53.6,50.45,6.01,50.5,50.02,5.7
7/1/2021 1:10,,,2.4,357,2.7,227,229,,,20.2,30.1,231,229.3,0,211.2,426.7,-95.145966,43.365631,61007,8.46,101.9,8.51,436,76.42,63.67,236.7,102,76.38,8.48,103.4,75.37,8.69,96.2,73.62,8.23,80.8,70.63,7.14,73.1,62.68,7.06,75.2,56.45,7.82,74.1,54.29,7.92,70.4,53.14,7.63,68.6,51.78,7.57,56.7,50.87,6.33,53.2,50.42,5.97,50.5,50.02,5.7
7/1/2021 1:20,,,2.6,18,3.1,247,249,,,20.2,30.1,231,229,0,343.4,427.4,-95.145912,43.36562,62007,8.44,101.6,8.51,436,76.44,64.57,233.7,101.1,76.38,8.41,102.9,75.34,8.65,95.6,73.41,8.2,85,71.08,7.48,73.3,62.79,7.07,75.1,56.31,7.82,74.1,54.24,7.93,69.7,53.2,7.55,69.7,51.82,7.68,59.1,50.91,6.6,53.7,50.39,6.03,49.9,50.02,5.63
7/1/2021 1:30,,,3.1,10,3.6,239,241,,,20.1,30.1,231,229.1,0,294,430.8,-95.14595,43.365639,63007,8.4,101.2,8.5,436,76.46,63.65,238.7,100.2,76.34,8.34,102.9,75.34,8.65,95.8,73.39,8.21,84.9,71.23,7.46,73.3,62.83,7.06,75.1,56.28,7.83,73.9,54.28,7.89,69.7,53.2,7.55,68.2,51.82,7.52,56.6,50.86,6.32,54.3,50.33,6.11,50.1,50.02,5.66
7/1/2021 1:40,,,3.5,21,3.8,252,254,,,19.7,30.1,231,229.1,0.1,243.3,427.7,-95.145927,43.365665,64007,8.36,100.7,8.5,436,76.44,61.89,245.6,100.5,76.41,8.35,103,75.38,8.65,96.5,73.41,8.28,80,70.62,7.07,73.2,63.23,7.02,75,56.29,7.81,73.8,54.17,7.9,70.7,53.12,7.67,71,51.95,7.81,58.1,50.91,6.48,54.1,50.4,6.07,50.6,50.02,5.71
7/1/2021 1:50,,,2.4,18,2.7,250,251,,,19.6,30.1,231,229.1,0,327.1,434.1,-95.145927,43.365677,65007,8.37,100.9,8.5,436,76.46,63.66,270.8,101.2,76.37,8.41,103.5,75.38,8.7,96.5,73.37,8.28,80.9,70.95,7.12,72.8,62.91,7.02,75.2,56.33,7.83,73.7,54.24,7.88,70.5,53.09,7.64,71.2,51.98,7.83,58.8,51,6.55,53.5,50.49,6.01,51.3,50.02,5.78
7/1/2021 2:00,1.6,-3.9,1.2,92,1.6,325,326,,,19.6,30.1,232,229.7,0.1,187.5,431.8,-95.145927,43.365639,70008,8.33,100.3,8.5,436,76.44,63.64,256.2,100.4,76.37,8.35,103.2,75.42,8.67,95.1,73.29,8.17,78.4,70.59,6.93,73.7,63.63,7.04,75.3,56.48,7.83,73.6,54.21,7.87,70.6,53.12,7.65,71.5,52.04,7.87,58.5,51.04,6.51,53.8,50.46,6.03,52.1,50.06,5.87
7/1/2021 2:10,,,1.7,48,1.8,281,283,,,19.6,30.1,232,229.6,0.1,277.8,424,-95.145912,43.365677,71007,8.41,101.3,8.49,436,76.46,62.68,269,99.2,76.44,8.25,103.4,75.44,8.68,95.2,73.25,8.18,78.7,70.26,6.98,72.9,63.5,6.97,75.1,56.49,7.81,73.4,54.2,7.85,70.1,53.17,7.6,71.6,52.03,7.87,59.4,51.01,6.62,54,50.44,6.06,52.2,50.06,5.88
7/1/2021 2:20,1.9,-4.1,1.3,86,1.3,308,309,,,19.7,30.1,231,229.5,0.1,8.9,426.6,-95.145927,43.36565,72008,8.3,100,8.49,436,76.44,60.94,252.4,98.9,76.47,8.22,103,75.46,8.64,94.6,73.17,8.13,77.6,70.16,6.89,72.4,63.21,6.94,75.2,56.37,7.83,73.7,54.24,7.88,69.8,53.24,7.56,72.3,52.07,7.94,59,51.01,6.57,53.1,50.42,5.97,53.1,50.06,5.99
7/1/2021 2:30,,,2.5,127,2.9,353,355,,,19.6,30.1,231,229.2,0,260.2,430.1,-95.146004,43.365658,73007,8.31,100.1,8.49,436,76.44,62.7,252.7,99.3,76.5,8.25,103.5,75.35,8.7,94.9,73.09,8.17,78.1,70.26,6.93,73,63.23,7,74.9,56.54,7.78,73.9,54.31,7.89,69.8,53.27,7.55,72.9,52.08,8.01,59.9,50.96,6.67,53.6,50.48,6.01,53.9,50.1,6.07
7/1/2021 2:40,1.8,-3.9,2.3,106,2.5,338,340,,,19.7,30.1,231,229.6,0.1,72.3,427.7,-95.145966,43.365658,74008,8.31,100.2,8.49,436,76.44,61.8,252.7,99.3,76.49,8.25,102.8,75.46,8.63,94.7,73.06,8.15,78.1,70.02,6.95,72.7,62.67,7.02,75.1,56.72,7.78,73.8,54.29,7.88,70.3,53.28,7.61,69.3,52.15,7.61,58.6,51.03,6.53,52.2,50.57,5.85,55,50.14,6.2
7/1/2021 2:50,,,3,150,3.4,18,20,,,19.7,30.1,231,229.4,0.1,318.2,427.6,-95.145897,43.365627,75007,8.31,100.1,8.48,436,76.42,62.71,254.1,100.4,76.49,8.34,103.8,75.37,8.72,95.9,73.13,8.25,78.5,70.27,6.97,72.9,62.27,7.07,75,56.92,7.75,73.8,54.37,7.88,69.9,53.25,7.57,68.8,52.16,7.55,58.9,51.13,6.55,52.2,50.58,5.85,55.2,50.14,6.22
7/1/2021 3:00,2.2,-3.9,1.7,158,2,31,33,,,19.7,30.1,232,229.8,0.1,324.5,422.6,-95.145927,43.36565,80008,8.31,100.2,8.49,436,76.44,62.74,260,100.1,76.46,8.32,103.7,75.28,8.72,95.9,73.13,8.25,77.9,70.11,6.93,72.8,62.24,7.07,75.1,57.19,7.74,73.9,54.37,7.89,69.8,53.24,7.55,68.6,52.07,7.54,58.2,51.08,6.48,52,50.56,5.83,55.5,50.15,6.25
7/1/2021 3:10,,,2.4,153,2.7,27,29,,,19.4,30.1,232,230.3,0.1,304.7,427.1,-95.145927,43.36565,81007,8.33,100.3,8.49,436,76.42,62.7,263.3,100.7,76.46,8.36,104,75.24,8.75,96.7,73.14,8.32,78.4,69.95,6.98,72.8,62.11,7.07,75.1,57.08,7.75,73.9,54.49,7.88,71.6,53.34,7.75,70.2,52.15,7.71,58.6,51.08,6.53,56.1,50.6,6.29,55.3,50.18,6.22
7/1/2021 3:20,1.9,-4,3.1,160,3.4,30,32,,,19.2,30.1,232,230.4,0.1,156.7,429.2,-95.145912,43.365631,82008,8.3,99.9,8.49,436,76.42,63.62,271,99.5,76.46,8.27,103.3,75.26,8.69,96,73.12,8.26,80.8,70.5,7.15,72.8,62.26,7.06,74.7,56.83,7.73,74.2,54.36,7.92,70.9,53.31,7.66,69.5,52.07,7.64,58.8,51.09,6.54,56.5,50.62,6.32,55.5,50.19,6.25
7/1/2021 3:30,,,1.4,119,1.8,351,353,,,19,30.1,232,230.1,0,275.6,428,-95.145927,43.365639,83007,8.3,99.9,8.48,436,76.39,60.16,261.2,99.4,76.45,8.26,103.2,75.22,8.69,96.4,73.13,8.29,79.4,70.39,7.04,72.6,62.51,7.02,74.7,56.95,7.73,74.3,54.33,7.93,70.4,53.24,7.62,69.9,51.99,7.69,58.4,51.09,6.5,55.8,50.62,6.25,55.2,50.23,6.22
7/1/2021 3:40,1.7,-3.8,2.7,156,3.1,25,26,,,19,30.1,232,230.2,0,86.1,428.1,-95.14595,43.365639,84008,8.29,99.9,8.49,436,76.41,62.67,260,99.2,76.45,8.24,103,75.1,8.68,95.7,73.09,8.23,78.5,70.11,6.97,72.5,62.56,7.01,74.8,56.83,7.74,74.2,54.33,7.92,70.1,53.29,7.59,69.8,52.02,7.67,58.9,51.12,6.55,55.4,50.63,6.2,55.4,50.26,6.23
7/1/2021 3:50,,,1.5,111,1.8,342,343,,,18.9,30.2,232,230.1,0.1,124.5,436,-95.145889,43.365627,85007,8.28,99.7,8.49,436,76.39,60.83,268,99.5,76.46,8.27,103,75.09,8.68,96.3,73.08,8.29,78.7,70.02,7,72.2,62.64,6.97,74.5,56.86,7.71,74,54.36,7.9,69.7,53.24,7.55,69.1,52.03,7.6,58.7,51.11,6.53,53.5,50.63,5.99,55.6,50.27,6.26
7/1/2021 4:00,,,2,117,2.5,344,346,,,19,30.1,232,229.8,0,161.9,430.3,-95.146004,43.365601,90007,8.26,99.4,8.49,436,76.41,61.79,260.4,99.1,76.44,8.24,102.5,75.11,8.64,94.5,72.94,8.14,78.3,70.09,6.95,72.5,62.95,6.98,74.7,56.91,7.72,74.2,54.36,7.92,70.9,53.13,7.69,69.1,52.12,7.59,58.8,51.12,6.54,54.5,50.63,6.1,55.7,50.28,6.27
7/1/2021 4:10,1.9,-3.8,1.3,104,1.3,334,335,,,19,30.1,232,230.3,0.1,359.7,432.5,-95.145912,43.365665,91008,8.3,99.9,8.49,436,76.37,60.87,256.8,95.3,76.42,7.92,102.4,75.09,8.63,93.2,72.94,8.03,78.6,70.11,6.99,72.3,62.66,6.98,74.5,57.17,7.68,74.2,54.33,7.92,71,53.11,7.7,69.5,52.1,7.63,58.8,51.09,6.54,54.8,50.6,6.14,56.3,50.31,6.33
7/1/2021 4:20,1.8,-3.9,1.3,76,1.3,300,302,,,19,30.1,232,229.9,0.1,351.8,427.3,-95.14595,43.365639,92008,8.27,99.5,8.48,436,76.37,62.66,251.3,97.3,76.42,8.09,102,75.17,8.59,93.2,72.9,8.03,78.4,69.93,6.98,72.6,62.76,7.01,74.6,57.27,7.68,74.2,54.36,7.92,70.7,53.2,7.66,69.1,52.19,7.59,58.9,51.13,6.55,52.4,50.64,5.87,55.6,50.36,6.25
7/1/2021 4:30,1.8,-3.9,1,107,0.9,345,347,,,18.9,30.1,232,230,0,17.1,417.5,-95.145973,43.365601,93008,8.25,99.3,8.47,436,76.32,62.67,258.4,95,76.42,7.9,101.7,75.06,8.58,92.5,72.87,7.98,78.5,69.99,6.99,72.4,62.5,7.01,75,57.4,7.71,74,54.38,7.9,70.3,53.27,7.61,68.2,52.16,7.48,58.7,51.08,6.54,52.3,50.64,5.86,54.5,50.4,6.12
7/1/2021 4:40,1.6,-4,2.9,132,2.9,4,6,,,18.8,30.1,232,230.3,0.1,1.3,426,-95.145889,43.365593,94008,8.26,99.4,8.47,436,76.35,61.71,257.7,94.8,76.39,7.88,101.3,75.01,8.54,91.7,72.89,7.91,77.9,69.87,6.94,72.6,62.43,7.03,74.6,57.43,7.67,73.7,54.43,7.86,70.6,53.2,7.65,68.6,52.15,7.53,58.8,51.08,6.54,52.5,50.67,5.87,53,50.44,5.95
7/1/2021 4:50,,,3.3,150,3.8,17,19,,,18.8,30.1,232,229.9,0.1,316.3,426.5,-95.145927,43.365608,95007,8.27,99.5,8.49,436,76.3,60.8,271.3,98.5,76.38,8.19,102.2,74.98,8.62,92.5,72.84,7.98,77.7,69.78,6.93,72.5,62.47,7.02,74.1,57.39,7.62,71.9,54.65,7.65,70.7,53.17,7.67,67.4,52.12,7.4,58.6,51.08,6.53,53.1,50.68,5.94,52.4,50.47,5.87
7/1/2021 5:00,1.9,-4,3.8,144,4.5,14,16,,,18.7,30.1,232,230.2,0.1,115.4,429.5,-95.146011,43.365627,100008,8.38,100.9,8.48,436,76.32,60.78,259,98.3,76.38,8.18,102.3,75.01,8.63,92.7,72.89,7.99,78.1,69.86,6.96,72.3,62.38,7,73.8,57.28,7.6,71.6,54.67,7.61,71,53.07,7.7,66.9,52.02,7.36,58.7,51.07,6.53,52.7,50.68,5.89,52,50.48,5.83
7/1/2021 5:10,,,4,141,4.7,13,15,,,18.7,30.2,232,230.2,0.1,57.1,432.5,-95.145859,43.36562,101007,8.38,100.8,8.48,436,76.3,60.75,263.4,97.5,76.37,8.11,102.4,75.01,8.63,91.7,72.78,7.91,78.1,69.87,6.96,72.3,62.41,7,73.8,57.23,7.6,71.9,54.72,7.64,71.1,53,7.72,67.9,52.12,7.46,58.6,51.06,6.53,53.6,50.67,6,52.3,50.48,5.86
7/1/2021 5:20,1.8,-4,4.5,136,5.1,6,8,,,18.5,30.2,232,230,0,307.5,434.1,-95.14595,43.365631,102008,8.3,99.9,8.49,436,76.3,60.76,262.1,98,76.34,8.15,102,75.01,8.61,91.8,72.73,7.93,77.8,69.98,6.92,72.2,62.34,7,73.6,57.35,7.57,72,54.79,7.64,71.2,53.02,7.73,66.5,52.03,7.31,56.2,51.04,6.26,53.1,50.62,5.94,52,50.48,5.83
7/1/2021 5:30,,,3.2,148,3.8,21,23,,,18.3,30.1,232,230.5,0.1,330.3,430.7,-95.145912,43.36562,103007,8.39,100.9,8.49,436,76.26,61.71,272.6,98,76.34,8.15,102.8,75.05,8.66,91.1,72.65,7.88,78.5,69.79,7,72.1,62.19,7,73.5,57.25,7.57,71.9,54.74,7.64,71.3,53.03,7.74,66.7,52.01,7.34,56.4,51.04,6.28,53.1,50.63,5.95,51.9,50.49,5.82
7/1/2021 5:40,,,3.7,157,3.8,32,34,,,18.3,30.2,232,230.5,0,75.2,431.5,-95.14595,43.365665,104007,8.37,100.7,8.49,436,76.24,60.74,272.5,99,76.3,8.24,103.4,75.05,8.72,91.6,72.6,7.93,78.7,69.49,7.04,72.3,62.22,7.02,73.8,57.23,7.6,72.2,54.74,7.67,71.3,53.02,7.74,66.9,52.02,7.35,57.9,51.04,6.45,53.8,50.65,6.02,52.1,50.52,5.84
7/1/2021 5:50,,,3.1,135,3.1,7,9,,,18.3,30.1,232,230.1,0,28.1,427.5,-95.145927,43.365627,105007,8.27,99.5,8.49,436,76.24,59.83,261.7,98.5,76.3,8.2,103.2,75.05,8.7,91.1,72.53,7.89,78.4,69.5,7.02,72.4,62.5,7.01,74.1,57.35,7.62,72.8,54.66,7.74,70.9,52.99,7.7,66.3,51.9,7.3,57.4,51.06,6.39,57.9,50.65,6.48,52.5,50.52,5.88
